$GPRMC,171225.000,A,5043.8137,N,00706.1748,E,0.76,282.00,070507,,*09
$GPGGA,171226.000,5043.8135,N,00706.1739,E,1,07,1.2,63.3,M,47.7,M,,0000*6B
$GPGSA,A,3,27,08,10,29,28,26,21,,,,,,2.1,1.2,1.7*3E
$GPRMC,171226.000,A,5043.8135,N,00706.1739,E,0.87,249.06,070507,,*01
$GPGGA,171227.000,5043.8134,N,00706.1732,E,1,06,1.3,62.9,M,47.7,M,,0000*6B
$GPGSA,A,3,27,08,10,28,26,21,,,,,,,2.4,1.3,2.0*35
$GPGSV,3,1,11,29,71,301,17,26,58,299,24,28,56,113,20,08,46,063,17*7E
$GPGSV,3,2,11,10,42,196,35,27,22,068,15,21,12,303,14,24,11,266,*79
$GPGSV,3,3,11,19,08,031,,18,03,326,,09,03,249,*43
$GPRMC,171227.000,A,5043.8134,N,00706.1732,E,1.54,258.67,070507,,*02
$GPGGA,171228.000,5043.8133,N,00706.1729,E,1,06,1.3,62.7,M,47.7,M,,0000*67
$GPGSA,A,3,27,08,10,28,26,21,,,,,,,2.4,1.3,2.0*35
$GPRMC,171228.000,A,5043.8133,N,00706.1729,E,0.36,308.05,070507,,*05
$GPGGA,171229.000,5043.8135,N,00706.1726,E,1,07,1.2,62.2,M,47.7,M,,0000*6A
$GPGSA,A,3,27,08,10,29,28,26,21,,,,,,2.1,1.2,1.7*3E
$GPRMC,171229.000,A,5043.8135,N,00706.1726,E,0.52,280.26,070507,,*0F
$GPGGA,171230.000,5043.8136,N,00706.1723,E,1,07,1.2,62.4,M,47.7,M,,0000*62
$GPGSA,A,3,27,08,10,29,28,26,21,,,,,,2.1,1.2,1.7*3E
$GPRMC,171230.000,A,5043.8136,N,00706.1723,E,0.31,47.55,070507,,*39
$GPGGA,171231.000,5043.8137,N,00706.1722,E,1,07,1.2,61.7,M,47.7,M,,0000*63
$GPGSA,A,3,27,08,10,29,28,26,21,,,,,,2.1,1.2,1.7*3E
$GPRMC,171231.000,A,5043.8137,N,00706.1722,E,0.31,292.44,070507,,*02
$GPGGA,171232.000,5043.8138,N,00706.1721,E,1,07,1.2,61.7,M,47.7,M,,0000*6C
$GPGSA,A,3,27,08,10,29,28,26,21,,,,,,2.1,1.2,1.7*3E
$GPGSV,3,1,11,29,71,301,28,26,58,299,28,28,56,113,23,08,46,063,21*78
$GPGSV,3,2,11,10,42,196,28,27,22,068,15,21,12,303,13,24,11,266,*72
$GPGSV,3,3,11,19,08,031,,18,03,326,,09,03,249,*43
$GPRMC,171232.000,A,5043.8138,N,00706.1721,E,0.43,35.01,070507,,*36
$GPGGA,171233.000,5043.8138,N,00706.1721,E,1,07,1.2,61.7,M,47.7,M,,0000*6D
$GPGSA,A,3,27,08,10,29,28,26,21,,,,,,2.1,1.2,1.7*3E
$GPRMC,171233.000,A,5043.8138,N,00706.1721,E,0.22,11.51,070507,,*33
$GPGGA,171234.000,5043.8138,N,00706.1719,E,1,07,1.2,62.9,M,47.7,M,,0000*6C
$GPGSA,A,3,27,08,10,29,28,26,21,,,,,,2.1,1.2,1.7*3E
$GPRMC,171234.000,A,5043.8138,N,00706.1719,E,1.05,253.33,070507,,*0B
$GPGGA,171235.000,5043.8139,N,00706.1719,E,1,07,1.2,62.8,M,47.7,M,,0000*6D
$GPGSA,A,3,27,08,10,29,28,26,21,,,,,,2.1,1.2,1.7*3E
$GPRMC,171235.000,A,5043.8139,N,00706.1719,E,0.40,61.11,070507,,*38
$GPGGA,171236.000,5043.8141,N,00706.1726,E,1,07,1.2,61.5,M,47.7,M,,0000*63
$GPGSA,A,3,27,08,10,29,28,26,21,,,,,,2.1,1.2,1.7*3E
$GPRMC,171236.000,A,5043.8141,N,00706.1726,E,0.26,77.45,070507,,*3E
$GPGGA,171237.000,5043.8143,N,00706.1728,E,1,07,1.2,60.1,M,47.7,M,,0000*6B
$GPGSA,A,3,27,08,10,29,28,26,21,,,,,,2.1,1.2,1.7*3E
$GPGSV,3,1,11,29,71,301,29,26,58,299,29,28,56,113,26,08,46,063,21*7D
$GPGSV,3,2,11,10,42,196,29,27,22,068,17,21,12,303,12,24,11,266,*70
$GPGSV,3,3,11,19,08,031,,18,03,326,,09,03,249,*43
$GPRMC,171237.000,A,5043.8143,N,00706.1728,E,0.37,55.75,070507,,*30
$GPGGA,171238.000,5043.8145,N,00706.1735,E,1,07,1.2,59.2,M,47.7,M,,0000*67
$GPGSA,A,3,27,08,10,29,28,26,21,,,,,,2.1,1.2,1.7*3E
$GPRMC,171238.000,A,5043.8145,N,00706.1735,E,0.84,78.82,070507,,*3A
$GPGGA,171239.000,5043.8146,N,00706.1737,E,1,07,1.2,58.5,M,47.7,M,,0000*61
$GPGSA,A,3,27,08,10,29,28,26,21,,,,,,2.1,1.2,1.7*3E
$GPRMC,171239.000,A,5043.8146,N,00706.1737,E,0.17,262.52,070507,,*04
$GPGGA,171240.000,5043.8147,N,00706.1737,E,1,06,1.6,58.0,M,47.7,M,,0000*6E
$GPGSA,A,3,27,08,10,29,28,26,,,,,,,3.4,1.6,3.0*38
$GPRMC,171240.000,A,5043.8147,N,00706.1737,E,1.04,67.49,070507,,*35
$GPGGA,171241.000,5043.8147,N,00706.1735,E,1,06,1.6,57.6,M,47.7,M,,0000*64
$GPGSA,A,3,27,08,10,29,28,26,,,,,,,3.4,1.6,3.0*38
$GPRMC,171241.000,A,5043.8147,N,00706.1735,E,0.11,38.80,070507,,*3C
$GPGGA,171242.000,5043.8147,N,00706.1733,E,1,06,1.6,56.9,M,47.7,M,,0000*6F
$GPGSA,A,3,27,08,10,29,28,26,,,,,,,3.4,1.6,3.0*38
$GPGSV,3,1,11,29,71,301,23,26,58,299,29,28,56,113,14,08,46,063,21*76
$GPGSV,3,2,11,10,42,196,36,27,22,068,16,21,12,303,,24,11,266,*7C
$GPGSV,3,3,11,19,08,031,,18,03,326,,09,03,249,*43
$GPRMC,171242.000,A,5043.8147,N,00706.1733,E,0.23,350.11,070507,,*0D
$GPGGA,171243.000,5043.8148,N,00706.1730,E,1,06,1.6,56.5,M,47.7,M,,0000*6E
$GPGSA,A,3,27,08,10,29,28,26,,,,,,,3.4,1.6,3.0*38
$GPRMC,171243.000,A,5043.8148,N,00706.1730,E,0.14,353.30,070507,,*04
$GPGGA,171244.000,5043.8147,N,00706.1724,E,1,06,1.6,56.3,M,47.7,M,,0000*65
$GPGSA,A,3,27,08,10,29,28,26,,,,,,,3.4,1.6,3.0*38
$GPRMC,171244.000,A,5043.8147,N,00706.1724,E,0.88,254.42,070507,,*0F
$GPGGA,171245.000,5043.8147,N,00706.1717,E,1,06,1.6,56.8,M,47.7,M,,0000*6F
$GPGSA,A,3,27,08,10,29,28,26,,,,,,,3.4,1.6,3.0*38
$GPRMC,171245.000,A,5043.8147,N,00706.1717,E,0.67,321.64,070507,,*08
$GPGGA,171246.000,5043.8148,N,00706.1710,E,1,06,1.6,56.3,M,47.7,M,,0000*6F
$GPGSA,A,3,27,08,10,29,28,26,,,,,,,3.4,1.6,3.0*38
$GPRMC,171246.000,A,5043.8148,N,00706.1710,E,1.41,301.84,070507,,*0A
$GPGGA,171247.000,5043.8153,N,00706.1707,E,1,06,1.6,56.7,M,47.7,M,,0000*66
$GPGSA,A,3,27,08,10,29,28,26,,,,,,,3.4,1.6,3.0*38
$GPGSV,3,1,11,29,71,301,23,26,58,299,24,28,56,113,20,08,46,063,26*7B
$GPGSV,3,2,11,10,42,196,32,27,22,068,16,21,12,303,,24,11,266,*78
$GPGSV,3,3,11,19,08,031,07,18,03,326,,09,03,249,*44
$GPRMC,171247.000,A,5043.8153,N,00706.1707,E,2.57,333.44,070507,,*0E
$GPGGA,171248.000,5043.8162,N,00706.1707,E,1,06,1.6,56.9,M,47.7,M,,0000*65
$GPGSA,A,3,27,08,10,29,28,26,,,,,,,3.4,1.6,3.0*38
$GPRMC,171248.000,A,5043.8162,N,00706.1707,E,3.48,327.52,070507,,*0E
$GPGGA,171249.000,5043.8172,N,00706.1708,E,1,06,1.6,56.6,M,47.7,M,,0000*65
$GPGSA,A,3,27,08,10,29,28,26,,,,,,,3.4,1.6,3.0*38
$GPRMC,171249.000,A,5043.8172,N,00706.1708,E,3.22,333.70,070507,,*08
$GPGGA,171250.000,5043.8180,N,00706.1716,E,1,06,1.6,56.9,M,47.7,M,,0000*60
$GPGSA,A,3,27,08,10,29,28,26,,,,,,,3.4,1.6,3.0*38
$GPRMC,171250.000,A,5043.8180,N,00706.1716,E,2.61,4.29,070507,,*0F
$GPGGA,171251.000,5043.8189,N,00706.1714,E,1,06,1.6,57.4,M,47.7,M,,0000*66
$GPGSA,A,3,27,08,10,29,28,26,,,,,,,3.4,1.6,3.0*38
$GPRMC,171251.000,A,5043.8189,N,00706.1714,E,3.83,308.37,070507,,*08
$GPGGA,171252.000,5043.8194,N,00706.1702,E,1,06,1.6,58.3,M,47.7,M,,0000*66
$GPGSA,A,3,27,08,10,29,28,26,,,,,,,3.4,1.6,3.0*38
$GPGSV,3,1,11,29,71,301,27,26,58,299,29,28,56,113,36,08,46,063,23*70
$GPGSV,3,2,11,10,42,196,32,27,22,068,24,21,12,303,,24,11,266,*79
$GPGSV,3,3,11,19,08,031,,18,03,326,,09,03,249,*43
$GPRMC,171252.000,A,5043.8194,N,00706.1702,E,2.86,302.07,070507,,*0D
$GPGGA,171253.000,5043.8202,N,00706.1693,E,1,06,1.6,58.3,M,47.7,M,,0000*62
$GPGSA,A,3,27,08,10,29,28,26,,,,,,,3.4,1.6,3.0*38
$GPRMC,171253.000,A,5043.8202,N,00706.1693,E,3.07,327.71,070507,,*07
$GPGGA,171254.000,5043.8209,N,00706.1685,E,1,06,1.6,58.9,M,47.7,M,,0000*63
$GPGSA,A,3,27,08,10,29,28,26,,,,,,,3.4,1.6,3.0*38
$GPRMC,171254.000,A,5043.8209,N,00706.1685,E,3.19,317.68,070507,,*08
$GPGGA,171255.000,5043.8218,N,00706.1676,E,1,06,1.6,60.9,M,47.7,M,,0000*65
$GPGSA,A,3,27,08,10,29,28,26,,,,,,,3.4,1.6,3.0*38
$GPRMC,171255.000,A,5043.8218,N,00706.1676,E,4.07,328.25,070507,,*08
$GPGGA,171256.000,5043.8229,N,00706.1670,E,1,06,1.6,62.3,M,47.7,M,,0000*6A
$GPGSA,A,3,27,08,10,29,28,26,,,,,,,3.4,1.6,3.0*38
$GPRMC,171256.000,A,5043.8229,N,00706.1670,E,3.60,336.12,070507,,*02
$GPGGA,171257.000,5043.8240,N,00706.1664,E,1,05,2.1,65.3,M,47.7,M,,0000*61
$GPGSA,A,3,27,08,10,29,28,,,,,,,,3.8,2.1,3.1*35
$GPGSV,3,1,11,29,71,301,27,26,58,299,25,28,56,113,32,08,46,063,28*73
$GPGSV,3,2,11,10,42,196,19,27,22,068,20,21,12,303,13,24,11,266,*76
$GPGSV,3,3,11,19,08,031,,18,03,326,,09,03,249,*43
$GPRMC,171257.000,A,5043.8240,N,00706.1664,E,4.62,320.85,070507,,*05
$GPGGA,171258.000,5043.8251,N,00706.1658,E,1,07,1.2,67.4,M,47.7,M,,0000*66
$GPGSA,A,3,27,08,10,29,28,26,21,,,,,,2.1,1.2,1.7*3E
$GPRMC,171258.000,A,5043.8251,N,00706.1658,E,4.61,330.51,070507,,*0E
$GPGGA,171259.000,5043.8262,N,00706.1656,E,1,06,2.8,69.4,M,47.7,M,,0000*6F
$GPGSA,A,3,27,08,29,28,26,21,,,,,,,3.5,2.8,2.2*35
$GPRMC,171259.000,A,5043.8262,N,00706.1656,E,4.64,345.87,070507,,*0D
$GPGGA,171300.000,5043.8274,N,00706.1659,E,1,07,1.2,71.6,M,47.7,M,,0000*69
$GPGSA,A,3,27,08,10,29,28,26,21,,,,,,2.1,1.2,1.7*3E
$GPRMC,171300.000,A,5043.8274,N,00706.1659,E,4.04,349.38,070507,,*06
$GPGGA,171301.000,5043.8286,N,00706.1665,E,1,07,1.2,72.6,M,47.7,M,,0000*69
$GPGSA,A,3,27,08,10,29,28,26,21,,,,,,2.1,1.2,1.7*3E
$GPRMC,171301.000,A,5043.8286,N,00706.1665,E,3.50,9.18,070507,,*06
$GPGGA,171302.000,5043.8302,N,00706.1674,E,1,07,1.2,75.8,M,47.7,M,,0000*6E
$GPGSA,A,3,27,08,10,29,28,26,21,,,,,,2.1,1.2,1.7*3E
$GPGSV,3,1,11,29,71,301,18,26,58,299,19,28,56,113,32,08,46,063,29*71
$GPGSV,3,2,11,10,42,196,20,27,22,068,20,21,12,303,16,24,11,266,07*7E
$GPGSV,3,3,11,19,08,031,,18,03,326,,09,03,249,*43
$GPRMC,171302.000,A,5043.8302,N,00706.1674,E,5.16,2.03,070507,,*0D
$GPGGA,171303.000,5043.8314,N,00706.1680,E,1,07,1.2,78.9,M,47.7,M,,0000*6F
$GPGSA,A,3,27,08,10,29,28,26,21,,,,,,2.1,1.2,1.7*3E
$GPRMC,171303.000,A,5043.8314,N,00706.1680,E,3.85,4.65,070507,,*0A
$GPGGA,171304.000,5043.8330,N,00706.1682,E,1,06,1.3,81.4,M,47.7,M,,0000*67
$GPGSA,A,3,27,08,10,29,28,21,,,,,,,2.3,1.3,1.9*37
$GPRMC,171304.000,A,5043.8330,N,00706.1682,E,4.60,348.13,070507,,*0F
$GPGGA,171305.000,5043.8343,N,00706.1676,E,1,06,1.4,82.3,M,47.7,M,,0000*6A
$GPGSA,A,3,08,10,29,28,26,21,,,,,,,2.5,1.4,2.0*3D
$GPRMC,171305.000,A,5043.8343,N,00706.1676,E,3.94,329.10,070507,,*09
$GPGGA,171306.000,5043.8355,N,00706.1675,E,1,06,1.4,82.7,M,47.7,M,,0000*69
$GPGSA,A,3,08,10,29,28,26,21,,,,,,,2.5,1.4,2.0*3D
$GPRMC,171306.000,A,5043.8355,N,00706.1675,E,4.09,351.13,070507,,*01
$GPGGA,171307.000,5043.8371,N,00706.1677,E,1,06,1.4,83.2,M,47.7,M,,0000*68
$GPGSA,A,3,08,10,29,28,26,21,,,,,,,2.4,1.4,2.0*3C
$GPGSV,3,1,11,29,71,301,17,26,58,299,18,28,56,113,32,08,46,063,33*74
$GPGSV,3,2,11,10,42,196,20,27,22,068,,21,12,303,15,24,11,266,*78
$GPGSV,3,3,11,19,08,031,,18,03,326,,09,03,249,*43
$GPRMC,171307.000,A,5043.8371,N,00706.1677,E,4.64,345.47,070507,,*0B
$GPGGA,171308.000,5043.8384,N,00706.1677,E,1,06,1.4,82.9,M,47.7,M,,0000*67
$GPGSA,A,3,08,10,29,28,26,21,,,,,,,2.4,1.4,2.0*3C
$GPRMC,171308.000,A,5043.8384,N,00706.1677,E,3.25,334.68,070507,,*07
$GPGGA,171309.000,5043.8398,N,00706.1675,E,1,06,1.4,82.7,M,47.7,M,,0000*67
$GPGSA,A,3,08,10,29,28,26,21,,,,,,,2.4,1.4,2.0*3C
$GPRMC,171309.000,A,5043.8398,N,00706.1675,E,4.55,355.54,070507,,*01
$GPGGA,171310.000,5043.8413,N,00706.1677,E,1,06,1.4,83.5,M,47.7,M,,0000*6A
$GPGSA,A,3,08,10,29,28,26,21,,,,,,,2.4,1.4,2.0*3C
$GPRMC,171310.000,A,5043.8413,N,00706.1677,E,3.02,358.65,070507,,*05
$GPGGA,171311.000,5043.8432,N,00706.1675,E,1,06,1.4,85.3,M,47.7,M,,0000*6A
$GPGSA,A,3,08,10,29,28,26,21,,,,,,,2.4,1.4,2.0*3C
$GPRMC,171311.000,A,5043.8432,N,00706.1675,E,4.38,351.50,070507,,*04
$GPGGA,171312.000,5043.8448,N,00706.1676,E,1,06,1.4,86.3,M,47.7,M,,0000*64
$GPGSA,A,3,08,10,29,28,26,21,,,,,,,2.4,1.4,2.0*3C
$GPGSV,3,1,11,29,71,301,24,26,58,299,18,28,56,113,31,08,46,063,33*77
$GPGSV,3,2,11,10,42,196,19,27,22,068,,21,12,303,15,24,11,266,*72
$GPGSV,3,3,11,19,08,031,,18,03,326,,09,03,249,09*4A
$GPRMC,171312.000,A,5043.8448,N,00706.1676,E,4.61,356.79,070507,,*09
$GPGGA,171313.000,5043.8458,N,00706.1674,E,1,06,1.4,88.0,M,47.7,M,,0000*6B
$GPGSA,A,3,08,10,29,28,26,21,,,,,,,2.4,1.4,2.0*3C
$GPRMC,171313.000,A,5043.8458,N,00706.1674,E,2.70,352.95,070507,,*0B
$GPGGA,171314.000,5043.8465,N,00706.1668,E,1,06,1.4,89.3,M,47.7,M,,0000*6D
$GPGSA,A,3,08,10,29,28,26,21,,,,,,,2.4,1.4,2.0*3C
$GPRMC,171314.000,A,5043.8465,N,00706.1668,E,1.96,331.94,070507,,*00
$GPGGA,171315.000,5043.8470,N,00706.1663,E,1,06,1.4,89.4,M,47.7,M,,0000*64
$GPGSA,A,3,08,10,29,28,26,21,,,,,,,2.4,1.4,2.0*3C
$GPRMC,171315.000,A,5043.8470,N,00706.1663,E,2.75,340.52,070507,,*0C
$GPGGA,171316.000,5043.8478,N,00706.1660,E,1,06,1.4,91.3,M,47.7,M,,0000*62
$GPGSA,A,3,08,10,29,28,26,21,,,,,,,2.4,1.4,2.0*3C
$GPRMC,171316.000,A,5043.8478,N,00706.1660,E,2.89,346.70,070507,,*01
$GPGGA,171317.000,5043.8487,N,00706.1654,E,1,06,1.4,93.4,M,47.7,M,,0000*61
$GPGSA,A,3,08,10,29,28,26,21,,,,,,,2.4,1.4,2.0*3C
$GPGSV,3,1,11,29,71,301,25,26,58,299,18,28,56,113,31,08,46,063,33*76
$GPGSV,3,2,11,10,42,196,19,27,22,068,,21,12,303,14,24,11,266,*73
$GPGSV,3,3,11,19,08,031,,18,03,326,,09,03,249,*43
$GPRMC,171317.000,A,5043.8487,N,00706.1654,E,3.11,359.77,070507,,*0E
$GPGGA,171318.000,5043.8493,N,00706.1649,E,1,06,1.4,95.1,M,47.7,M,,0000*64
$GPGSA,A,3,08,10,29,28,26,21,,,,,,,2.4,1.4,2.0*3C
$GPRMC,171318.000,A,5043.8493,N,00706.1649,E,3.50,353.12,070507,,*04
$GPGGA,171319.000,5043.8499,N,00706.1644,E,1,06,1.4,96.3,M,47.7,M,,0000*63
$GPGSA,A,3,08,10,29,28,26,21,,,,,,,2.4,1.4,2.0*3C
$GPRMC,171319.000,A,5043.8499,N,00706.1644,E,3.91,348.32,070507,,*07
$GPGGA,171320.000,5043.8503,N,00706.1642,E,1,06,1.4,95.9,M,47.7,M,,0000*64
$GPGSA,A,3,08,10,29,28,26,21,,,,,,,2.4,1.4,2.0*3C
$GPRMC,171320.000,A,5043.8503,N,00706.1642,E,3.18,356.32,070507,,*07
$GPGGA,171321.000,5043.8509,N,00706.1643,E,1,06,1.4,95.9,M,47.7,M,,0000*6E
$GPGSA,A,3,08,10,29,28,26,21,,,,,,,2.4,1.4,2.0*3C
$GPRMC,171321.000,A,5043.8509,N,00706.1643,E,1.98,13.04,070507,,*30
$GPGGA,171322.000,5043.8520,N,00706.1647,E,1,06,1.4,97.4,M,47.7,M,,0000*6D
$GPGSA,A,3,08,10,29,28,26,21,,,,,,,2.4,1.4,2.0*3C
$GPGSV,3,1,11,29,71,301,25,26,58,299,18,28,56,113,30,08,46,063,33*77
$GPGSV,3,2,11,10,42,196,19,27,22,068,,21,12,303,15,24,11,266,*72
$GPGSV,3,3,11,19,08,031,07,18,03,326,,09,03,249,*44
$GPRMC,171322.000,A,5043.8520,N,00706.1647,E,3.96,6.59,070507,,*0C
$GPGGA,171323.000,5043.8531,N,00706.1649,E,1,06,1.4,97.8,M,47.7,M,,0000*6E
$GPGSA,A,3,08,10,29,28,26,21,,,,,,,2.4,1.4,2.0*3C
$GPRMC,171323.000,A,5043.8531,N,00706.1649,E,4.55,356.48,070507,,*0D
$GPGGA,171324.000,5043.8543,N,00706.1647,E,1,06,1.4,98.8,M,47.7,M,,0000*6D
$GPGSA,A,3,08,10,29,28,26,21,,,,,,,2.4,1.4,2.0*3C
$GPRMC,171324.000,A,5043.8543,N,00706.1647,E,4.19,357.83,070507,,*0F
$GPGGA,171325.000,5043.8554,N,00706.1645,E,1,06,1.4,99.6,M,47.7,M,,0000*67
$GPGSA,A,3,08,10,29,28,26,21,,,,,,,2.4,1.4,2.0*3C
$GPRMC,171325.000,A,5043.8554,N,00706.1645,E,4.27,358.99,070507,,*03
$GPGGA,171326.000,5043.8562,N,00706.1643,E,1,06,1.4,101.3,M,47.7,M,,0000*52
$GPGSA,A,3,08,10,29,28,26,21,,,,,,,2.4,1.4,2.0*3C
$GPRMC,171326.000,A,5043.8562,N,00706.1643,E,2.80,22.77,070507,,*36
$GPGGA,171327.000,5043.8569,N,00706.1637,E,1,06,1.4,102.6,M,47.7,M,,0000*5D
$GPGSA,A,3,08,10,29,28,26,21,,,,,,,2.4,1.4,2.0*3C
$GPGSV,3,1,11,29,71,301,25,26,58,299,18,28,56,113,31,08,46,063,32*77
$GPGSV,3,2,11,10,42,196,19,27,22,068,,21,12,303,15,24,11,266,*72
$GPGSV,3,3,11,19,08,031,,18,03,326,,09,03,249,*43
$GPRMC,171327.000,A,5043.8569,N,00706.1637,E,2.76,3.61,070507,,*02
$GPGGA,171328.000,5043.8574,N,00706.1630,E,1,06,1.4,104.1,M,47.7,M,,0000*58
$GPGSA,A,3,08,10,29,28,26,21,,,,,,,2.4,1.4,2.0*3C
$GPRMC,171328.000,A,5043.8574,N,00706.1630,E,2.22,1.70,070507,,*05
$GPGGA,171329.000,5043.8579,N,00706.1622,E,1,06,1.4,104.5,M,47.7,M,,0000*53
$GPGSA,A,3,08,10,29,28,26,21,,,,,,,2.4,1.4,2.0*3C
$GPRMC,171329.000,A,5043.8579,N,00706.1622,E,1.78,8.31,070507,,*0A
$GPGGA,171330.000,5043.8579,N,00706.1619,E,1,06,1.4,103.3,M,47.7,M,,0000*52
$GPGSA,A,3,08,10,29,28,26,21,,,,,,,2.4,1.4,2.0*3C
$GPRMC,171330.000,A,5043.8579,N,00706.1619,E,1.96,9.02,070507,,*0B
$GPGGA,171331.000,5043.8582,N,00706.1617,E,1,06,1.4,100.9,M,47.7,M,,0000*50
$GPGSA,A,3,08,10,29,28,26,21,,,,,,,2.4,1.4,2.0*3C
$GPRMC,171331.000,A,5043.8582,N,00706.1617,E,0.91,335.01,070507,,*09
$GPGGA,171332.000,5043.8585,N,00706.1617,E,1,06,1.4,98.9,M,47.7,M,,0000*64
$GPGSA,A,3,08,10,29,28,26,21,,,,,,,2.4,1.4,2.0*3C
$GPGSV,3,1,11,29,71,301,18,26,58,299,18,28,56,113,31,08,46,063,33*78
$GPGSV,3,2,11,10,42,196,19,27,22,068,,21,12,303,15,24,11,266,15*76
$GPGSV,3,3,11,19,08,031,,18,03,326,,09,03,249,*43
$GPRMC,171332.000,A,5043.8585,N,00706.1617,E,1.56,359.68,070507,,*02
$GPGGA,171333.000,5043.8595,N,00706.1610,E,1,06,1.4,99.1,M,47.7,M,,0000*6A
$GPGSA,A,3,08,10,29,28,26,21,,,,,,,2.4,1.4,2.0*3C
$GPRMC,171333.000,A,5043.8595,N,00706.1610,E,3.01,8.98,070507,,*0D
$GPGGA,171334.000,5043.8606,N,00706.1606,E,1,07,1.3,98.5,M,47.7,M,,0000*60
$GPGSA,A,3,08,10,29,28,26,21,24,,,,,,2.2,1.3,1.8*30
$GPRMC,171334.000,A,5043.8606,N,00706.1606,E,3.50,4.92,070507,,*06
$GPGGA,171335.000,5043.8620,N,00706.1601,E,1,07,1.3,97.5,M,47.7,M,,0000*6D
$GPGSA,A,3,08,10,29,28,26,21,24,,,,,,2.2,1.3,1.8*30
$GPRMC,171335.000,A,5043.8620,N,00706.1601,E,4.64,9.86,070507,,*0C
$GPGGA,171336.000,5043.8629,N,00706.1595,E,1,07,1.3,97.9,M,47.7,M,,0000*65
$GPGSA,A,3,08,10,29,28,26,21,24,,,,,,2.2,1.3,1.8*30
$GPRMC,171336.000,A,5043.8629,N,00706.1595,E,3.49,16.35,070507,,*36
$GPGGA,171337.000,5043.8642,N,00706.1588,E,1,06,1.9,97.9,M,47.7,M,,0000*6E
$GPGSA,A,3,08,29,28,26,21,24,,,,,,,2.6,1.9,1.8*3F
$GPGSV,3,1,11,29,71,301,27,26,58,299,21,28,56,113,31,08,46,063,33*7E
$GPGSV,3,2,11,10,42,196,19,27,22,068,,21,12,303,15,24,11,266,14*77
$GPGSV,3,3,11,19,08,031,,18,03,326,,09,03,249,*43
$GPRMC,171337.000,A,5043.8642,N,00706.1588,E,3.50,357.67,070507,,*0F
$GPGGA,171338.000,5043.8648,N,00706.1575,E,1,07,1.3,97.9,M,47.7,M,,0000*62
$GPGSA,A,3,08,10,29,28,26,21,24,,,,,,2.2,1.3,1.8*30
$GPRMC,171338.000,A,5043.8648,N,00706.1575,E,2.73,351.85,070507,,*02
$GPGGA,171339.000,5043.8656,N,00706.1567,E,1,07,1.3,99.9,M,47.7,M,,0000*61
$GPGSA,A,3,08,10,29,28,26,21,24,,,,,,2.2,1.3,1.8*30
$GPRMC,171339.000,A,5043.8656,N,00706.1567,E,1.87,12.90,070507,,*37
$GPGGA,171340.000,5043.8667,N,00706.1556,E,1,07,1.3,101.2,M,47.7,M,,0000*54
$GPGSA,A,3,08,10,29,28,26,21,24,,,,,,2.2,1.3,1.8*30
$GPRMC,171340.000,A,5043.8667,N,00706.1556,E,2.76,330.56,070507,,*0D
$GPGGA,171341.000,5043.8678,N,00706.1542,E,1,08,1.2,100.4,M,47.7,M,,0000*57
$GPGSA,A,3,27,08,10,29,28,26,21,24,,,,,1.8,1.2,1.4*31
$GPRMC,171341.000,A,5043.8678,N,00706.1542,E,2.69,342.25,070507,,*08
$GPGGA,171342.000,5043.8682,N,00706.1523,E,1,08,1.2,100.7,M,47.7,M,,0000*55
$GPGSA,A,3,27,08,10,29,28,26,21,24,,,,,1.8,1.2,1.4*31
$GPGSV,3,1,11,29,71,301,27,26,58,299,19,28,56,113,31,08,46,063,33*75
$GPGSV,3,2,11,10,42,196,19,27,22,068,16,21,12,303,19,24,11,266,13*7B
$GPGSV,3,3,11,19,08,031,,18,03,326,07,09,03,249,11*44
$GPRMC,171342.000,A,5043.8682,N,00706.1523,E,1.21,292.49,070507,,*00
$GPGGA,171343.000,5043.8693,N,00706.1506,E,1,08,1.2,100.7,M,47.7,M,,0000*53
$GPGSA,A,3,27,08,10,29,28,26,21,24,,,,,1.8,1.2,1.4*31
$GPRMC,171343.000,A,5043.8693,N,00706.1506,E,2.10,323.39,070507,,*0B
$GPGGA,171344.000,5043.8709,N,00706.1484,E,1,08,1.2,101.2,M,47.7,M,,0000*59
$GPGSA,A,3,27,08,10,29,28,26,21,24,,,,,1.8,1.2,1.4*31
$GPRMC,171344.000,A,5043.8709,N,00706.1484,E,3.93,318.83,070507,,*06
$GPGGA,171345.000,5043.8723,N,00706.1462,E,1,08,1.2,102.1,M,47.7,M,,0000*58
$GPGSA,A,3,27,08,10,29,28,26,21,24,,,,,1.8,1.2,1.4*31
$GPRMC,171345.000,A,5043.8723,N,00706.1462,E,3.56,318.74,070507,,*06
$GPGGA,171346.000,5043.8732,N,00706.1451,E,1,08,1.2,101.6,M,47.7,M,,0000*5F
$GPGSA,A,3,27,08,10,29,28,26,21,24,,,,,1.8,1.2,1.4*31
$GPRMC,171346.000,A,5043.8732,N,00706.1451,E,1.67,330.57,070507,,*0E
$GPGGA,171347.000,5043.8742,N,00706.1441,E,1,08,1.2,102.0,M,47.7,M,,0000*5D
$GPGSA,A,3,27,08,10,29,28,26,21,24,,,,,1.8,1.2,1.4*31
$GPGSV,3,1,11,29,71,301,26,26,58,299,26,28,56,113,31,08,46,063,32*79
$GPGSV,3,2,11,10,42,196,25,27,22,068,16,21,12,303,22,24,11,266,13*7C
$GPGSV,3,3,11,19,08,031,10,18,03,326,,09,03,249,*42
$GPRMC,171347.000,A,5043.8742,N,00706.1441,E,2.92,344.78,070507,,*0E
$GPGGA,171348.000,5043.8753,N,00706.1431,E,1,08,1.2,101.8,M,47.7,M,,0000*5E
$GPGSA,A,3,27,08,10,29,28,26,21,24,,,,,1.8,1.2,1.4*31
$GPRMC,171348.000,A,5043.8753,N,00706.1431,E,1.94,339.48,070507,,*0A
$GPGGA,171349.000,5043.8759,N,00706.1422,E,1,08,1.2,100.7,M,47.7,M,,0000*59
$GPGSA,A,3,27,08,10,29,28,26,21,24,,,,,1.8,1.2,1.4*31
$GPRMC,171349.000,A,5043.8759,N,00706.1422,E,2.57,345.05,070507,,*0D
$GPGGA,171350.000,5043.8761,N,00706.1411,E,1,08,1.2,99.6,M,47.7,M,,0000*6A
$GPGSA,A,3,27,08,10,29,28,26,21,24,,,,,1.8,1.2,1.4*31
$GPRMC,171350.000,A,5043.8761,N,00706.1411,E,1.09,326.56,070507,,*05
$GPGGA,171351.000,5043.8762,N,00706.1399,E,1,08,1.2,99.6,M,47.7,M,,0000*6F
$GPGSA,A,3,27,08,10,29,28,26,21,24,,,,,1.8,1.2,1.4*31
$GPRMC,171351.000,A,5043.8762,N,00706.1399,E,0.71,7.35,070507,,*0B
$GPGGA,171352.000,5043.8766,N,00706.1389,E,1,08,1.2,99.8,M,47.7,M,,0000*67
$GPGSA,A,3,27,08,10,29,28,26,21,24,,,,,1.8,1.2,1.4*31
$GPGSV,3,1,11,29,71,301,26,26,58,299,26,28,56,113,31,08,46,063,32*79
$GPGSV,3,2,11,10,42,196,22,27,22,068,17,21,12,303,23,24,11,266,15*7D
$GPGSV,3,3,11,19,08,031,08,18,03,326,,09,03,249,11*4B
$GPRMC,171352.000,A,5043.8766,N,00706.1389,E,0.72,6.54,070507,,*08
$GPGGA,171353.000,5043.8773,N,00706.1370,E,1,08,1.2,100.7,M,47.7,M,,0000*5A
$GPGSA,A,3,27,08,10,29,28,26,21,24,,,,,1.8,1.2,1.4*31
$GPRMC,171353.000,A,5043.8773,N,00706.1370,E,3.07,309.40,070507,,*03
$GPGGA,171354.000,5043.8783,N,00706.1351,E,1,08,1.2,100.7,M,47.7,M,,0000*51
$GPGSA,A,3,27,08,10,29,28,26,21,24,,,,,1.8,1.2,1.4*31
$GPRMC,171354.000,A,5043.8783,N,00706.1351,E,2.39,322.84,070507,,*05
$GPGGA,171355.000,5043.8791,N,00706.1330,E,1,08,1.2,101.1,M,47.7,M,,0000*53
$GPGSA,A,3,27,08,10,29,28,26,21,24,,,,,1.8,1.2,1.4*31
$GPRMC,171355.000,A,5043.8791,N,00706.1330,E,3.05,301.03,070507,,*00
$GPGGA,171356.000,5043.8802,N,00706.1313,E,1,07,1.3,100.2,M,47.7,M,,0000*58
$GPGSA,A,3,08,10,29,28,26,21,24,,,,,,2.2,1.3,1.8*30
$GPRMC,171356.000,A,5043.8802,N,00706.1313,E,3.13,319.96,070507,,*05
$GPGGA,171357.000,5043.8813,N,00706.1294,E,1,06,1.4,100.6,M,47.7,M,,0000*55
$GPGSA,A,3,08,10,29,28,26,21,,,,,,,2.4,1.4,2.0*3C
$GPGSV,3,1,11,29,71,301,28,26,58,299,26,28,56,113,34,08,46,063,33*73
$GPGSV,3,2,11,10,42,196,22,27,22,068,15,21,12,303,24,24,11,266,15*78
$GPGSV,3,3,11,19,08,031,08,18,03,326,,09,03,249,*4B
$GPRMC,171357.000,A,5043.8813,N,00706.1294,E,4.64,307.55,070507,,*0D
$GPGGA,171358.000,5043.8821,N,00706.1275,E,1,07,1.3,101.2,M,47.7,M,,0000*57
$GPGSA,A,3,08,10,29,28,26,21,24,,,,,,2.2,1.3,1.8*30
$GPRMC,171358.000,A,5043.8821,N,00706.1275,E,2.50,300.24,070507,,*0C
$GPGGA,171359.000,5043.8828,N,00706.1260,E,1,08,1.2,102.0,M,47.7,M,,0000*54
$GPGSA,A,3,27,08,10,29,28,26,21,24,,,,,1.8,1.2,1.4*31
$GPRMC,171359.000,A,5043.8828,N,00706.1260,E,2.07,326.59,070507,,*0C
$GPGGA,171400.000,5043.8837,N,00706.1247,E,1,08,1.2,103.0,M,47.7,M,,0000*55
$GPGSA,A,3,27,08,10,29,28,26,21,24,,,,,1.8,1.2,1.4*31
$GPRMC,171400.000,A,5043.8837,N,00706.1247,E,2.80,326.78,070507,,*00
$GPGGA,171401.000,5043.8844,N,00706.1233,E,1,08,1.2,103.9,M,47.7,M,,0000*5A
$GPGSA,A,3,27,08,10,29,28,26,21,24,,,,,1.8,1.2,1.4*31
$GPRMC,171401.000,A,5043.8844,N,00706.1233,E,2.91,290.05,070507,,*00
$GPGGA,171402.000,5043.8852,N,00706.1216,E,1,08,1.2,104.6,M,47.7,M,,0000*51
$GPGSA,A,3,27,08,10,29,28,26,21,24,,,,,1.8,1.2,1.4*31
$GPGSV,3,1,11,29,71,301,27,26,58,299,22,28,56,113,28,08,46,063,29*7E
$GPGSV,3,2,11,10,42,196,24,27,22,068,14,21,12,303,24,24,11,266,26*7F
$GPGSV,3,3,11,19,08,031,,18,03,326,,09,03,249,*43
$GPRMC,171402.000,A,5043.8852,N,00706.1216,E,3.94,300.95,070507,,*06
$GPGGA,171403.000,5043.8861,N,00706.1200,E,1,08,1.2,105.9,M,47.7,M,,0000*59
$GPGSA,A,3,27,08,10,29,28,26,21,24,,,,,1.8,1.2,1.4*31
$GPRMC,171403.000,A,5043.8861,N,00706.1200,E,3.05,324.20,070507,,*00
$GPGGA,171404.000,5043.8869,N,00706.1191,E,1,08,1.2,105.9,M,47.7,M,,0000*5D
$GPGSA,A,3,27,08,10,29,28,26,21,24,,,,,1.8,1.2,1.4*31
$GPRMC,171404.000,A,5043.8869,N,00706.1191,E,2.52,303.59,070507,,*0C
$GPGGA,171405.000,5043.8877,N,00706.1177,E,1,08,1.2,106.1,M,47.7,M,,0000*50
$GPGSA,A,3,27,08,10,29,28,26,21,24,,,,,1.8,1.2,1.4*31
$GPRMC,171405.000,A,5043.8877,N,00706.1177,E,3.06,303.03,070507,,*05
$GPGGA,171406.000,5043.8880,N,00706.1166,E,1,08,1.2,106.5,M,47.7,M,,0000*5F
$GPGSA,A,3,27,08,10,29,28,26,21,24,,,,,1.8,1.2,1.4*31
$GPRMC,171406.000,A,5043.8880,N,00706.1166,E,2.53,296.04,070507,,*05
$GPGGA,171407.000,5043.8887,N,00706.1157,E,1,07,1.3,107.6,M,47.7,M,,0000*57
$GPGSA,A,3,27,08,10,29,28,26,24,,,,,,2.0,1.3,1.5*39
$GPGSV,3,1,11,29,71,301,26,26,58,299,23,28,56,113,30,08,46,063,33*7C
$GPGSV,3,2,11,10,42,196,24,27,22,068,14,21,12,303,16,24,11,266,18*73
$GPGSV,3,3,11,19,08,031,11,18,03,326,,09,03,249,*43
$GPRMC,171407.000,A,5043.8887,N,00706.1157,E,2.62,315.37,070507,,*09
$GPGGA,171408.000,5043.8891,N,00706.1145,E,1,07,1.3,108.2,M,47.7,M,,0000*57
$GPGSA,A,3,27,08,10,29,28,26,24,,,,,,2.0,1.3,1.5*39
$GPRMC,171408.000,A,5043.8891,N,00706.1145,E,2.78,305.98,070507,,*0D
$GPGGA,171409.000,5043.8892,N,00706.1132,E,1,07,1.3,108.0,M,47.7,M,,0000*57
$GPGSA,A,3,27,08,10,29,28,26,24,,,,,,2.0,1.3,1.5*39
$GPRMC,171409.000,A,5043.8892,N,00706.1132,E,2.29,288.50,070507,,*0B
$GPGGA,171410.000,5043.8897,N,00706.1119,E,1,07,1.3,108.1,M,47.7,M,,0000*52
$GPGSA,A,3,27,08,10,29,28,26,24,,,,,,2.0,1.3,1.5*39
$GPRMC,171410.000,A,5043.8897,N,00706.1119,E,2.94,306.18,070507,,*02
$GPGGA,171411.000,5043.8902,N,00706.1102,E,1,08,1.2,107.7,M,47.7,M,,0000*53
$GPGSA,A,3,27,08,10,29,28,26,21,24,,,,,1.8,1.2,1.4*31
$GPRMC,171411.000,A,5043.8902,N,00706.1102,E,2.66,305.29,070507,,*08
$GPGGA,171412.000,5043.8908,N,00706.1087,E,1,08,1.2,107.2,M,47.7,M,,0000*53
$GPGSA,A,3,27,08,10,29,28,26,21,24,,,,,1.8,1.2,1.4*31
$GPGSV,3,1,11,29,71,301,24,26,58,299,20,28,56,113,30,08,46,063,32*7C
$GPGSV,3,2,11,10,42,196,28,27,22,068,13,21,12,303,16,24,11,266,18*78
$GPGSV,3,3,11,19,08,031,,18,03,326,,09,03,249,*43
$GPRMC,171412.000,A,5043.8908,N,00706.1087,E,1.99,303.21,070507,,*00
$GPGGA,171413.000,5043.8914,N,00706.1071,E,1,07,1.3,108.0,M,47.7,M,,0000*55
$GPGSA,A,3,08,10,29,28,26,21,24,,,,,,2.2,1.3,1.8*30
$GPRMC,171413.000,A,5043.8914,N,00706.1071,E,2.49,304.05,070507,,*0A
$GPGGA,171414.000,5043.8920,N,00706.1058,E,1,08,1.2,107.5,M,47.7,M,,0000*5A
$GPGSA,A,3,27,08,10,29,28,26,21,24,,,,,1.8,1.2,1.4*31
$GPRMC,171414.000,A,5043.8920,N,00706.1058,E,2.66,308.77,070507,,*05
$GPGGA,171415.000,5043.8927,N,00706.1042,E,1,08,1.2,107.9,M,47.7,M,,0000*5B
$GPGSA,A,3,27,08,10,29,28,26,21,24,,,,,1.8,1.2,1.4*31
$GPRMC,171415.000,A,5043.8927,N,00706.1042,E,3.08,318.68,070507,,*0E
$GPGGA,171416.000,5043.8938,N,00706.1023,E,1,07,1.2,108.1,M,47.7,M,,0000*59
$GPGSA,A,3,27,08,10,29,28,26,21,,,,,,2.0,1.2,1.6*3E
$GPRMC,171416.000,A,5043.8938,N,00706.1023,E,3.75,317.06,070507,,*09
$GPGGA,171417.000,5043.8946,N,00706.1005,E,1,08,1.2,106.7,M,47.7,M,,0000*52
$GPGSA,A,3,27,08,10,29,28,26,21,24,,,,,1.8,1.2,1.4*31
$GPGSV,3,1,11,29,71,301,26,26,58,299,25,28,56,113,31,08,46,063,27*7E
$GPGSV,3,2,11,10,42,196,28,27,22,068,13,21,12,303,23,24,11,266,19*7F
$GPGSV,3,3,11,19,08,031,,18,03,326,,09,03,249,*43
$GPRMC,171417.000,A,5043.8946,N,00706.1005,E,4.24,308.98,070507,,*0F
$GPGGA,171418.000,5043.8954,N,00706.0987,E,1,08,1.2,105.9,M,47.7,M,,0000*51
$GPGSA,A,3,27,08,10,29,28,26,21,24,,,,,1.8,1.2,1.4*31
$GPRMC,171418.000,A,5043.8954,N,00706.0987,E,4.11,323.53,070507,,*09
$GPGGA,171419.000,5043.8963,N,00706.0968,E,1,08,1.2,105.2,M,47.7,M,,0000*5E
$GPGSA,A,3,27,08,10,29,28,26,21,24,,,,,1.8,1.2,1.4*31
$GPRMC,171419.000,A,5043.8963,N,00706.0968,E,3.88,311.42,070507,,*0B
$GPGGA,171420.000,5043.8964,N,00706.0952,E,1,08,1.2,103.4,M,47.7,M,,0000*5A
$GPGSA,A,3,27,08,10,29,28,26,21,24,,,,,1.8,1.2,1.4*31
$GPRMC,171420.000,A,5043.8964,N,00706.0952,E,2.88,289.91,070507,,*00
$GPGGA,171421.000,5043.8965,N,00706.0938,E,1,08,1.2,102.4,M,47.7,M,,0000*57
$GPGSA,A,3,27,08,10,29,28,26,21,24,,,,,1.8,1.2,1.4*31
$GPRMC,171421.000,A,5043.8965,N,00706.0938,E,2.59,293.46,070507,,*01
$GPGGA,171422.000,5043.8966,N,00706.0925,E,1,08,1.2,101.1,M,47.7,M,,0000*5D
$GPGSA,A,3,27,08,10,29,28,26,21,24,,,,,1.8,1.2,1.4*31
$GPGSV,3,1,11,29,71,301,17,26,58,299,19,28,56,113,31,08,46,063,28*7C
$GPGSV,3,2,11,10,42,196,28,27,22,068,13,21,12,303,22,24,11,266,19*7E
$GPGSV,3,3,11,19,08,031,07,18,03,326,,09,03,249,*44
$GPRMC,171422.000,A,5043.8966,N,00706.0925,E,2.84,294.61,070507,,*0F
$GPGGA,171423.000,5043.8968,N,00706.0912,E,1,08,1.2,100.0,M,47.7,M,,0000*56
$GPGSA,A,3,27,08,10,29,28,26,21,24,,,,,1.8,1.2,1.4*31
$GPRMC,171423.000,A,5043.8968,N,00706.0912,E,3.60,306.41,070507,,*07
$GPGGA,171424.000,5043.8967,N,00706.0897,E,1,08,1.2,98.8,M,47.7,M,,0000*6A
$GPGSA,A,3,27,08,10,29,28,26,21,24,,,,,1.8,1.2,1.4*31
$GPRMC,171424.000,A,5043.8967,N,00706.0897,E,3.84,281.51,070507,,*06
$GPGGA,171425.000,5043.8971,N,00706.0876,E,1,08,1.2,99.4,M,47.7,M,,0000*6E
$GPGSA,A,3,27,08,10,29,28,26,21,24,,,,,1.8,1.2,1.4*31
$GPRMC,171425.000,A,5043.8971,N,00706.0876,E,3.74,306.99,070507,,*0A
$GPGGA,171426.000,5043.8976,N,00706.0862,E,1,08,1.2,99.1,M,47.7,M,,0000*6A
$GPGSA,A,3,27,08,10,29,28,26,21,24,,,,,1.8,1.2,1.4*31
$GPRMC,171426.000,A,5043.8976,N,00706.0862,E,3.03,307.23,070507,,*0B
$GPGGA,171427.000,5043.8980,N,00706.0848,E,1,07,1.3,97.9,M,47.7,M,,0000*62
$GPGSA,A,3,08,10,29,28,26,21,24,,,,,,2.2,1.3,1.8*30
$GPGSV,3,1,11,29,71,301,25,26,58,299,22,28,56,113,27,08,46,063,28*72
$GPGSV,3,2,11,10,42,196,28,27,22,068,14,21,12,303,23,24,11,266,18*79
$GPGSV,3,3,11,19,08,031,07,18,03,326,,09,03,249,*44
$GPRMC,171427.000,A,5043.8980,N,00706.0848,E,2.50,297.60,070507,,*03
$GPGGA,171428.000,5043.8988,N,00706.0832,E,1,07,1.3,97.1,M,47.7,M,,0000*60
$GPGSA,A,3,08,10,29,28,26,21,24,,,,,,2.2,1.3,1.8*30
$GPRMC,171428.000,A,5043.8988,N,00706.0832,E,3.14,318.65,070507,,*0B
$GPGGA,171429.000,5043.8995,N,00706.0817,E,1,07,1.3,95.6,M,47.7,M,,0000*6F
$GPGSA,A,3,08,10,29,28,26,21,24,,,,,,2.2,1.3,1.8*30
$GPRMC,171429.000,A,5043.8995,N,00706.0817,E,3.06,309.07,070507,,*06
$GPGGA,171430.000,5043.9001,N,00706.0800,E,1,07,1.3,93.8,M,47.7,M,,0000*6C
$GPGSA,A,3,08,10,29,28,26,21,24,,,,,,2.2,1.3,1.8*30
$GPRMC,171430.000,A,5043.9001,N,00706.0800,E,3.22,313.67,070507,,*06
$GPGGA,171431.000,5043.8999,N,00706.0784,E,1,07,1.3,91.3,M,47.7,M,,0000*6E
$GPGSA,A,3,08,10,29,28,26,21,24,,,,,,2.2,1.3,1.8*30
$GPRMC,171431.000,A,5043.8999,N,00706.0784,E,2.59,298.25,070507,,*04
$GPGGA,171432.000,5043.8998,N,00706.0771,E,1,08,1.2,89.6,M,47.7,M,,0000*64
$GPGSA,A,3,27,08,10,29,28,26,21,24,,,,,1.8,1.2,1.4*31
$GPGSV,3,1,11,29,71,301,24,26,58,299,22,28,56,113,28,08,46,063,23*77
$GPGSV,3,2,11,10,42,196,30,27,22,068,15,21,12,303,28,24,11,266,20*71
$GPGSV,3,3,11,19,08,031,17,18,03,326,,09,03,249,*45
$GPRMC,171432.000,A,5043.8998,N,00706.0771,E,2.20,322.49,070507,,*08
$GPGGA,171433.000,5043.8999,N,00706.0757,E,1,08,1.2,88.0,M,47.7,M,,0000*67
$GPGSA,A,3,27,08,10,29,28,26,21,24,,,,,1.8,1.2,1.4*31
$GPRMC,171433.000,A,5043.8999,N,00706.0757,E,3.14,326.20,070507,,*01
$GPGGA,171434.000,5043.9002,N,00706.0740,E,1,07,1.3,86.0,M,47.7,M,,0000*6C
$GPGSA,A,3,08,10,29,28,26,21,24,,,,,,2.2,1.3,1.8*30
$GPRMC,171434.000,A,5043.9002,N,00706.0740,E,2.88,288.96,070507,,*06
$GPGGA,171435.000,5043.8996,N,00706.0723,E,1,07,1.3,84.0,M,47.7,M,,0000*6F
$GPGSA,A,3,08,10,29,28,26,21,24,,,,,,2.2,1.3,1.8*30
$GPRMC,171435.000,A,5043.8996,N,00706.0723,E,2.01,261.75,070507,,*0C
$GPGGA,171436.000,5043.8993,N,00706.0707,E,1,07,1.3,83.8,M,47.7,M,,0000*60
$GPGSA,A,3,08,10,29,28,26,21,24,,,,,,2.2,1.3,1.8*30
$GPRMC,171436.000,A,5043.8993,N,00706.0707,E,1.43,202.18,070507,,*07
$GPGGA,171437.000,5043.8989,N,00706.0693,E,1,07,1.3,83.3,M,47.7,M,,0000*6D
$GPGSA,A,3,08,10,29,28,26,21,24,,,,,,2.2,1.3,1.8*30
$GPGSV,3,1,11,29,71,301,24,26,58,299,23,28,56,113,24,08,46,063,25*7C
$GPGSV,3,2,11,10,42,196,26,27,22,068,15,21,12,303,24,24,11,266,21*7B
$GPGSV,3,3,11,19,08,031,24,18,03,326,12,09,03,249,*46
$GPRMC,171437.000,A,5043.8989,N,00706.0693,E,1.75,248.05,070507,,*06
$GPGGA,171438.000,5043.8982,N,00706.0682,E,1,07,1.3,81.7,M,47.7,M,,0000*6F
$GPGSA,A,3,08,10,29,28,26,21,24,,,,,,2.2,1.3,1.8*30
$GPRMC,171438.000,A,5043.8982,N,00706.0682,E,2.10,222.17,070507,,*0D
$GPGGA,171439.000,5043.8975,N,00706.0667,E,1,07,1.3,79.9,M,47.7,M,,0000*64
$GPGSA,A,3,08,10,29,28,26,21,24,,,,,,2.2,1.3,1.8*30
$GPRMC,171439.000,A,5043.8975,N,00706.0667,E,1.61,264.27,070507,,*0B
$GPGGA,171440.000,5043.8970,N,00706.0655,E,1,07,1.3,77.4,M,47.7,M,,0000*6D
$GPGSA,A,3,08,10,29,28,26,21,24,,,,,,2.2,1.3,1.8*30
$GPRMC,171440.000,A,5043.8970,N,00706.0655,E,2.43,281.89,070507,,*0D
$GPGGA,171441.000,5043.8965,N,00706.0644,E,1,07,1.3,75.0,M,47.7,M,,0000*6E
$GPGSA,A,3,08,10,29,28,26,21,24,,,,,,2.2,1.3,1.8*30
$GPRMC,171441.000,A,5043.8965,N,00706.0644,E,1.78,284.71,070507,,*01
$GPGGA,171442.000,5043.8963,N,00706.0635,E,1,07,1.3,73.1,M,47.7,M,,0000*6A
$GPGSA,A,3,08,10,29,28,26,21,24,,,,,,2.2,1.3,1.8*30
$GPGSV,3,1,11,29,71,301,25,26,58,299,24,28,56,113,31,08,46,063,31*7B
$GPGSV,3,2,11,10,42,196,37,27,22,068,16,21,12,303,24,24,11,266,28*71
$GPGSV,3,3,11,19,08,031,22,18,03,326,,09,03,249,*43
$GPRMC,171442.000,A,5043.8963,N,00706.0635,E,1.31,316.16,070507,,*04
$GPGGA,171443.000,5043.8959,N,00706.0628,E,1,07,1.3,70.8,M,47.7,M,,0000*64
$GPGSA,A,3,08,10,29,28,26,21,24,,,,,,2.2,1.3,1.8*30
$GPRMC,171443.000,A,5043.8959,N,00706.0628,E,1.24,194.99,070507,,*0B
$GPGGA,171444.000,5043.8953,N,00706.0620,E,1,07,1.3,69.6,M,47.7,M,,0000*67
$GPGSA,A,3,08,10,29,28,26,21,24,,,,,,2.2,1.3,1.8*30
$GPRMC,171444.000,A,5043.8953,N,00706.0620,E,0.96,198.47,070507,,*09
$GPGGA,171445.000,5043.8953,N,00706.0609,E,1,07,1.3,68.4,M,47.7,M,,0000*6E
$GPGSA,A,3,08,10,29,28,26,21,24,,,,,,2.2,1.3,1.8*30
$GPRMC,171445.000,A,5043.8953,N,00706.0609,E,1.14,313.41,070507,,*0F
$GPGGA,171446.000,5043.8957,N,00706.0597,E,1,07,1.3,67.6,M,47.7,M,,0000*60
$GPGSA,A,3,08,10,29,28,26,21,24,,,,,,2.2,1.3,1.8*30
$GPRMC,171446.000,A,5043.8957,N,00706.0597,E,0.73,304.26,070507,,*0B
$GPGGA,171447.000,5043.8958,N,00706.0583,E,1,08,1.2,67.9,M,47.7,M,,0000*6A
$GPGSA,A,3,27,08,10,29,28,26,21,24,,,,,1.8,1.2,1.4*31
$GPGSV,3,1,11,29,71,301,25,26,58,299,25,28,56,113,27,08,46,063,26*7B
$GPGSV,3,2,11,10,42,196,29,27,22,068,18,21,12,303,26,24,11,266,27*7D
$GPGSV,3,3,11,19,08,031,16,18,03,326,,09,03,249,*44
$GPRMC,171447.000,A,5043.8958,N,00706.0583,E,1.35,286.83,070507,,*07
$GPGGA,171448.000,5043.8962,N,00706.0571,E,1,08,1.2,67.2,M,47.7,M,,0000*6A
$GPGSA,A,3,27,08,10,29,28,26,21,24,,,,,1.8,1.2,1.4*31
$GPRMC,171448.000,A,5043.8962,N,00706.0571,E,1.82,311.79,070507,,*0A
$GPGGA,171449.000,5043.8966,N,00706.0558,E,1,08,1.2,65.7,M,47.7,M,,0000*63
$GPGSA,A,3,27,08,10,29,28,26,21,24,,,,,1.8,1.2,1.4*31
$GPRMC,171449.000,A,5043.8966,N,00706.0558,E,3.24,308.15,070507,,*08
$GPGGA,171450.000,5043.8971,N,00706.0546,E,1,08,1.2,63.2,M,47.7,M,,0000*61
$GPGSA,A,3,27,08,10,29,28,26,21,24,,,,,1.8,1.2,1.4*31
$GPRMC,171450.000,A,5043.8971,N,00706.0546,E,2.40,300.39,070507,,*0C
$GPGGA,171451.000,5043.8976,N,00706.0530,E,1,08,1.2,61.9,M,47.7,M,,0000*6F
$GPGSA,A,3,27,08,10,29,28,26,21,24,,,,,1.8,1.2,1.4*31
$GPRMC,171451.000,A,5043.8976,N,00706.0530,E,2.43,304.48,070507,,*0A
$GPGGA,171452.000,5043.8978,N,00706.0511,E,1,08,1.2,61.0,M,47.7,M,,0000*68
$GPGSA,A,3,27,08,10,29,28,26,21,24,,,,,1.8,1.2,1.4*31
$GPGSV,3,1,11,29,71,301,25,26,58,299,25,28,56,113,29,08,46,063,32*70
$GPGSV,3,2,11,10,42,196,36,27,22,068,29,21,12,303,27,24,11,266,27*70
$GPGSV,3,3,11,19,08,031,17,18,03,326,,09,03,249,13*47
$GPRMC,171452.000,A,5043.8978,N,00706.0511,E,2.27,297.17,070507,,*07
$GPGGA,171453.000,5043.8983,N,00706.0491,E,1,08,1.2,60.5,M,47.7,M,,0000*60
$GPGSA,A,3,27,08,10,29,28,26,21,24,,,,,1.8,1.2,1.4*31
$GPRMC,171453.000,A,5043.8983,N,00706.0491,E,3.80,302.26,070507,,*08
$GPGGA,171454.000,5043.8989,N,00706.0470,E,1,08,1.2,60.2,M,47.7,M,,0000*65
$GPGSA,A,3,27,08,10,29,28,26,21,24,,,,,1.8,1.2,1.4*31
$GPRMC,171454.000,A,5043.8989,N,00706.0470,E,2.79,293.69,070507,,*0F
$GPGGA,171455.000,5043.8993,N,00706.0453,E,1,08,1.2,58.8,M,47.7,M,,0000*6F
$GPGSA,A,3,27,08,10,29,28,26,21,24,,,,,1.8,1.2,1.4*31
$GPRMC,171455.000,A,5043.8993,N,00706.0453,E,3.55,300.47,070507,,*0C
$GPGGA,171456.000,5043.8997,N,00706.0434,E,1,08,1.2,58.1,M,47.7,M,,0000*60
$GPGSA,A,3,27,08,10,29,28,26,21,24,,,,,1.8,1.2,1.4*31
$GPRMC,171456.000,A,5043.8997,N,00706.0434,E,3.24,283.35,070507,,*03
$GPGGA,171457.000,5043.8996,N,00706.0421,E,1,08,1.2,56.0,M,47.7,M,,0000*6B
$GPGSA,A,3,27,08,10,29,28,26,21,24,,,,,1.8,1.2,1.4*31
$GPGSV,3,1,11,29,71,301,25,26,58,299,25,28,56,113,30,08,46,063,32*78
$GPGSV,3,2,11,10,42,196,36,27,22,068,29,21,12,303,27,24,11,266,27*70
$GPGSV,3,3,11,19,08,031,16,18,03,326,09,09,03,249,20*4F
$GPRMC,171457.000,A,5043.8996,N,00706.0421,E,1.90,247.73,070507,,*00
$GPGGA,171458.000,5043.8993,N,00706.0411,E,1,08,1.2,55.0,M,47.7,M,,0000*61
$GPGSA,A,3,27,08,10,29,28,26,21,24,,,,,1.8,1.2,1.4*31
$GPRMC,171458.000,A,5043.8993,N,00706.0411,E,1.90,224.57,070507,,*0A
$GPGGA,171459.000,5043.8991,N,00706.0402,E,1,08,1.2,53.9,M,47.7,M,,0000*6F
$GPGSA,A,3,27,08,10,29,28,26,21,24,,,,,1.8,1.2,1.4*31
$GPRMC,171459.000,A,5043.8991,N,00706.0402,E,1.57,236.88,070507,,*01
$GPGGA,171500.000,5043.8992,N,00706.0389,E,1,08,1.2,54.5,M,47.7,M,,0000*6E
$GPGSA,A,3,27,08,10,29,28,26,21,24,,,,,1.8,1.2,1.4*31
$GPRMC,171500.000,A,5043.8992,N,00706.0389,E,1.94,213.88,070507,,*03
$GPGGA,171501.000,5043.8996,N,00706.0374,E,1,08,1.2,55.6,M,47.7,M,,0000*6B
$GPGSA,A,3,27,08,10,29,28,26,21,24,,,,,1.8,1.2,1.4*31
$GPRMC,171501.000,A,5043.8996,N,00706.0374,E,2.29,246.71,070507,,*07
$GPGGA,171502.000,5043.8999,N,00706.0357,E,1,08,1.2,56.6,M,47.7,M,,0000*65
$GPGSA,A,3,27,08,10,29,28,26,21,24,,,,,1.8,1.2,1.4*31
$GPGSV,3,1,11,29,71,301,25,26,58,299,25,28,56,113,29,08,46,063,32*70
$GPGSV,3,2,11,10,42,196,26,27,22,068,32,21,12,303,27,24,11,266,27*7B
$GPGSV,3,3,11,19,08,031,15,18,03,326,,09,03,249,21*44
$GPRMC,171502.000,A,5043.8999,N,00706.0357,E,1.91,251.79,070507,,*04
$GPGGA,171503.000,5043.9004,N,00706.0341,E,1,08,1.2,58.4,M,47.7,M,,0000*63
$GPGSA,A,3,27,08,10,29,28,26,21,24,,,,,1.8,1.2,1.4*31
$GPRMC,171503.000,A,5043.9004,N,00706.0341,E,2.02,245.69,070507,,*03
$GPGGA,171504.000,5043.9009,N,00706.0327,E,1,08,1.2,60.2,M,47.7,M,,0000*64
$GPGSA,A,3,27,08,10,29,28,26,21,24,,,,,1.8,1.2,1.4*31
$GPRMC,171504.000,A,5043.9009,N,00706.0327,E,1.64,284.55,070507,,*08
$GPGGA,171505.000,5043.9010,N,00706.0312,E,1,08,1.2,61.7,M,47.7,M,,0000*6F
$GPGSA,A,3,27,08,10,29,28,26,21,24,,,,,1.8,1.2,1.4*31
$GPRMC,171505.000,A,5043.9010,N,00706.0312,E,2.71,234.97,070507,,*05
$GPGGA,171506.000,5043.9008,N,00706.0300,E,1,08,1.2,63.0,M,47.7,M,,0000*63
$GPGSA,A,3,27,08,10,29,28,26,21,24,,,,,1.8,1.2,1.4*31
$GPRMC,171506.000,A,5043.9008,N,00706.0300,E,1.58,217.88,070507,,*0B
$GPGGA,171507.000,5043.9008,N,00706.0293,E,1,08,1.2,63.6,M,47.7,M,,0000*6F
$GPGSA,A,3,27,08,10,29,28,26,21,24,,,,,1.8,1.2,1.4*31
$GPGSV,3,1,11,29,71,301,26,26,58,299,27,28,56,113,31,08,46,063,32*78
$GPGSV,3,2,11,10,42,196,26,27,22,068,29,21,12,303,20,24,11,266,27*76
$GPGSV,3,3,11,19,08,031,15,18,03,326,08,09,03,249,20*4D
$GPRMC,171507.000,A,5043.9008,N,00706.0293,E,0.93,264.41,070507,,*06
$GPGGA,171508.000,5043.9010,N,00706.0286,E,1,08,1.2,64.9,M,47.7,M,,0000*65
$GPGSA,A,3,27,08,10,29,28,26,21,24,,,,,1.8,1.2,1.4*31
$GPRMC,171508.000,A,5043.9010,N,00706.0286,E,0.43,230.82,070507,,*07
$GPGGA,171509.000,5043.9007,N,00706.0279,E,1,08,1.2,66.0,M,47.7,M,,0000*69
$GPGSA,A,3,27,08,10,29,28,26,21,24,,,,,1.8,1.2,1.4*31
$GPRMC,171509.000,A,5043.9007,N,00706.0279,E,1.38,252.32,070507,,*02
$GPGGA,171510.000,5043.9009,N,00706.0270,E,1,08,1.2,67.5,M,47.7,M,,0000*62
$GPGSA,A,3,27,08,10,29,28,26,21,24,,,,,1.8,1.2,1.4*31
$GPRMC,171510.000,A,5043.9009,N,00706.0270,E,0.83,185.20,070507,,*06
$GPGGA,171511.000,5043.9010,N,00706.0261,E,1,08,1.2,69.1,M,47.7,M,,0000*61
$GPGSA,A,3,27,08,10,29,28,26,21,24,,,,,1.8,1.2,1.4*31
$GPRMC,171511.000,A,5043.9010,N,00706.0261,E,1.45,233.56,070507,,*0B
$GPGGA,171512.000,5043.9012,N,00706.0252,E,1,08,1.2,70.6,M,47.7,M,,0000*6F
$GPGSA,A,3,27,08,10,29,28,26,21,24,,,,,1.8,1.2,1.4*31
$GPGSV,3,1,11,29,71,301,26,26,58,299,27,28,56,113,31,08,46,063,32*78
$GPGSV,3,2,11,10,42,196,26,27,22,068,24,21,12,303,22,24,11,266,23*7D
$GPGSV,3,3,11,19,08,031,14,18,03,326,07,09,03,249,20*43
$GPRMC,171512.000,A,5043.9012,N,00706.0252,E,2.00,232.83,070507,,*01
$GPGGA,171513.000,5043.9016,N,00706.0235,E,1,08,1.2,72.2,M,47.7,M,,0000*6D
$GPGSA,A,3,27,08,10,29,28,26,21,24,,,,,1.8,1.2,1.4*31
$GPRMC,171513.000,A,5043.9016,N,00706.0235,E,3.00,254.80,070507,,*07
$GPGGA,171514.000,5043.9018,N,00706.0218,E,1,08,1.2,73.6,M,47.7,M,,0000*6E
$GPGSA,A,3,27,08,10,29,28,26,21,24,,,,,1.8,1.2,1.4*31
$GPRMC,171514.000,A,5043.9018,N,00706.0218,E,2.73,253.97,070507,,*05
$GPGGA,171515.000,5043.9022,N,00706.0201,E,1,08,1.2,75.5,M,47.7,M,,0000*6B
$GPGSA,A,3,27,08,10,29,28,26,21,24,,,,,1.8,1.2,1.4*31
$GPRMC,171515.000,A,5043.9022,N,00706.0201,E,2.17,265.17,070507,,*0A
$GPGGA,171516.000,5043.9025,N,00706.0187,E,1,08,1.2,76.6,M,47.7,M,,0000*62
$GPGSA,A,3,27,08,10,29,28,26,21,24,,,,,1.8,1.2,1.4*31
$GPRMC,171516.000,A,5043.9025,N,00706.0187,E,1.87,281.51,070507,,*01
$GPGGA,171517.000,5043.9022,N,00706.0174,E,1,08,1.2,76.8,M,47.7,M,,0000*66
$GPGSA,A,3,27,08,10,29,28,26,21,24,,,,,1.8,1.2,1.4*31
$GPGSV,3,1,11,29,73,302,26,26,59,299,27,28,56,110,29,08,44,063,33*71
$GPGSV,3,2,11,10,41,195,25,27,20,068,32,21,11,302,21,24,10,265,24*7F
$GPGSV,3,3,11,19,08,030,14,18,04,326,,09,04,249,19*4F
$GPRMC,171517.000,A,5043.9022,N,00706.0174,E,1.67,275.39,070507,,*00
$GPGGA,171518.000,5043.9014,N,00706.0161,E,1,08,1.2,76.8,M,47.7,M,,0000*68
$GPGSA,A,3,27,08,10,29,28,26,21,24,,,,,1.8,1.2,1.4*31
$GPRMC,171518.000,A,5043.9014,N,00706.0161,E,2.17,225.16,070507,,*02
$GPGGA,171519.000,5043.9005,N,00706.0145,E,1,08,1.2,76.8,M,47.7,M,,0000*6F
$GPGSA,A,3,27,08,10,29,28,26,21,24,,,,,1.8,1.2,1.4*31
$GPRMC,171519.000,A,5043.9005,N,00706.0145,E,2.35,230.66,070507,,*06
$GPGGA,171520.000,5043.8999,N,00706.0128,E,1,08,1.2,76.5,M,47.7,M,,0000*6E
$GPGSA,A,3,27,08,10,29,28,26,21,24,,,,,1.8,1.2,1.4*31
$GPRMC,171520.000,A,5043.8999,N,00706.0128,E,2.27,260.15,070507,,*08
$GPGGA,171521.000,5043.8994,N,00706.0110,E,1,08,1.2,76.1,M,47.7,M,,0000*6D
$GPGSA,A,3,27,08,10,29,28,26,21,24,,,,,1.8,1.2,1.4*31
$GPRMC,171521.000,A,5043.8994,N,00706.0110,E,2.69,272.76,070507,,*03
$GPGGA,171522.000,5043.8987,N,00706.0084,E,1,08,1.2,73.8,M,47.7,M,,0000*6C
$GPGSA,A,3,27,08,10,29,28,26,21,24,,,,,1.8,1.2,1.4*31
$GPGSV,3,1,11,29,73,302,26,26,59,299,27,28,56,110,30,08,44,063,33*79
$GPGSV,3,2,11,10,41,195,37,27,20,068,29,21,11,302,26,24,10,265,33*77
$GPGSV,3,3,11,19,08,030,13,18,04,326,,09,04,249,17*46
$GPRMC,171522.000,A,5043.8987,N,00706.0084,E,3.77,302.14,070507,,*02
$GPGGA,171523.000,5043.8987,N,00706.0060,E,1,08,1.2,72.0,M,47.7,M,,0000*6E
$GPGSA,A,3,27,08,10,29,28,26,21,24,,,,,1.8,1.2,1.4*31
$GPRMC,171523.000,A,5043.8987,N,00706.0060,E,3.57,302.73,070507,,*0A
$GPGGA,171524.000,5043.8990,N,00706.0041,E,1,08,1.2,70.2,M,47.7,M,,0000*6C
$GPGSA,A,3,27,08,10,29,28,26,21,24,,,,,1.8,1.2,1.4*31
$GPRMC,171524.000,A,5043.8990,N,00706.0041,E,2.85,333.07,070507,,*07
$GPGGA,171525.000,5043.8996,N,00706.0030,E,1,08,1.2,68.6,M,47.7,M,,0000*60
$GPGSA,A,3,27,08,10,29,28,26,21,24,,,,,1.8,1.2,1.4*31
$GPRMC,171525.000,A,5043.8996,N,00706.0030,E,3.59,2.19,070507,,*08
$GPGGA,171526.000,5043.9007,N,00706.0023,E,1,08,1.2,67.2,M,47.7,M,,0000*6A
$GPGSA,A,3,27,08,10,29,28,26,21,24,,,,,1.8,1.2,1.4*31
$GPRMC,171526.000,A,5043.9007,N,00706.0023,E,3.61,18.71,070507,,*37
$GPGGA,171527.000,5043.9015,N,00706.0018,E,1,08,1.2,66.4,M,47.7,M,,0000*67
$GPGSA,A,3,27,08,10,29,28,26,21,24,,,,,1.8,1.2,1.4*31
$GPGSV,3,1,11,29,73,302,26,26,59,299,30,28,56,110,30,08,44,063,27*7A
$GPGSV,3,2,11,10,41,195,33,27,20,068,22,21,11,302,30,24,10,265,43*78
$GPGSV,3,3,11,19,08,030,12,18,04,326,,09,04,249,17*47
$GPRMC,171527.000,A,5043.9015,N,00706.0018,E,2.66,8.42,070507,,*0A
$GPGGA,171528.000,5043.9019,N,00706.0018,E,1,08,1.2,64.8,M,47.7,M,,0000*6A
$GPGSA,A,3,27,08,10,29,28,26,21,24,,,,,1.8,1.2,1.4*31
$GPRMC,171528.000,A,5043.9019,N,00706.0018,E,2.72,51.79,070507,,*38
$GPGGA,171529.000,5043.9022,N,00706.0026,E,1,08,1.2,63.5,M,47.7,M,,0000*64
$GPGSA,A,3,27,08,10,29,28,26,21,24,,,,,1.8,1.2,1.4*31
$GPRMC,171529.000,A,5043.9022,N,00706.0026,E,3.72,58.77,070507,,*3A
$GPGGA,171530.000,5043.9026,N,00706.0033,E,1,08,1.2,63.3,M,47.7,M,,0000*6A
$GPGSA,A,3,27,08,10,29,28,26,21,24,,,,,1.8,1.2,1.4*31
$GPRMC,171530.000,A,5043.9026,N,00706.0033,E,3.35,50.30,070507,,*3A
$GPGGA,171531.000,5043.9033,N,00706.0037,E,1,08,1.2,63.4,M,47.7,M,,0000*6C
$GPGSA,A,3,27,08,10,29,28,26,21,24,,,,,1.8,1.2,1.4*31
$GPRMC,171531.000,A,5043.9033,N,00706.0037,E,3.04,30.55,070507,,*3C
$GPGGA,171532.000,5043.9039,N,00706.0035,E,1,08,1.2,64.7,M,47.7,M,,0000*63
$GPGSA,A,3,27,08,10,29,28,26,21,24,,,,,1.8,1.2,1.4*31
$GPGSV,3,1,11,29,73,302,26,26,59,299,29,28,56,110,29,08,44,063,26*7B
$GPGSV,3,2,11,10,41,195,33,27,20,068,24,21,11,302,22,24,10,265,28*70
$GPGSV,3,3,11,19,08,030,,18,04,326,,09,04,249,19*4A
$GPRMC,171532.000,A,5043.9039,N,00706.0035,E,2.04,13.48,070507,,*3B
$GPGGA,171533.000,5043.9045,N,00706.0030,E,1,07,1.2,64.6,M,47.7,M,,0000*62
$GPGSA,A,3,27,08,10,29,28,26,21,,,,,,2.0,1.2,1.6*3E
$GPRMC,171533.000,A,5043.9045,N,00706.0030,E,2.86,331.77,070507,,*01
$GPGGA,171534.000,5043.9047,N,00706.0027,E,1,08,1.2,63.4,M,47.7,M,,0000*6B
$GPGSA,A,3,27,08,10,29,28,26,21,24,,,,,1.8,1.2,1.4*31
$GPRMC,171534.000,A,5043.9047,N,00706.0027,E,1.92,316.06,070507,,*07
$GPGGA,171535.000,5043.9051,N,00706.0017,E,1,08,1.2,63.4,M,47.7,M,,0000*6E
$GPGSA,A,3,27,08,10,29,28,26,21,24,,,,,1.8,1.2,1.4*31
$GPRMC,171535.000,A,5043.9051,N,00706.0017,E,2.74,321.30,070507,,*08
$GPGGA,171536.000,5043.9059,N,00706.0008,E,1,08,1.2,63.7,M,47.7,M,,0000*68
$GPGSA,A,3,27,08,10,29,28,26,21,24,,,,,1.8,1.2,1.4*31
$GPRMC,171536.000,A,5043.9059,N,00706.0008,E,3.08,320.74,070507,,*06
$GPGGA,171537.000,5043.9068,N,00705.9996,E,1,08,1.2,63.6,M,47.7,M,,0000*6E
$GPGSA,A,3,27,08,10,29,28,26,21,24,,,,,1.8,1.2,1.4*31
$GPGSV,3,1,11,29,73,302,25,26,59,299,24,28,56,110,30,08,44,063,30*7A
$GPGSV,3,2,11,10,41,195,37,27,20,068,32,21,11,302,29,24,10,265,22*72
$GPGSV,3,3,11,19,08,030,12,18,04,326,,09,04,249,19*49
$GPRMC,171537.000,A,5043.9068,N,00705.9996,E,3.94,324.19,070507,,*0B
$GPGGA,171538.000,5043.9075,N,00705.9988,E,1,08,1.2,63.3,M,47.7,M,,0000*67
$GPGSA,A,3,27,08,10,29,28,26,21,24,,,,,1.8,1.2,1.4*31
$GPRMC,171538.000,A,5043.9075,N,00705.9988,E,2.69,328.69,070507,,*0F
$GPGGA,171539.000,5043.9082,N,00705.9977,E,1,08,1.2,63.2,M,47.7,M,,0000*6F
$GPGSA,A,3,27,08,10,29,28,26,21,24,,,,,1.8,1.2,1.4*31
$GPRMC,171539.000,A,5043.9082,N,00705.9977,E,3.18,311.29,070507,,*0F
$GPGGA,171540.000,5043.9088,N,00705.9964,E,1,08,1.2,63.6,M,47.7,M,,0000*6D
$GPGSA,A,3,27,08,10,29,28,26,21,24,,,,,1.8,1.2,1.4*31
$GPRMC,171540.000,A,5043.9088,N,00705.9964,E,2.77,302.24,070507,,*0E
$GPGGA,171541.000,5043.9094,N,00705.9951,E,1,08,1.2,63.5,M,47.7,M,,0000*64
$GPGSA,A,3,27,08,10,29,28,26,21,24,,,,,1.8,1.2,1.4*31
$GPRMC,171541.000,A,5043.9094,N,00705.9951,E,3.38,309.43,070507,,*04
$GPGGA,171542.000,5043.9100,N,00705.9939,E,1,08,1.2,62.8,M,47.7,M,,0000*69
$GPGSA,A,3,27,08,10,29,28,26,21,24,,,,,1.8,1.2,1.4*31
$GPGSV,3,1,11,29,73,302,25,26,59,299,25,28,56,110,29,08,44,063,31*72
$GPGSV,3,2,11,10,41,195,37,27,20,068,27,21,11,302,32,24,10,265,22*7C
$GPGSV,3,3,11,19,08,030,,18,04,326,,09,04,249,20*40
$GPRMC,171542.000,A,5043.9100,N,00705.9939,E,2.55,319.87,070507,,*06
$GPGGA,171543.000,5043.9108,N,00705.9932,E,1,08,1.2,62.7,M,47.7,M,,0000*64
$GPGSA,A,3,27,08,10,29,28,26,21,24,,,,,1.8,1.2,1.4*31
$GPRMC,171543.000,A,5043.9108,N,00705.9932,E,3.13,350.53,070507,,*03
$GPGGA,171544.000,5043.9119,N,00705.9924,E,1,08,1.2,62.3,M,47.7,M,,0000*60
$GPGSA,A,3,27,08,10,29,28,26,21,24,,,,,1.8,1.2,1.4*31
$GPRMC,171544.000,A,5043.9119,N,00705.9924,E,3.30,356.48,070507,,*0E
$GPGGA,171545.000,5043.9128,N,00705.9921,E,1,08,1.1,62.3,M,47.7,M,,0000*65
$GPGSA,A,3,27,08,10,29,28,26,21,24,,,,,1.8,1.1,1.4*32
$GPRMC,171545.000,A,5043.9128,N,00705.9921,E,2.68,18.81,070507,,*38
$GPGGA,171546.000,5043.9136,N,00705.9925,E,1,08,1.1,61.5,M,47.7,M,,0000*68
$GPGSA,A,3,27,08,10,29,28,26,21,24,,,,,1.8,1.1,1.4*32
$GPRMC,171546.000,A,5043.9136,N,00705.9925,E,3.91,40.35,070507,,*35
$GPGGA,171547.000,5043.9147,N,00705.9925,E,1,08,1.1,62.3,M,47.7,M,,0000*6A
$GPGSA,A,3,27,08,10,29,28,26,21,24,,,,,1.8,1.1,1.4*32
$GPGSV,3,1,11,29,73,302,26,26,59,299,31,28,56,110,29,08,44,063,25*71
$GPGSV,3,2,11,10,41,195,31,27,20,068,21,21,11,302,40,24,10,265,39*73
$GPGSV,3,3,11,19,08,030,,18,04,326,08,09,04,249,20*48
$GPRMC,171547.000,A,5043.9147,N,00705.9925,E,3.46,30.03,070507,,*3A
$GPGGA,171548.000,5043.9155,N,00705.9926,E,1,08,1.1,63.2,M,47.7,M,,0000*65
$GPGSA,A,3,27,08,10,29,28,26,21,24,,,,,1.8,1.1,1.4*32
$GPRMC,171548.000,A,5043.9155,N,00705.9926,E,2.94,68.82,070507,,*3F
$GPGGA,171549.000,5043.9159,N,00705.9936,E,1,08,1.1,63.9,M,47.7,M,,0000*62
$GPGSA,A,3,27,08,10,29,28,26,21,24,,,,,1.8,1.1,1.4*32
$GPRMC,171549.000,A,5043.9159,N,00705.9936,E,3.55,87.07,070507,,*33
$GPGGA,171550.000,5043.9161,N,00705.9950,E,1,07,1.3,63.6,M,47.7,M,,0000*63
$GPGSA,A,3,08,10,29,28,26,21,24,,,,,,2.2,1.3,1.7*3F
$GPRMC,171550.000,A,5043.9161,N,00705.9950,E,3.80,101.29,070507,,*0B
$GPGGA,171551.000,5043.9161,N,00705.9964,E,1,07,1.3,64.0,M,47.7,M,,0000*64
$GPGSA,A,3,08,10,29,28,26,21,24,,,,,,2.2,1.3,1.7*3F
$GPRMC,171551.000,A,5043.9161,N,00705.9964,E,4.74,106.81,070507,,*04
$GPGGA,171552.000,5043.9160,N,00705.9986,E,1,07,1.3,63.8,M,47.7,M,,0000*65
$GPGSA,A,3,08,10,29,28,26,21,24,,,,,,2.2,1.3,1.7*3F
$GPGSV,3,1,11,29,73,302,26,26,59,299,32,28,56,110,28,08,44,063,29*7F
$GPGSV,3,2,11,10,41,195,32,27,20,068,16,21,11,302,34,24,10,265,37*79
$GPGSV,3,3,11,19,08,030,,18,04,326,,09,04,249,24*44
$GPRMC,171552.000,A,5043.9160,N,00705.9986,E,5.07,101.89,070507,,*00
$GPGGA,171553.000,5043.9158,N,00706.0004,E,1,07,1.3,63.7,M,47.7,M,,0000*69
$GPGSA,A,3,08,10,29,28,26,21,24,,,,,,2.2,1.3,1.7*3F
$GPRMC,171553.000,A,5043.9158,N,00706.0004,E,4.01,112.29,070507,,*0C
$GPGGA,171554.000,5043.9155,N,00706.0018,E,1,07,1.3,64.2,M,47.7,M,,0000*6C
$GPGSA,A,3,08,10,29,28,26,21,24,,,,,,2.2,1.3,1.7*3F
$GPRMC,171554.000,A,5043.9155,N,00706.0018,E,4.03,115.38,070507,,*0E
$GPGGA,171555.000,5043.9151,N,00706.0033,E,1,07,1.3,64.1,M,47.7,M,,0000*63
$GPGSA,A,3,08,10,29,28,26,21,24,,,,,,2.2,1.3,1.7*3F
$GPRMC,171555.000,A,5043.9151,N,00706.0033,E,3.54,109.72,070507,,*04
$GPGGA,171556.000,5043.9148,N,00706.0042,E,1,07,1.3,64.5,M,47.7,M,,0000*6A
$GPGSA,A,3,08,10,29,28,26,21,24,,,,,,2.2,1.3,1.7*3F
$GPRMC,171556.000,A,5043.9148,N,00706.0042,E,2.53,118.03,070507,,*09
$GPGGA,171557.000,5043.9144,N,00706.0052,E,1,07,1.3,64.4,M,47.7,M,,0000*67
$GPGSA,A,3,08,10,29,28,26,21,24,,,,,,2.2,1.3,1.7*3F
$GPGSV,3,1,11,29,73,302,26,26,59,299,31,28,56,110,28,08,44,063,22*77
$GPGSV,3,2,11,10,41,195,33,27,20,068,18,21,11,302,35,24,10,265,38*78
$GPGSV,3,3,11,19,08,030,,18,04,326,,09,04,249,22*42
$GPRMC,171557.000,A,5043.9144,N,00706.0052,E,2.96,130.74,070507,,*06
$GPGGA,171558.000,5043.9137,N,00706.0058,E,1,07,1.3,64.5,M,47.7,M,,0000*67
$GPGSA,A,3,08,10,29,28,26,21,24,,,,,,2.2,1.3,1.7*3F
$GPRMC,171558.000,A,5043.9137,N,00706.0058,E,2.87,147.06,070507,,*02
$GPGGA,171559.000,5043.9131,N,00706.0063,E,1,07,1.3,65.4,M,47.7,M,,0000*68
$GPGSA,A,3,08,10,29,28,26,21,24,,,,,,2.2,1.3,1.7*3F
$GPRMC,171559.000,A,5043.9131,N,00706.0063,E,2.96,137.64,070507,,*0E
$GPGGA,171600.000,5043.9126,N,00706.0065,E,1,07,1.3,66.8,M,47.7,M,,0000*68
$GPGSA,A,3,08,10,29,28,26,21,24,,,,,,2.2,1.3,1.7*3F
$GPRMC,171600.000,A,5043.9126,N,00706.0065,E,2.49,131.05,070507,,*02
$GPGGA,171601.000,5043.9124,N,00706.0073,E,1,07,1.3,67.7,M,47.7,M,,0000*62
$GPGSA,A,3,08,10,29,28,26,21,24,,,,,,2.2,1.3,1.7*3F
$GPRMC,171601.000,A,5043.9124,N,00706.0073,E,2.02,90.85,070507,,*3B
$GPGGA,171602.000,5043.9122,N,00706.0071,E,1,08,1.1,69.5,M,47.7,M,,0000*64
$GPGSA,A,3,27,08,10,29,28,26,21,24,,,,,1.8,1.1,1.4*32
$GPGSV,3,1,11,29,73,302,26,26,59,299,31,28,56,110,27,08,44,063,21*7B
$GPGSV,3,2,11,10,41,195,33,27,20,068,18,21,11,302,22,24,10,265,33*75
$GPGSV,3,3,11,19,08,030,13,18,04,326,,09,04,249,22*40
$GPRMC,171602.000,A,5043.9122,N,00706.0071,E,0.92,120.51,070507,,*04
$GPGGA,171603.000,5043.9120,N,00706.0073,E,1,07,1.3,70.2,M,47.7,M,,0000*67
$GPGSA,A,3,08,10,29,28,26,21,24,,,,,,2.2,1.3,1.7*3F
$GPRMC,171603.000,A,5043.9120,N,00706.0073,E,1.22,169.76,070507,,*07
$GPGGA,171604.000,5043.9115,N,00706.0074,E,1,08,1.1,71.2,M,47.7,M,,0000*6D
$GPGSA,A,3,27,08,10,29,28,26,21,24,,,,,1.8,1.1,1.4*32
$GPRMC,171604.000,A,5043.9115,N,00706.0074,E,1.74,119.06,070507,,*02
$GPGGA,171605.000,5043.9111,N,00706.0078,E,1,08,1.1,72.9,M,47.7,M,,0000*6C
$GPGSA,A,3,27,08,10,29,28,26,21,24,,,,,1.8,1.1,1.4*32
$GPRMC,171605.000,A,5043.9111,N,00706.0078,E,1.89,133.63,070507,,*02
$GPGGA,171606.000,5043.9111,N,00706.0086,E,1,08,1.1,74.2,M,47.7,M,,0000*63
$GPGSA,A,3,27,08,10,29,28,26,21,24,,,,,1.8,1.1,1.4*32
$GPRMC,171606.000,A,5043.9111,N,00706.0086,E,2.03,103.15,070507,,*03
$GPGGA,171607.000,5043.9110,N,00706.0096,E,1,08,1.1,75.1,M,47.7,M,,0000*60
$GPGSA,A,3,27,08,10,29,28,26,21,24,,,,,1.8,1.1,1.4*32
$GPGSV,3,1,11,29,73,302,25,26,59,299,27,28,56,110,25,08,44,063,32*7F
$GPGSV,3,2,11,10,41,195,31,27,20,068,17,21,11,302,22,24,10,265,32*79
$GPGSV,3,3,11,19,08,030,,18,04,326,,09,04,249,24*44
$GPRMC,171607.000,A,5043.9110,N,00706.0096,E,1.70,125.30,070507,,*06
$GPGGA,171608.000,5043.9112,N,00706.0107,E,1,08,1.1,75.8,M,47.7,M,,0000*6D
$GPGSA,A,3,27,08,10,29,28,26,21,24,,,,,1.8,1.1,1.4*32
$GPRMC,171608.000,A,5043.9112,N,00706.0107,E,1.63,91.10,070507,,*3C
$GPGGA,171609.000,5043.9115,N,00706.0114,E,1,08,1.1,77.1,M,47.7,M,,0000*62
$GPGSA,A,3,27,08,10,29,28,26,21,24,,,,,1.8,1.1,1.4*32
$GPRMC,171609.000,A,5043.9115,N,00706.0114,E,2.42,43.92,070507,,*3D
$GPGGA,171610.000,5043.9115,N,00706.0133,E,1,08,1.1,76.9,M,47.7,M,,0000*66
$GPGSA,A,3,27,08,10,29,28,26,21,24,,,,,1.8,1.1,1.4*32
$GPRMC,171610.000,A,5043.9115,N,00706.0133,E,3.18,93.33,070507,,*38
$GPGGA,171611.000,5043.9114,N,00706.0153,E,1,08,1.1,76.8,M,47.7,M,,0000*61
$GPGSA,A,3,27,08,10,29,28,26,21,24,,,,,1.8,1.1,1.4*32
$GPRMC,171611.000,A,5043.9114,N,00706.0153,E,2.95,109.01,070507,,*09
$GPGGA,171612.000,5043.9110,N,00706.0175,E,1,07,1.3,77.1,M,47.7,M,,0000*67
$GPGSA,A,3,08,10,29,28,26,21,24,,,,,,2.2,1.3,1.7*3F
$GPGSV,3,1,11,29,73,302,25,26,59,299,19,28,56,110,26,08,44,063,25*77
$GPGSV,3,2,11,10,41,195,31,27,20,068,18,21,11,302,14,24,10,265,35*74
$GPGSV,3,3,11,19,08,030,,18,04,326,07,09,04,249,17*43
$GPRMC,171612.000,A,5043.9110,N,00706.0175,E,4.64,112.79,070507,,*07
$GPGGA,171613.000,5043.9109,N,00706.0201,E,1,07,1.3,76.0,M,47.7,M,,0000*6E
$GPGSA,A,3,27,08,10,29,28,26,24,,,,,,2.0,1.3,1.5*39
$GPRMC,171613.000,A,5043.9109,N,00706.0201,E,4.19,114.32,070507,,*0D
$GPGGA,171614.000,5043.9108,N,00706.0227,E,1,07,1.3,74.6,M,47.7,M,,0000*68
$GPGSA,A,3,27,08,10,29,28,26,24,,,,,,2.0,1.3,1.5*39
$GPRMC,171614.000,A,5043.9108,N,00706.0227,E,3.12,121.64,070507,,*06
$GPGGA,171615.000,5043.9106,N,00706.0255,E,1,07,1.3,72.7,M,47.7,M,,0000*65
$GPGSA,A,3,27,08,10,29,28,26,24,,,,,,2.0,1.3,1.5*39
$GPRMC,171615.000,A,5043.9106,N,00706.0255,E,5.21,121.25,070507,,*0F
$GPGGA,171616.000,5043.9105,N,00706.0286,E,1,07,1.3,71.0,M,47.7,M,,0000*6F
$GPGSA,A,3,27,08,10,29,28,26,24,,,,,,2.0,1.3,1.5*39
$GPRMC,171616.000,A,5043.9105,N,00706.0286,E,5.17,108.33,070507,,*08
$GPGGA,171617.000,5043.9102,N,00706.0315,E,1,07,1.3,68.9,M,47.7,M,,0000*63
$GPGSA,A,3,27,08,10,29,28,26,24,,,,,,2.0,1.3,1.5*39
$GPGSV,3,1,11,29,73,302,26,26,59,299,28,28,56,110,26,08,44,063,34*76
$GPGSV,3,2,11,10,41,195,27,27,20,068,34,21,11,302,14,24,10,265,30*78
$GPGSV,3,3,11,19,08,030,,18,04,326,,09,04,249,20*40
$GPRMC,171617.000,A,5043.9102,N,00706.0315,E,5.46,123.50,070507,,*0D
$GPGGA,171618.000,5043.9093,N,00706.0342,E,1,07,1.3,67.4,M,47.7,M,,0000*65
$GPGSA,A,3,27,08,10,29,28,26,24,,,,,,2.0,1.3,1.5*39
$GPRMC,171618.000,A,5043.9093,N,00706.0342,E,5.26,131.71,070507,,*0F
$GPGGA,171619.000,5043.9089,N,00706.0368,E,1,07,1.3,65.8,M,47.7,M,,0000*69
$GPGSA,A,3,27,08,10,29,28,26,24,,,,,,2.0,1.3,1.5*39
$GPRMC,171619.000,A,5043.9089,N,00706.0368,E,4.20,103.31,070507,,*0F
$GPGGA,171620.000,5043.9086,N,00706.0391,E,1,07,1.3,64.6,M,47.7,M,,0000*65
$GPGSA,A,3,27,08,10,29,28,26,24,,,,,,2.0,1.3,1.5*39
$GPRMC,171620.000,A,5043.9086,N,00706.0391,E,4.62,122.08,070507,,*03
$GPGGA,171621.000,5043.9084,N,00706.0413,E,1,07,1.3,63.8,M,47.7,M,,0000*62
$GPGSA,A,3,27,08,10,29,28,26,24,,,,,,2.0,1.3,1.5*39
$GPRMC,171621.000,A,5043.9084,N,00706.0413,E,4.07,105.46,070507,,*01
$GPGGA,171622.000,5043.9085,N,00706.0436,E,1,08,1.1,64.1,M,47.7,M,,0000*64
$GPGSA,A,3,27,08,10,29,28,26,21,24,,,,,1.8,1.1,1.4*32
$GPGSV,3,1,11,29,73,302,26,26,59,299,33,28,56,110,27,08,44,063,26*7E
$GPGSV,3,2,11,10,41,195,30,27,20,068,19,21,11,302,16,24,10,265,39*7A
$GPGSV,3,3,11,19,08,030,21,18,04,326,,09,04,249,21*42
$GPRMC,171622.000,A,5043.9085,N,00706.0436,E,3.98,73.52,070507,,*30
$GPGGA,171623.000,5043.9091,N,00706.0448,E,1,08,1.1,64.4,M,47.7,M,,0000*6C
$GPGSA,A,3,27,08,10,29,28,26,21,24,,,,,1.8,1.1,1.4*32
$GPRMC,171623.000,A,5043.9091,N,00706.0448,E,3.00,46.27,070507,,*38
$GPGGA,171624.000,5043.9096,N,00706.0462,E,1,08,1.1,65.1,M,47.7,M,,0000*60
$GPGSA,A,3,27,08,10,29,28,26,21,24,,,,,1.8,1.1,1.4*32
$GPRMC,171624.000,A,5043.9096,N,00706.0462,E,4.12,44.15,070507,,*37
$GPGGA,171625.000,5043.9102,N,00706.0476,E,1,08,1.1,65.7,M,47.7,M,,0000*6E
$GPGSA,A,3,27,08,10,29,28,26,21,24,,,,,1.8,1.1,1.4*32
$GPRMC,171625.000,A,5043.9102,N,00706.0476,E,4.60,45.65,070507,,*3C
$GPGGA,171626.000,5043.9112,N,00706.0489,E,1,08,1.1,66.7,M,47.7,M,,0000*6F
$GPGSA,A,3,27,08,10,29,28,26,21,24,,,,,1.8,1.1,1.4*32
$GPRMC,171626.000,A,5043.9112,N,00706.0489,E,4.73,39.64,070507,,*36
$GPGGA,171627.000,5043.9118,N,00706.0505,E,1,08,1.1,66.4,M,47.7,M,,0000*62
$GPGSA,A,3,27,08,10,29,28,26,21,24,,,,,1.8,1.1,1.4*32
$GPGSV,3,1,11,29,73,302,26,26,59,299,32,28,56,110,26,08,44,063,23*7B
$GPGSV,3,2,11,10,41,195,25,27,20,068,19,21,11,302,21,24,10,265,32*71
$GPGSV,3,3,11,19,08,030,18,18,04,326,,09,04,249,34*4C
$GPRMC,171627.000,A,5043.9118,N,00706.0505,E,3.45,64.95,070507,,*3C
$GPGGA,171628.000,5043.9130,N,00706.0521,E,1,08,1.1,66.7,M,47.7,M,,0000*62
$GPGSA,A,3,27,08,10,29,28,26,21,24,,,,,1.8,1.1,1.4*32
$GPRMC,171628.000,A,5043.9130,N,00706.0521,E,3.63,58.00,070507,,*38
$GPGGA,171629.000,5043.9140,N,00706.0540,E,1,08,1.1,66.9,M,47.7,M,,0000*6D
$GPGSA,A,3,27,08,10,29,28,26,21,24,,,,,1.8,1.1,1.4*32
$GPRMC,171629.000,A,5043.9140,N,00706.0540,E,3.86,66.91,070507,,*37
$GPGGA,171630.000,5043.9150,N,00706.0557,E,1,07,1.3,66.3,M,47.7,M,,0000*65
$GPGSA,A,3,27,08,10,29,28,26,24,,,,,,2.0,1.3,1.5*39
$GPRMC,171630.000,A,5043.9150,N,00706.0557,E,2.73,65.69,070507,,*37
$GPGGA,171631.000,5043.9160,N,00706.0583,E,1,07,1.3,64.2,M,47.7,M,,0000*6D
$GPGSA,A,3,27,08,10,29,28,26,24,,,,,,2.0,1.3,1.5*39
$GPRMC,171631.000,A,5043.9160,N,00706.0583,E,3.67,54.01,070507,,*34
$GPGGA,171632.000,5043.9170,N,00706.0603,E,1,07,1.3,62.1,M,47.7,M,,0000*61
$GPGSA,A,3,27,08,10,29,28,26,24,,,,,,2.0,1.3,1.5*39
$GPGSV,3,1,11,29,73,302,26,26,59,299,32,28,56,110,24,08,44,063,24*7E
$GPGSV,3,2,11,10,41,195,25,27,20,068,25,21,11,302,19,24,10,265,24*72
$GPGSV,3,3,11,19,08,030,17,18,04,326,,09,04,249,34*43
$GPRMC,171632.000,A,5043.9170,N,00706.0603,E,2.37,35.49,070507,,*32
$GPGGA,171633.000,5043.9177,N,00706.0621,E,1,07,1.3,60.2,M,47.7,M,,0000*66
$GPGSA,A,3,27,08,10,29,28,26,24,,,,,,2.0,1.3,1.5*39
$GPRMC,171633.000,A,5043.9177,N,00706.0621,E,2.34,59.26,070507,,*34
$GPGGA,171634.000,5043.9183,N,00706.0641,E,1,07,1.3,58.1,M,47.7,M,,0000*64
$GPGSA,A,3,27,08,10,29,28,26,24,,,,,,2.0,1.3,1.5*39
$GPRMC,171634.000,A,5043.9183,N,00706.0641,E,2.64,89.23,070507,,*33
$GPGGA,171635.000,5043.9186,N,00706.0659,E,1,07,1.3,57.0,M,47.7,M,,0000*67
$GPGSA,A,3,27,08,10,29,28,26,24,,,,,,2.0,1.3,1.5*39
$GPRMC,171635.000,A,5043.9186,N,00706.0659,E,2.51,77.84,070507,,*34
$GPGGA,171636.000,5043.9194,N,00706.0676,E,1,07,1.3,55.5,M,47.7,M,,0000*6D
$GPGSA,A,3,27,08,10,29,28,26,24,,,,,,2.0,1.3,1.5*39
$GPRMC,171636.000,A,5043.9194,N,00706.0676,E,2.87,62.71,070507,,*3C
$GPGGA,171637.000,5043.9204,N,00706.0692,E,1,07,1.3,54.6,M,47.7,M,,0000*6E
$GPGSA,A,3,27,08,10,29,28,26,24,,,,,,2.0,1.3,1.5*39
$GPGSV,3,1,11,29,73,302,27,26,59,299,33,28,56,110,25,08,44,063,27*7C
