$GPGGA,173541.000,5044.1268,N,00705.9623,E,1,05,3.6,166.5,M,47.7,M,,0000*5D
$GPGSA,A,3,10,26,29,08,27,,,,,,,,5.8,3.6,4.5*38
$GPRMC,173541.000,A,5044.1268,N,00705.9623,E,0.84,50.19,070507,,*36
$GPGGA,173542.000,5044.1276,N,00705.9616,E,1,05,3.6,166.4,M,47.7,M,,0000*56
$GPGSA,A,3,10,26,29,08,27,,,,,,,,5.8,3.6,4.5*38
$GPGSV,3,1,12,29,82,298,21,26,69,301,28,28,58,094,15,08,36,066,16*7E
$GPGSV,3,2,12,10,32,192,20,27,13,072,22,09,11,254,,18,11,323,*70
$GPGSV,3,3,12,21,09,294,15,19,06,022,,24,05,259,,17,03,131,*7E
$GPRMC,173542.000,A,5044.1276,N,00705.9616,E,1.29,72.22,070507,,*32
$GPGGA,173543.000,5044.1283,N,00705.9608,E,1,05,3.6,166.1,M,47.7,M,,0000*57
$GPGSA,A,3,10,26,29,08,27,,,,,,,,5.8,3.6,4.5*38
$GPRMC,173543.000,A,5044.1283,N,00705.9608,E,1.18,36.54,070507,,*35
$GPGGA,173544.000,5044.1288,N,00705.9604,E,1,03,10.0,165.8,M,47.7,M,,0000*6F
$GPGSA,A,2,26,29,27,,,,,,,,,,10.1,10.0,1.0*39
$GPRMC,173544.000,A,5044.1288,N,00705.9604,E,0.75,20.59,070507,,*35
$GPGGA,173545.000,5044.3756,N,00705.8829,E,1,05,8.0,289.2,M,47.7,M,,0000*5E
$GPGSA,A,3,26,29,08,21,27,,,,,,,,8.5,8.0,2.8*3C
$GPRMC,173545.000,A,5044.3756,N,00705.8829,E,2.76,25.85,070507,,*35
$GPGGA,173546.000,5044.2843,N,00705.9469,E,1,04,8.9,383.2,M,47.7,M,,0000*5D
$GPGSA,A,3,26,29,08,27,,,,,,,,,8.9,8.9,1.0*31
$GPRMC,173546.000,A,5044.2843,N,00705.9469,E,3.13,10.48,070507,,*30
$GPGGA,173547.000,5044.2857,N,00705.9434,E,1,04,8.9,376.6,M,47.7,M,,0000*5F
$GPGSA,A,3,26,29,08,27,,,,,,,,,8.9,8.9,1.0*31
$GPGSV,3,1,12,29,82,298,20,26,69,301,27,28,58,094,14,08,36,066,17*70
$GPGSV,3,2,12,10,32,192,16,27,13,072,22,09,11,254,,18,11,323,*75
$GPGSV,3,3,12,21,09,294,16,19,06,022,,24,05,259,,17,03,131,*7D
$GPRMC,173547.000,A,5044.2857,N,00705.9434,E,2.28,14.79,070507,,*33
$GPGGA,173548.000,5044.2813,N,00705.9416,E,1,04,8.9,375.2,M,47.7,M,,0000*57
$GPGSA,A,3,26,29,08,27,,,,,,,,,8.9,8.9,1.0*31
$GPRMC,173548.000,A,5044.2813,N,00705.9416,E,2.56,344.92,070507,,*06
$GPGGA,173549.000,5044.2701,N,00705.9388,E,1,04,8.9,369.0,M,47.7,M,,0000*55
$GPGSA,A,3,26,29,08,27,,,,,,,,,8.9,8.9,1.0*31
$GPRMC,173549.000,A,5044.2701,N,00705.9388,E,2.48,331.26,070507,,*09
$GPGGA,173550.000,5044.2630,N,00705.9329,E,1,04,8.9,359.2,M,47.7,M,,0000*54
$GPGSA,A,3,26,29,08,27,,,,,,,,,8.9,8.9,1.0*31
$GPRMC,173550.000,A,5044.2630,N,00705.9329,E,2.35,321.19,070507,,*0E
$GPGGA,173551.000,5044.2584,N,00705.9304,E,1,04,8.9,356.3,M,47.7,M,,0000*58
$GPGSA,A,3,26,29,08,27,,,,,,,,,8.9,8.9,1.0*31
$GPRMC,173551.000,A,5044.2584,N,00705.9304,E,2.70,320.50,070507,,*01
$GPGGA,173552.000,5044.2522,N,00705.9309,E,1,05,3.6,360.3,M,47.7,M,,0000*5A
$GPGSA,A,3,10,26,29,08,27,,,,,,,,5.8,3.6,4.5*38
$GPGSV,3,1,12,29,82,298,25,26,69,301,28,28,58,094,15,08,36,066,21*7E
$GPGSV,3,2,12,10,32,192,15,27,13,072,21,09,11,254,,18,11,323,*75
$GPGSV,3,3,12,21,09,294,14,19,06,022,10,24,05,259,,17,03,131,*7E
$GPRMC,173552.000,A,5044.2522,N,00705.9309,E,2.42,289.40,070507,,*01
$GPGGA,173553.000,5044.2518,N,00705.9359,E,1,05,3.6,372.1,M,47.7,M,,0000*56
$GPGSA,A,3,10,26,29,08,27,,,,,,,,5.8,3.6,4.5*38
$GPRMC,173553.000,A,5044.2518,N,00705.9359,E,0.77,124.90,070507,,*01
$GPGGA,173554.000,5044.2485,N,00705.9371,E,1,04,4.8,371.7,M,47.7,M,,0000*53
$GPGSA,A,3,10,26,29,08,,,,,,,,,8.8,4.8,7.4*3B
$GPRMC,173554.000,A,5044.2485,N,00705.9371,E,0.33,257.04,070507,,*03
$GPGGA,173555.000,5044.1467,N,00705.9142,E,1,06,1.3,72.6,M,47.7,M,,0000*62
$GPGSA,A,3,10,26,28,29,08,21,,,,,,,2.1,1.3,1.6*3B
$GPRMC,173555.000,A,5044.1467,N,00705.9142,E,1.40,121.38,070507,,*07
$GPGGA,173556.000,5044.1396,N,00705.9303,E,1,05,2.4,108.6,M,47.7,M,,0000*54
$GPGSA,A,3,10,26,28,29,08,,,,,,,,4.5,2.4,3.8*32
$GPRMC,173556.000,A,5044.1396,N,00705.9303,E,0.78,114.96,070507,,*02
$GPGGA,173557.000,5044.1381,N,00705.9288,E,1,05,2.4,119.1,M,47.7,M,,0000*56
$GPGSA,A,3,10,26,28,29,08,,,,,,,,4.5,2.4,3.8*32
$GPGSV,3,1,12,29,82,298,28,26,69,301,29,28,58,094,18,08,36,066,21*7F
$GPGSV,3,2,12,10,32,192,21,27,13,072,15,09,11,254,,18,11,323,*75
$GPGSV,3,3,12,21,09,294,,19,06,022,15,24,05,259,,17,03,131,*7E
$GPRMC,173557.000,A,5044.1381,N,00705.9288,E,0.45,109.62,070507,,*0E
$GPGGA,173558.000,5044.1365,N,00705.9285,E,1,05,2.4,120.2,M,47.7,M,,0000*57
$GPGSA,A,3,10,26,28,29,08,,,,,,,,4.5,2.4,3.8*32
$GPRMC,173558.000,A,5044.1365,N,00705.9285,E,2.44,178.66,070507,,*07
$GPGGA,173559.000,5044.1357,N,00705.9295,E,1,06,1.3,127.0,M,47.7,M,,0000*54
$GPGSA,A,3,10,26,28,29,21,08,,,,,,,2.1,1.3,1.6*3B
$GPRMC,173559.000,A,5044.1357,N,00705.9295,E,2.04,125.47,070507,,*09
$GPGGA,173600.000,5044.1366,N,00705.9316,E,1,06,1.3,128.0,M,47.7,M,,0000*5C
$GPGSA,A,3,10,26,28,29,21,08,,,,,,,2.1,1.3,1.6*3B
$GPRMC,173600.000,A,5044.1366,N,00705.9316,E,2.04,96.58,070507,,*39
$GPGGA,173601.000,5044.1382,N,00705.9330,E,1,06,1.3,126.0,M,47.7,M,,0000*5D
$GPGSA,A,3,10,26,28,29,21,08,,,,,,,2.1,1.3,1.6*3B
$GPRMC,173601.000,A,5044.1382,N,00705.9330,E,1.40,90.68,070507,,*30
$GPGGA,173602.000,5044.1385,N,00705.9343,E,1,06,1.3,127.3,M,47.7,M,,0000*5F
$GPGSA,A,3,10,26,28,29,21,08,,,,,,,2.1,1.3,1.6*3B
$GPGSV,3,1,12,29,82,298,27,26,69,301,30,28,58,094,21,08,36,066,18*78
$GPGSV,3,2,12,10,32,192,19,27,13,072,16,09,11,254,,18,11,323,*7D
$GPGSV,3,3,12,21,09,294,20,19,06,022,,24,05,259,10,17,03,131,11*79
$GPRMC,173602.000,A,5044.1385,N,00705.9343,E,2.53,118.93,070507,,*04
$GPGGA,173603.000,5044.1393,N,00705.9356,E,1,05,1.9,127.6,M,47.7,M,,0000*51
$GPGSA,A,3,10,26,28,29,21,,,,,,,,2.8,1.9,2.1*34
$GPRMC,173603.000,A,5044.1393,N,00705.9356,E,2.72,80.94,070507,,*32
$GPGGA,173604.000,5044.1396,N,00705.9361,E,1,06,1.3,130.4,M,47.7,M,,0000*5A
$GPGSA,A,3,10,26,28,29,21,08,,,,,,,2.1,1.3,1.6*3B
$GPRMC,173604.000,A,5044.1396,N,00705.9361,E,1.16,87.58,070507,,*32
$GPGGA,173605.000,5044.1399,N,00705.9363,E,1,06,1.3,132.1,M,47.7,M,,0000*51
$GPGSA,A,3,10,26,28,29,21,08,,,,,,,2.1,1.3,1.6*3B
$GPRMC,173605.000,A,5044.1399,N,00705.9363,E,1.37,70.60,070507,,*3E
$GPGGA,173606.000,5044.1400,N,00705.9372,E,1,06,1.3,133.2,M,47.7,M,,0000*57
$GPGSA,A,3,10,26,28,29,21,08,,,,,,,2.1,1.3,1.6*3B
$GPRMC,173606.000,A,5044.1400,N,00705.9372,E,1.31,77.89,070507,,*3C
$GPGGA,173607.000,5044.1408,N,00705.9380,E,1,06,1.3,133.1,M,47.7,M,,0000*50
$GPGSA,A,3,10,26,28,29,21,08,,,,,,,2.1,1.3,1.6*3B
$GPGSV,3,1,12,29,82,298,27,26,69,301,31,28,58,094,21,08,36,066,16*77
$GPGSV,3,2,12,10,32,192,19,27,13,072,15,09,11,254,,18,11,323,16*79
$GPGSV,3,3,12,21,09,294,19,19,06,022,,24,05,259,,17,03,131,*72
$GPRMC,173607.000,A,5044.1408,N,00705.9380,E,2.15,23.26,070507,,*39
$GPGGA,173608.000,5044.1407,N,00705.9384,E,1,06,1.3,131.4,M,47.7,M,,0000*53
$GPGSA,A,3,10,26,28,29,21,08,,,,,,,2.1,1.3,1.6*3B
$GPRMC,173608.000,A,5044.1407,N,00705.9384,E,2.02,39.38,070507,,*3F
$GPGGA,173609.000,5044.1411,N,00705.9386,E,1,05,5.0,131.4,M,47.7,M,,0000*53
$GPGSA,A,3,26,28,29,21,08,,,,,,,,5.6,5.0,2.6*3E
$GPRMC,173609.000,A,5044.1411,N,00705.9386,E,2.03,40.08,070507,,*37
$GPGGA,173610.000,5044.1416,N,00705.9391,E,1,05,5.0,131.0,M,47.7,M,,0000*5E
$GPGSA,A,3,26,28,29,21,08,,,,,,,,5.6,5.0,2.6*3E
$GPRMC,173610.000,A,5044.1416,N,00705.9391,E,2.74,36.85,070507,,*3A
$GPGGA,173611.000,5044.1420,N,00705.9402,E,1,05,5.0,131.8,M,47.7,M,,0000*5F
$GPGSA,A,3,26,28,29,21,08,,,,,,,,5.6,5.0,2.6*3E
$GPRMC,173611.000,A,5044.1420,N,00705.9402,E,3.19,22.70,070507,,*36
$GPGGA,173612.000,5044.1424,N,00705.9414,E,1,05,5.0,133.3,M,47.7,M,,0000*56
$GPGSA,A,3,26,28,29,21,08,,,,,,,,5.6,5.0,2.6*3E
$GPGSV,3,1,12,29,82,298,26,26,69,301,30,28,58,094,21,08,36,066,15*74
$GPGSV,3,2,12,10,32,192,18,27,13,072,,09,11,254,07,18,11,323,16*7B
$GPGSV,3,3,12,21,09,294,17,19,06,022,,24,05,259,,17,03,131,*7C
$GPRMC,173612.000,A,5044.1424,N,00705.9414,E,3.67,19.67,070507,,*31
$GPGGA,173613.000,5044.1433,N,00705.9422,E,1,05,5.0,134.6,M,47.7,M,,0000*56
$GPGSA,A,3,26,28,29,21,08,,,,,,,,5.6,5.0,2.6*3E
$GPRMC,173613.000,A,5044.1433,N,00705.9422,E,4.65,2.31,070507,,*0F
$GPGGA,173614.000,5044.1443,N,00705.9435,E,1,05,5.0,136.2,M,47.7,M,,0000*56
$GPGSA,A,3,26,28,29,21,08,,,,,,,,5.6,5.0,2.6*3E
$GPRMC,173614.000,A,5044.1443,N,00705.9435,E,5.47,359.97,070507,,*09
$GPGGA,173615.000,5044.1449,N,00705.9450,E,1,05,5.0,137.5,M,47.7,M,,0000*58
$GPGSA,A,3,26,28,29,21,08,,,,,,,,5.6,5.0,2.6*3E
$GPRMC,173615.000,A,5044.1449,N,00705.9450,E,4.57,14.71,070507,,*33
$GPGGA,173616.000,5044.1452,N,00705.9469,E,1,05,5.0,138.0,M,47.7,M,,0000*51
$GPGSA,A,3,26,28,29,21,08,,,,,,,,5.6,5.0,2.6*3E
$GPRMC,173616.000,A,5044.1452,N,00705.9469,E,2.85,35.54,070507,,*3D
$GPGGA,173617.000,5044.1449,N,00705.9485,E,1,05,5.0,138.8,M,47.7,M,,0000*50
$GPGSA,A,3,26,28,29,21,08,,,,,,,,5.7,5.0,2.6*3F
$GPGSV,3,1,12,29,82,298,26,26,69,301,27,28,58,094,21,08,36,066,15*72
$GPGSV,3,2,12,10,32,192,19,27,13,072,,09,11,254,09,18,11,323,21*70
$GPGSV,3,3,12,21,09,294,19,19,06,022,13,24,05,259,09,17,03,131,*79
$GPRMC,173617.000,A,5044.1449,N,00705.9485,E,1.37,106.91,070507,,*06
$GPGGA,173618.000,5044.1438,N,00705.9502,E,1,04,13.0,140.8,M,47.7,M,,0000*6E
$GPGSA,A,3,26,28,29,21,,,,,,,,,13.1,13.0,1.0*34
$GPRMC,173618.000,A,5044.1438,N,00705.9502,E,3.51,127.68,070507,,*06
$GPGGA,173619.000,5044.1430,N,00705.9519,E,1,04,4.0,140.3,M,47.7,M,,0000*50
$GPGSA,A,3,26,28,29,08,,,,,,,,,4.2,4.0,1.0*3C
$GPRMC,173619.000,A,5044.1430,N,00705.9519,E,2.63,121.55,070507,,*0D
$GPGGA,173620.000,5044.1425,N,00705.9542,E,1,05,5.0,142.3,M,47.7,M,,0000*52
$GPGSA,A,3,26,28,29,21,08,,,,,,,,5.7,5.0,2.6*3F
$GPRMC,173620.000,A,5044.1425,N,00705.9542,E,3.83,120.88,070507,,*03
$GPGGA,173621.000,5044.1420,N,00705.9566,E,1,05,5.0,143.8,M,47.7,M,,0000*5A
$GPGSA,A,3,26,28,29,21,08,,,,,,,,5.7,5.0,2.6*3F
$GPRMC,173621.000,A,5044.1420,N,00705.9566,E,3.21,134.59,070507,,*00
$GPGGA,173622.000,5044.1412,N,00705.9587,E,1,05,5.0,144.0,M,47.7,M,,0000*58
$GPGSA,A,3,26,28,29,21,08,,,,,,,,5.7,5.0,2.6*3F
$GPGSV,3,1,12,29,82,298,26,26,69,301,27,28,58,094,21,08,36,066,21*75
$GPGSV,3,2,12,10,32,192,18,27,13,072,,09,11,254,,18,11,323,28*71
$GPGSV,3,3,12,21,09,294,20,19,06,022,,24,05,259,,17,03,131,*78
$GPRMC,173622.000,A,5044.1412,N,00705.9587,E,2.99,149.55,070507,,*09
$GPGGA,173623.000,5044.1415,N,00705.9607,E,1,05,5.0,143.5,M,47.7,M,,0000*57
$GPGSA,A,3,26,28,29,21,08,,,,,,,,5.7,5.0,2.6*3F
$GPRMC,173623.000,A,5044.1415,N,00705.9607,E,2.82,88.13,070507,,*30
$GPGGA,173624.000,5044.1417,N,00705.9625,E,1,05,5.0,143.3,M,47.7,M,,0000*54
$GPGSA,A,3,26,28,29,21,08,,,,,,,,5.7,5.0,2.6*3F
$GPRMC,173624.000,A,5044.1417,N,00705.9625,E,2.11,44.33,070507,,*3D
$GPGGA,173625.000,5044.1418,N,00705.9644,E,1,05,5.0,143.2,M,47.7,M,,0000*5C
$GPGSA,A,3,26,28,29,21,08,,,,,,,,5.7,5.0,2.6*3F
$GPRMC,173625.000,A,5044.1418,N,00705.9644,E,1.71,77.23,070507,,*30
$GPGGA,173626.000,5044.1416,N,00705.9662,E,1,05,5.0,143.3,M,47.7,M,,0000*54
$GPGSA,A,3,26,28,29,21,08,,,,,,,,5.7,5.0,2.6*3F
$GPRMC,173626.000,A,5044.1416,N,00705.9662,E,1.56,109.12,070507,,*06
$GPGGA,173627.000,5044.1412,N,00705.9683,E,1,05,5.0,142.6,M,47.7,M,,0000*5A
$GPGSA,A,3,26,28,29,21,08,,,,,,,,5.7,5.0,2.6*3F
$GPGSV,3,1,12,29,82,298,26,26,69,301,28,28,58,094,26,08,36,066,23*7F
$GPGSV,3,2,12,10,32,192,19,27,13,072,15,09,11,254,15,18,11,323,25*7D
$GPGSV,3,3,12,21,09,294,20,19,06,022,,24,05,259,,17,03,131,*78
$GPRMC,173627.000,A,5044.1412,N,00705.9683,E,1.25,111.71,070507,,*04
$GPGGA,173628.000,5044.1394,N,00705.9694,E,1,06,1.3,141.2,M,47.7,M,,0000*59
$GPGSA,A,3,10,26,28,29,21,08,,,,,,,2.1,1.3,1.6*3B
$GPRMC,173628.000,A,5044.1394,N,00705.9694,E,1.02,173.93,070507,,*09
$GPGGA,173629.000,5044.1379,N,00705.9704,E,1,06,1.3,139.6,M,47.7,M,,0000*58
$GPGSA,A,3,10,26,28,29,21,08,,,,,,,2.1,1.3,1.6*3B
$GPRMC,173629.000,A,5044.1379,N,00705.9704,E,1.37,100.09,070507,,*02
$GPGGA,173630.000,5044.1334,N,00705.9712,E,1,06,1.3,134.8,M,47.7,M,,0000*5D
$GPGSA,A,3,10,26,28,29,21,08,,,,,,,2.1,1.3,1.6*3B
$GPRMC,173630.000,A,5044.1334,N,00705.9712,E,1.16,102.63,070507,,*09
$GPGGA,173631.000,5044.1293,N,00705.9718,E,1,07,1.2,127.2,M,47.7,M,,0000*52
$GPGSA,A,3,10,26,28,29,21,08,27,,,,,,1.7,1.2,1.3*3F
$GPRMC,173631.000,A,5044.1293,N,00705.9718,E,1.40,77.81,070507,,*32
$GPGGA,173632.000,5044.1264,N,00705.9723,E,1,07,1.2,120.7,M,47.7,M,,0000*53
$GPGSA,A,3,10,26,28,29,21,08,27,,,,,,1.7,1.2,1.3*3F
$GPGSV,3,1,12,29,82,298,25,26,69,301,28,28,58,094,27,08,36,066,31*7E
$GPGSV,3,2,12,10,32,192,30,27,13,072,20,09,11,254,,18,11,323,27*76
$GPGSV,3,3,12,21,09,294,19,19,06,022,,24,05,259,07,17,03,131,*75
$GPRMC,173632.000,A,5044.1264,N,00705.9723,E,1.06,173.24,070507,,*09
$GPGGA,173633.000,5044.1244,N,00705.9724,E,1,07,1.2,116.5,M,47.7,M,,0000*50
$GPGSA,A,3,10,26,28,29,21,08,27,,,,,,1.7,1.2,1.3*3F
$GPRMC,173633.000,A,5044.1244,N,00705.9724,E,0.25,170.90,070507,,*01
$GPGGA,173634.000,5044.1227,N,00705.9722,E,1,07,1.2,112.7,M,47.7,M,,0000*52
$GPGSA,A,3,10,26,28,29,21,08,27,,,,,,1.7,1.2,1.3*3F
$GPRMC,173634.000,A,5044.1227,N,00705.9722,E,1.41,230.72,070507,,*0D
$GPGGA,173635.000,5044.1211,N,00705.9717,E,1,07,1.2,108.7,M,47.7,M,,0000*5B
$GPGSA,A,3,10,26,28,29,21,08,27,,,,,,1.7,1.2,1.3*3F
$GPRMC,173635.000,A,5044.1211,N,00705.9717,E,1.20,286.59,070507,,*0C
$GPGGA,173636.000,5044.1204,N,00705.9715,E,1,07,1.2,104.9,M,47.7,M,,0000*5C
$GPGSA,A,3,10,26,28,29,21,08,27,,,,,,1.7,1.2,1.3*3F
$GPRMC,173636.000,A,5044.1204,N,00705.9715,E,0.65,198.16,070507,,*0E
$GPGGA,173637.000,5044.1198,N,00705.9713,E,1,07,1.2,102.0,M,47.7,M,,0000*52
$GPGSA,A,3,10,26,28,29,21,08,27,,,,,,1.7,1.2,1.3*3F
$GPGSV,3,1,12,29,82,298,25,26,69,301,27,28,58,094,26,08,36,066,25*75
$GPGSV,3,2,12,10,32,192,32,27,13,072,20,09,11,254,,18,11,323,20*73
$GPGSV,3,3,12,21,09,294,18,19,06,022,15,24,05,259,07,17,03,131,*70
$GPRMC,173637.000,A,5044.1198,N,00705.9713,E,0.12,135.24,070507,,*09
$GPGGA,173638.000,5044.1194,N,00705.9708,E,1,07,1.2,98.8,M,47.7,M,,0000*61
$GPGSA,A,3,10,26,28,29,21,08,27,,,,,,1.7,1.2,1.3*3F
$GPRMC,173638.000,A,5044.1194,N,00705.9708,E,0.23,113.24,070507,,*06
$GPGGA,173639.000,5044.1193,N,00705.9711,E,1,07,1.2,96.6,M,47.7,M,,0000*6F
$GPGSA,A,3,10,26,28,29,21,08,27,,,,,,1.7,1.2,1.3*3F
$GPRMC,173639.000,A,5044.1193,N,00705.9711,E,1.65,174.38,070507,,*07
$GPGGA,173640.000,5044.1187,N,00705.9715,E,1,07,1.2,95.0,M,47.7,M,,0000*65
$GPGSA,A,3,10,26,28,29,21,08,27,,,,,,1.7,1.2,1.2*3E
$GPRMC,173640.000,A,5044.1187,N,00705.9715,E,2.26,174.39,070507,,*0D
$GPGGA,173641.000,5044.1183,N,00705.9719,E,1,07,1.2,93.7,M,47.7,M,,0000*6D
$GPGSA,A,3,10,26,28,29,21,08,27,,,,,,1.7,1.2,1.2*3E
$GPRMC,173641.000,A,5044.1183,N,00705.9719,E,1.14,194.25,070507,,*05
$GPGGA,173642.000,5044.1177,N,00705.9719,E,1,06,2.2,93.8,M,47.7,M,,0000*68
$GPGSA,A,3,10,26,28,29,08,27,,,,,,,3.2,2.2,2.4*3C
$GPGSV,3,1,12,29,82,298,25,26,69,301,29,28,58,094,22,08,36,066,23*79
$GPGSV,3,2,12,10,32,192,27,27,13,072,19,09,11,254,,18,11,323,17*79
$GPGSV,3,3,12,21,09,294,15,19,06,022,20,24,05,259,,17,03,131,08*74
$GPRMC,173642.000,A,5044.1177,N,00705.9719,E,1.31,176.33,070507,,*01
$GPGGA,173643.000,5044.1178,N,00705.9725,E,1,06,2.2,93.9,M,47.7,M,,0000*68
$GPGSA,A,3,10,26,28,29,08,27,,,,,,,3.2,2.2,2.4*3C
$GPRMC,173643.000,A,5044.1178,N,00705.9725,E,0.98,75.46,070507,,*32
$GPGGA,173644.000,5044.1173,N,00705.9735,E,1,06,2.2,94.1,M,47.7,M,,0000*6A
$GPGSA,A,3,10,26,28,29,08,27,,,,,,,3.2,2.2,2.4*3C
$GPRMC,173644.000,A,5044.1173,N,00705.9735,E,1.76,129.15,070507,,*00
$GPGGA,173645.000,5044.1169,N,00705.9748,E,1,06,2.2,94.8,M,47.7,M,,0000*63
$GPGSA,A,3,10,26,28,29,08,27,,,,,,,3.2,2.2,2.4*3C
$GPRMC,173645.000,A,5044.1169,N,00705.9748,E,3.00,128.44,070507,,*06
$GPGGA,173646.000,5044.1167,N,00705.9771,E,1,06,2.2,95.6,M,47.7,M,,0000*6B
$GPGSA,A,3,10,26,28,29,08,27,,,,,,,3.2,2.2,2.4*3C
$GPRMC,173646.000,A,5044.1167,N,00705.9771,E,2.67,124.77,070507,,*0D
$GPGGA,173647.000,5044.1167,N,00705.9785,E,1,05,2.4,96.1,M,47.7,M,,0000*60
$GPGSA,A,3,10,26,28,29,08,,,,,,,,4.5,2.4,3.8*32
$GPGSV,3,1,12,29,82,298,25,26,69,301,21,28,58,094,24,08,36,066,22*76
$GPGSV,3,2,12,10,32,192,18,27,13,072,20,09,11,254,15,18,11,323,16*7A
$GPGSV,3,3,12,21,09,294,,19,06,022,15,24,05,259,12,17,03,131,*7D
$GPRMC,173647.000,A,5044.1167,N,00705.9785,E,1.27,148.01,070507,,*0B
$GPGGA,173648.000,5044.1163,N,00705.9792,E,1,06,2.2,97.1,M,47.7,M,,0000*69
$GPGSA,A,3,10,26,28,29,08,27,,,,,,,3.2,2.2,2.4*3C
$GPRMC,173648.000,A,5044.1163,N,00705.9792,E,1.10,230.03,070507,,*0C
$GPGGA,173649.000,5044.1156,N,00705.9803,E,1,06,2.2,99.1,M,47.7,M,,0000*67
$GPGSA,A,3,10,26,28,29,08,27,,,,,,,3.2,2.2,2.4*3C
$GPRMC,173649.000,A,5044.1156,N,00705.9803,E,0.98,144.84,070507,,*02
$GPGGA,173650.000,5044.1145,N,00705.9832,E,1,06,2.2,100.8,M,47.7,M,,0000*57
$GPGSA,A,3,10,26,28,29,08,27,,,,,,,3.2,2.2,2.4*3C
$GPRMC,173650.000,A,5044.1145,N,00705.9832,E,4.57,112.19,070507,,*0A
$GPGGA,173651.000,5044.1139,N,00705.9867,E,1,06,2.2,102.5,M,47.7,M,,0000*52
$GPGSA,A,3,10,26,28,29,08,27,,,,,,,3.2,2.2,2.4*3C
$GPRMC,173651.000,A,5044.1139,N,00705.9867,E,5.08,109.27,070507,,*0C
$GPGGA,173652.000,5044.1128,N,00705.9911,E,1,06,2.2,103.6,M,47.7,M,,0000*53
$GPGSA,A,3,10,26,28,29,08,27,,,,,,,3.2,2.2,2.4*3C
$GPGSV,3,1,12,29,82,298,21,26,69,301,20,28,58,094,23,08,36,066,22*74
$GPGSV,3,2,12,10,32,192,18,27,13,072,16,09,11,254,13,18,11,323,14*7B
$GPGSV,3,3,12,21,09,294,,19,06,022,,24,05,259,,17,03,131,*7A
$GPRMC,173652.000,A,5044.1128,N,00705.9911,E,6.53,112.22,070507,,*0D
$GPGGA,173653.000,5044.1118,N,00705.9953,E,1,06,2.2,105.2,M,47.7,M,,0000*55
$GPGSA,A,3,10,26,28,29,08,27,,,,,,,3.2,2.2,2.4*3C
$GPRMC,173653.000,A,5044.1118,N,00705.9953,E,5.74,123.45,070507,,*0C
$GPGGA,173654.000,5044.1106,N,00705.9991,E,1,06,2.2,107.5,M,47.7,M,,0000*56
$GPGSA,A,3,10,26,28,29,08,27,,,,,,,3.2,2.2,2.4*3C
$GPRMC,173654.000,A,5044.1106,N,00705.9991,E,6.72,117.60,070507,,*0F
$GPGGA,173655.000,5044.1099,N,00706.0025,E,1,06,2.2,109.2,M,47.7,M,,0000*55
$GPGSA,A,3,10,26,28,29,08,27,,,,,,,3.2,2.2,2.4*3C
$GPRMC,173655.000,A,5044.1099,N,00706.0025,E,6.73,113.15,070507,,*02
$GPGGA,173656.000,5044.1101,N,00706.0046,E,1,06,2.2,111.2,M,47.7,M,,0000*5A
$GPGSA,A,3,10,26,28,29,08,27,,,,,,,3.2,2.2,2.4*3C
$GPRMC,173656.000,A,5044.1101,N,00706.0046,E,4.81,104.51,070507,,*0D
$GPGGA,173657.000,5044.1098,N,00706.0080,E,1,06,2.2,113.4,M,47.7,M,,0000*54
$GPGSA,A,3,10,26,28,29,08,27,,,,,,,3.2,2.2,2.4*3C
$GPGSV,3,1,12,29,82,298,24,26,69,301,26,28,58,094,23,08,36,066,21*74
$GPGSV,3,2,12,10,32,192,18,27,13,072,15,09,11,254,,18,11,323,*7F
$GPGSV,3,3,12,21,09,294,,19,06,022,10,24,05,259,07,17,03,131,*7C
$GPRMC,173657.000,A,5044.1098,N,00706.0080,E,5.07,90.77,070507,,*30
$GPGGA,173658.000,5044.1099,N,00706.0103,E,1,06,2.2,116.0,M,47.7,M,,0000*51
$GPGSA,A,3,10,26,28,29,08,27,,,,,,,3.2,2.2,2.4*3C
$GPRMC,173658.000,A,5044.1099,N,00706.0103,E,4.31,93.16,070507,,*34
$GPGGA,173659.000,5044.1097,N,00706.0114,E,1,06,2.2,117.3,M,47.7,M,,0000*5A
$GPGSA,A,3,10,26,28,29,08,27,,,,,,,3.2,2.2,2.4*3C
$GPRMC,173659.000,A,5044.1097,N,00706.0114,E,3.91,135.94,070507,,*07
$GPGGA,173700.000,5044.1092,N,00706.0123,E,1,06,2.2,117.6,M,47.7,M,,0000*53
$GPGSA,A,3,10,26,28,29,08,27,,,,,,,3.3,2.2,2.4*3D
$GPRMC,173700.000,A,5044.1092,N,00706.0123,E,4.41,139.92,070507,,*0B
$GPGGA,173701.000,5044.1083,N,00706.0145,E,1,05,3.7,118.8,M,47.7,M,,0000*54
$GPGSA,A,3,10,26,29,08,27,,,,,,,,5.8,3.7,4.5*39
$GPRMC,173701.000,A,5044.1083,N,00706.0145,E,4.08,138.79,070507,,*03
$GPGGA,173702.000,5044.1086,N,00706.0148,E,1,06,2.2,118.3,M,47.7,M,,0000*53
$GPGSA,A,3,10,26,28,29,08,27,,,,,,,3.3,2.2,2.4*3D
$GPGSV,3,1,12,29,82,298,26,26,69,301,24,28,58,094,18,08,36,066,21*7C
$GPGSV,3,2,12,10,32,192,17,27,13,072,14,09,11,254,11,18,11,323,*71
$GPGSV,3,3,12,21,09,294,,19,06,022,,24,05,259,,17,03,131,*7A
$GPRMC,173702.000,A,5044.1086,N,00706.0148,E,3.23,130.60,070507,,*06
$GPGGA,173703.000,5044.1093,N,00706.0138,E,1,04,4.1,115.5,M,47.7,M,,0000*5D
$GPGSA,A,3,26,28,29,08,,,,,,,,,4.2,4.1,1.0*3D
$GPRMC,173703.000,A,5044.1093,N,00706.0138,E,1.36,158.51,070507,,*0E
$GPGGA,173704.000,5044.1098,N,00706.0138,E,1,06,2.2,117.2,M,47.7,M,,0000*53
$GPGSA,A,3,10,26,28,29,08,27,,,,,,,3.3,2.2,2.4*3D
$GPRMC,173704.000,A,5044.1098,N,00706.0138,E,0.34,135.18,070507,,*07
$GPGGA,173705.000,5044.1107,N,00706.0137,E,1,06,2.2,119.1,M,47.7,M,,0000*57
$GPGSA,A,3,10,26,28,29,08,27,,,,,,,3.3,2.2,2.4*3D
$GPRMC,173705.000,A,5044.1107,N,00706.0137,E,1.26,354.42,070507,,*06
$GPGGA,173706.000,5044.1114,N,00706.0141,E,1,06,2.2,120.9,M,47.7,M,,0000*55
$GPGSA,A,3,10,26,28,29,08,27,,,,,,,3.3,2.2,2.4*3D
$GPRMC,173706.000,A,5044.1114,N,00706.0141,E,1.41,49.63,070507,,*3B
$GPGGA,173707.000,5044.1114,N,00706.0143,E,1,05,2.5,120.7,M,47.7,M,,0000*5C
$GPGSA,A,3,10,26,28,29,08,,,,,,,,4.5,2.5,3.8*33
$GPGSV,3,1,12,29,82,298,25,26,69,301,23,28,58,094,19,08,36,066,21*79
$GPGSV,3,2,12,10,32,192,17,27,13,072,,09,11,254,18,18,11,323,*7D
$GPGSV,3,3,12,21,09,294,,19,06,022,08,24,05,259,,17,03,131,*72
$GPRMC,173707.000,A,5044.1114,N,00706.0143,E,0.60,138.70,070507,,*0F
$GPGGA,173708.000,5044.1114,N,00706.0135,E,1,05,2.5,120.3,M,47.7,M,,0000*56
$GPGSA,A,3,10,26,28,29,08,,,,,,,,4.5,2.5,3.8*33
$GPRMC,173708.000,A,5044.1114,N,00706.0135,E,2.19,200.06,070507,,*04
$GPGGA,173709.000,5044.1102,N,00706.0143,E,1,04,4.9,120.7,M,47.7,M,,0000*5E
$GPGSA,A,3,10,26,29,08,,,,,,,,,8.7,4.9,7.3*32
$GPRMC,173709.000,A,5044.1102,N,00706.0143,E,2.40,177.00,070507,,*0A
$GPGGA,173710.000,5044.1097,N,00706.0152,E,1,04,4.9,121.0,M,47.7,M,,0000*5D
$GPGSA,A,3,10,26,29,08,,,,,,,,,8.7,4.9,7.3*32
$GPRMC,173710.000,A,5044.1097,N,00706.0152,E,1.98,160.43,070507,,*08
$GPGGA,173711.000,5044.1090,N,00706.0166,E,1,04,4.9,121.6,M,47.7,M,,0000*5A
$GPGSA,A,3,10,26,29,08,,,,,,,,,8.7,4.9,7.3*32
$GPRMC,173711.000,A,5044.1090,N,00706.0166,E,1.53,94.48,070507,,*3F
$GPGGA,173712.000,5044.1082,N,00706.0191,E,1,04,4.9,122.1,M,47.7,M,,0000*56
$GPGSA,A,3,10,26,29,08,,,,,,,,,8.7,4.9,7.3*32
$GPGSV,3,1,12,29,82,298,20,26,69,301,20,28,58,094,19,08,36,066,21*7F
$GPGSV,3,2,12,10,32,192,17,27,13,072,,09,11,254,18,18,11,323,*7D
$GPGSV,3,3,12,21,09,294,,19,06,022,,24,05,259,,17,03,131,*7A
$GPRMC,173712.000,A,5044.1082,N,00706.0191,E,3.18,93.09,070507,,*38
$GPGGA,173713.000,5044.1073,N,00706.0214,E,1,04,4.9,123.5,M,47.7,M,,0000*52
$GPGSA,A,3,10,26,29,08,,,,,,,,,8.7,4.9,7.2*33
$GPRMC,173713.000,A,5044.1073,N,00706.0214,E,2.47,123.57,070507,,*03
$GPGGA,173714.000,5044.1068,N,00706.0227,E,1,04,4.9,125.1,M,47.7,M,,0000*5D
$GPGSA,A,3,10,26,29,08,,,,,,,,,8.7,4.9,7.2*33
$GPRMC,173714.000,A,5044.1068,N,00706.0227,E,1.15,159.16,070507,,*02
$GPGGA,173715.000,5044.1065,N,00706.0234,E,1,04,4.9,125.8,M,47.7,M,,0000*5A
$GPGSA,A,3,10,26,29,08,,,,,,,,,8.7,4.9,7.2*33
$GPRMC,173715.000,A,5044.1065,N,00706.0234,E,0.81,142.42,070507,,*0B
$GPGGA,173716.000,5044.1061,N,00706.0246,E,1,04,4.9,126.9,M,47.7,M,,0000*5A
$GPGSA,A,3,10,26,29,08,,,,,,,,,8.7,4.9,7.2*33
$GPRMC,173716.000,A,5044.1061,N,00706.0246,E,1.93,146.50,070507,,*0C
$GPGGA,173717.000,5044.1051,N,00706.0262,E,1,04,4.9,127.3,M,47.7,M,,0000*55
$GPGSA,A,3,10,26,29,08,,,,,,,,,8.7,4.9,7.2*33
$GPGSV,3,1,12,29,82,298,21,26,69,301,20,28,58,094,18,08,36,066,21*7F
$GPGSV,3,2,12,10,32,192,18,27,13,072,,09,11,254,19,18,11,323,*73
$GPGSV,3,3,12,21,09,294,,19,06,022,,24,05,259,,17,03,131,*7A
$GPRMC,173717.000,A,5044.1051,N,00706.0262,E,3.40,141.30,070507,,*05
$GPGGA,173718.000,5044.1049,N,00706.0267,E,1,04,4.9,126.8,M,47.7,M,,0000*5C
$GPGSA,A,3,10,26,29,08,,,,,,,,,8.7,4.9,7.2*33
$GPRMC,173718.000,A,5044.1049,N,00706.0267,E,2.68,135.84,070507,,*01
$GPGGA,173719.000,5044.1042,N,00706.0284,E,1,04,4.9,128.1,M,47.7,M,,0000*5C
$GPGSA,A,3,10,26,29,08,,,,,,,,,8.7,4.9,7.2*33
$GPRMC,173719.000,A,5044.1042,N,00706.0284,E,2.55,129.98,070507,,*08
$GPGGA,173720.000,5044.1028,N,00706.0314,E,1,04,4.9,129.8,M,47.7,M,,0000*5A
$GPGSA,A,3,10,26,29,08,,,,,,,,,8.7,4.9,7.2*33
$GPRMC,173720.000,A,5044.1028,N,00706.0314,E,5.23,124.00,070507,,*0C
$GPGGA,173721.000,5044.1021,N,00706.0338,E,1,04,4.9,130.8,M,47.7,M,,0000*54
$GPGSA,A,3,10,26,29,08,,,,,,,,,8.7,4.9,7.2*33
$GPRMC,173721.000,A,5044.1021,N,00706.0338,E,3.90,120.62,070507,,*04
$GPGGA,173722.000,5044.1015,N,00706.0360,E,1,04,4.9,132.2,M,47.7,M,,0000*55
$GPGSA,A,3,10,26,29,08,,,,,,,,,8.7,4.9,7.2*33
$GPGSV,3,1,12,29,82,298,22,26,69,301,21,28,58,094,18,08,36,066,21*7D
$GPGSV,3,2,12,10,32,192,19,27,13,072,,09,11,254,18,18,11,323,*73
$GPGSV,3,3,12,21,09,294,,19,06,022,,24,05,259,,17,03,131,*7A
$GPRMC,173722.000,A,5044.1015,N,00706.0360,E,3.40,121.90,070507,,*0C
$GPGGA,173723.000,5044.1012,N,00706.0379,E,1,04,4.9,133.9,M,47.7,M,,0000*51
$GPGSA,A,3,10,26,29,08,,,,,,,,,8.7,4.9,7.2*33
$GPRMC,173723.000,A,5044.1012,N,00706.0379,E,2.42,114.35,070507,,*08
$GPGGA,173724.000,5044.1006,N,00706.0406,E,1,04,4.9,136.7,M,47.7,M,,0000*57
$GPGSA,A,3,10,26,29,08,,,,,,,,,8.7,4.9,7.2*33
$GPRMC,173724.000,A,5044.1006,N,00706.0406,E,3.54,109.85,070507,,*04
$GPGGA,173725.000,5044.1009,N,00706.0420,E,1,04,4.9,136.6,M,47.7,M,,0000*5C
$GPGSA,A,3,10,26,29,08,,,,,,,,,8.7,4.9,7.2*33
$GPRMC,173725.000,A,5044.1009,N,00706.0420,E,3.53,110.64,070507,,*0E
$GPGGA,173726.000,5044.1011,N,00706.0434,E,1,04,4.9,135.8,M,47.7,M,,0000*5E
$GPGSA,A,3,10,26,29,08,,,,,,,,,8.7,4.9,7.2*33
$GPRMC,173726.000,A,5044.1011,N,00706.0434,E,3.60,97.07,070507,,*3A
$GPGGA,173727.000,5044.1020,N,00706.0442,E,1,04,4.9,134.7,M,47.7,M,,0000*52
$GPGSA,A,3,10,26,29,08,,,,,,,,,8.7,4.9,7.2*33
$GPGSV,3,1,12,29,82,298,25,26,69,301,21,28,58,094,18,08,36,066,21*7A
$GPGSV,3,2,12,10,32,192,18,27,13,072,,09,11,254,10,18,11,323,*7A
$GPGSV,3,3,12,21,09,294,,19,06,022,13,24,05,259,,17,03,131,*78
$GPRMC,173727.000,A,5044.1020,N,00706.0442,E,2.81,76.90,070507,,*37
$GPGGA,173728.000,5044.1024,N,00706.0458,E,1,04,4.9,134.4,M,47.7,M,,0000*51
$GPGSA,A,3,10,26,29,08,,,,,,,,,8.7,4.9,7.2*33
$GPRMC,173728.000,A,5044.1024,N,00706.0458,E,3.46,98.05,070507,,*31
$GPGGA,173729.000,5044.1026,N,00706.0472,E,1,04,4.9,133.6,M,47.7,M,,0000*5F
$GPGSA,A,3,10,26,29,08,,,,,,,,,8.7,4.9,7.2*33
$GPRMC,173729.000,A,5044.1026,N,00706.0472,E,2.61,127.50,070507,,*0B
$GPGGA,173730.000,5044.1029,N,00706.0492,E,1,04,4.9,131.1,M,47.7,M,,0000*53
$GPGSA,A,3,10,26,29,08,,,,,,,,,8.7,4.9,7.2*33
$GPRMC,173730.000,A,5044.1029,N,00706.0492,E,3.41,145.71,070507,,*06
$GPGGA,173731.000,5044.1028,N,00706.0520,E,1,04,4.9,131.3,M,47.7,M,,0000*59
$GPGSA,A,3,10,26,29,08,,,,,,,,,8.7,4.9,7.2*33
$GPRMC,173731.000,A,5044.1028,N,00706.0520,E,2.64,145.00,070507,,*0E
$GPGGA,173732.000,5044.1024,N,00706.0545,E,1,04,4.9,130.3,M,47.7,M,,0000*54
$GPGSA,A,3,10,26,29,08,,,,,,,,,8.7,4.9,7.2*33
$GPGSV,3,1,12,29,82,298,25,26,69,301,22,28,58,094,19,08,36,066,19*73
$GPGSV,3,2,12,10,32,192,18,27,13,072,07,09,11,254,14,18,11,323,*79
$GPGSV,3,3,12,21,09,294,09,19,06,022,,24,05,259,09,17,03,131,07*7D
$GPRMC,173732.000,A,5044.1024,N,00706.0545,E,2.73,159.91,070507,,*01
$GPGGA,173733.000,5044.1024,N,00706.0561,E,1,04,4.9,128.6,M,47.7,M,,0000*5F
$GPGSA,A,3,10,26,29,08,,,,,,,,,8.7,4.9,7.2*33
$GPRMC,173733.000,A,5044.1024,N,00706.0561,E,3.84,158.12,070507,,*05
$GPGGA,173734.000,5044.1014,N,00706.0598,E,1,05,2.5,131.6,M,47.7,M,,0000*5E
$GPGSA,A,3,10,26,29,08,28,,,,,,,,4.5,2.5,3.7*3C
$GPRMC,173734.000,A,5044.1014,N,00706.0598,E,3.44,145.69,070507,,*0B
$GPGGA,173735.000,5044.1028,N,00706.0595,E,1,06,1.3,126.0,M,47.7,M,,0000*5B
$GPGSA,A,3,10,26,29,21,08,28,,,,,,,2.0,1.3,1.6*3A
$GPRMC,173735.000,A,5044.1028,N,00706.0595,E,2.42,151.58,070507,,*08
$GPGGA,173736.000,5044.1036,N,00706.0595,E,1,06,1.3,120.8,M,47.7,M,,0000*59
$GPGSA,A,3,10,26,29,21,08,28,,,,,,,2.0,1.3,1.6*3A
$GPRMC,173736.000,A,5044.1036,N,00706.0595,E,2.64,123.24,070507,,*0E
$GPGGA,173737.000,5044.1049,N,00706.0590,E,1,06,1.3,114.6,M,47.7,M,,0000*5C
$GPGSA,A,3,10,26,29,21,08,28,,,,,,,2.0,1.3,1.6*3A
$GPGSV,3,1,12,29,82,298,25,26,69,301,29,28,58,094,19,08,36,066,20*72
$GPGSV,3,2,12,10,32,192,17,27,13,072,,09,11,254,14,18,11,323,*71
$GPGSV,3,3,12,21,09,294,13,19,06,022,,24,05,259,,17,03,131,*78
$GPRMC,173737.000,A,5044.1049,N,00706.0590,E,2.34,106.85,070507,,*0B
$GPGGA,173738.000,5044.1057,N,00706.0601,E,1,06,1.3,110.1,M,47.7,M,,0000*54
$GPGSA,A,3,10,26,29,21,08,28,,,,,,,2.0,1.3,1.6*3A
$GPRMC,173738.000,A,5044.1057,N,00706.0601,E,4.14,116.34,070507,,*0F
$GPGGA,173739.000,5044.1058,N,00706.0624,E,1,06,1.3,106.5,M,47.7,M,,0000*5E
$GPGSA,A,3,10,26,29,21,08,28,,,,,,,2.0,1.3,1.6*3A
$GPRMC,173739.000,A,5044.1058,N,00706.0624,E,4.78,114.09,070507,,*00
$GPGGA,173740.000,5044.1062,N,00706.0646,E,1,06,1.3,103.2,M,47.7,M,,0000*5F
$GPGSA,A,3,10,26,29,21,08,28,,,,,,,2.0,1.3,1.6*3A
$GPRMC,173740.000,A,5044.1062,N,00706.0646,E,2.97,121.15,070507,,*0F
$GPGGA,173741.000,5044.1057,N,00706.0666,E,1,06,1.3,103.7,M,47.7,M,,0000*5F
$GPGSA,A,3,10,26,29,21,08,28,,,,,,,2.0,1.3,1.6*3A
$GPRMC,173741.000,A,5044.1057,N,00706.0666,E,0.93,148.23,070507,,*06
$GPGGA,173742.000,5044.1055,N,00706.0672,E,1,07,1.2,104.3,M,47.7,M,,0000*58
$GPGSA,A,3,10,26,27,29,21,08,28,,,,,,1.7,1.2,1.2*3E
$GPGSV,3,1,12,29,83,295,24,26,70,300,29,28,57,091,27,08,35,066,22*70
$GPGSV,3,2,12,10,30,192,24,27,12,073,17,09,12,255,14,18,12,323,*74
$GPGSV,3,3,12,21,08,293,16,19,06,021,,17,04,131,,24,04,258,*7F
$GPRMC,173742.000,A,5044.1055,N,00706.0672,E,1.09,45.64,070507,,*3F
$GPGGA,173743.000,5044.1047,N,00706.0684,E,1,07,1.2,104.5,M,47.7,M,,0000*55
$GPGSA,A,3,10,26,27,29,21,08,28,,,,,,1.7,1.2,1.2*3E
$GPRMC,173743.000,A,5044.1047,N,00706.0684,E,1.42,272.56,070507,,*0C
$GPGGA,173744.000,5044.1041,N,00706.0686,E,1,07,1.2,104.1,M,47.7,M,,0000*52
$GPGSA,A,3,10,26,27,29,21,08,28,,,,,,1.7,1.2,1.2*3E
$GPRMC,173744.000,A,5044.1041,N,00706.0686,E,1.49,291.80,070507,,*02
$GPGGA,173745.000,5044.1033,N,00706.0691,E,1,07,1.2,105.7,M,47.7,M,,0000*57
$GPGSA,A,3,10,26,27,29,21,08,28,,,,,,1.7,1.2,1.2*3E
$GPRMC,173745.000,A,5044.1033,N,00706.0691,E,1.67,292.80,070507,,*0F
$GPGGA,173746.000,5044.1021,N,00706.0690,E,1,07,1.2,106.5,M,47.7,M,,0000*57
$GPGSA,A,3,10,26,27,29,21,08,28,,,,,,1.7,1.2,1.2*3E
$GPRMC,173746.000,A,5044.1021,N,00706.0690,E,1.89,242.75,070507,,*09
$GPGGA,173747.000,5044.1012,N,00706.0700,E,1,07,1.2,107.8,M,47.7,M,,0000*52
$GPGSA,A,3,10,26,27,29,21,08,28,,,,,,1.7,1.2,1.2*3E
$GPGSV,3,1,12,29,83,295,23,26,70,300,22,28,57,091,33,08,35,066,21*7A
$GPGSV,3,2,12,10,30,192,34,27,12,073,15,09,12,255,21,18,12,323,17*77
$GPGSV,3,3,12,21,08,293,17,19,06,021,,17,04,131,,24,04,258,*7E
$GPRMC,173747.000,A,5044.1012,N,00706.0700,E,2.02,203.17,070507,,*01
$GPGGA,173748.000,5044.1010,N,00706.0713,E,1,07,1.2,107.3,M,47.7,M,,0000*56
$GPGSA,A,3,10,26,27,29,21,08,28,,,,,,1.7,1.2,1.2*3E
$GPRMC,173748.000,A,5044.1010,N,00706.0713,E,1.27,186.68,070507,,*0C
$GPGGA,173749.000,5044.1014,N,00706.0723,E,1,07,1.2,107.2,M,47.7,M,,0000*51
$GPGSA,A,3,10,26,27,29,21,08,28,,,,,,1.7,1.2,1.2*3E
$GPRMC,173749.000,A,5044.1014,N,00706.0723,E,0.67,357.47,070507,,*0C
$GPGGA,173750.000,5044.1016,N,00706.0734,E,1,07,1.2,106.5,M,47.7,M,,0000*5B
$GPGSA,A,3,10,26,27,29,21,08,28,,,,,,1.7,1.2,1.2*3E
$GPRMC,173750.000,A,5044.1016,N,00706.0734,E,1.61,332.42,070507,,*01
$GPGGA,173751.000,5044.1015,N,00706.0741,E,1,07,1.2,106.6,M,47.7,M,,0000*58
$GPGSA,A,3,10,26,27,29,21,08,28,,,,,,1.7,1.2,1.2*3E
$GPRMC,173751.000,A,5044.1015,N,00706.0741,E,1.69,276.86,070507,,*00
$GPGGA,173752.000,5044.1017,N,00706.0746,E,1,06,2.2,105.2,M,47.7,M,,0000*5B
$GPGSA,A,3,10,26,27,29,08,28,,,,,,,3.3,2.2,2.4*3D
$GPGSV,3,1,12,29,83,295,24,26,70,300,21,28,57,091,35,08,35,066,37*7F
$GPGSV,3,2,12,10,30,192,24,27,12,073,16,09,12,255,20,18,12,323,19*7A
$GPGSV,3,3,12,21,08,293,17,19,06,021,16,17,04,131,,24,04,258,13*7B
$GPRMC,173752.000,A,5044.1017,N,00706.0746,E,0.43,334.81,070507,,*0F
$GPGGA,173753.000,5044.1022,N,00706.0752,E,1,06,2.2,104.3,M,47.7,M,,0000*59
$GPGSA,A,3,10,26,27,29,08,28,,,,,,,3.3,2.2,2.4*3D
$GPRMC,173753.000,A,5044.1022,N,00706.0752,E,1.06,204.52,070507,,*01
$GPGGA,173754.000,5044.1020,N,00706.0753,E,1,06,2.2,103.5,M,47.7,M,,0000*5C
$GPGSA,A,3,10,26,27,29,08,28,,,,,,,3.3,2.2,2.4*3D
$GPRMC,173754.000,A,5044.1020,N,00706.0753,E,0.81,182.46,070507,,*03
$GPGGA,173755.000,5044.1019,N,00706.0760,E,1,06,2.2,103.6,M,47.7,M,,0000*54
$GPGSA,A,3,10,26,27,29,08,28,,,,,,,3.3,2.2,2.4*3D
$GPRMC,173755.000,A,5044.1019,N,00706.0760,E,1.94,169.57,070507,,*08
$GPGGA,173756.000,5044.1021,N,00706.0767,E,1,06,2.2,102.1,M,47.7,M,,0000*5D
$GPGSA,A,3,10,26,27,29,08,28,,,,,,,3.3,2.2,2.4*3D
$GPRMC,173756.000,A,5044.1021,N,00706.0767,E,0.80,182.15,070507,,*00
$GPGGA,173757.000,5044.1013,N,00706.0775,E,1,06,2.2,100.1,M,47.7,M,,0000*5C
$GPGSA,A,3,10,26,27,29,08,28,,,,,,,3.3,2.2,2.4*3D
$GPGSV,3,1,12,29,83,295,25,26,70,300,22,28,57,091,34,08,35,066,38*73
$GPGSV,3,2,12,10,30,192,25,27,12,073,16,09,12,255,19,18,12,323,18*70
$GPGSV,3,3,12,21,08,293,18,19,06,021,17,17,04,131,07,24,04,258,14*75
$GPRMC,173757.000,A,5044.1013,N,00706.0775,E,1.62,157.63,070507,,*07
$GPGGA,173758.000,5044.1008,N,00706.0777,E,1,06,2.2,99.4,M,47.7,M,,0000*6F
$GPGSA,A,3,10,26,27,29,08,28,,,,,,,3.3,2.2,2.4*3D
$GPRMC,173758.000,A,5044.1008,N,00706.0777,E,1.09,188.47,070507,,*09
$GPGGA,173759.000,5044.0999,N,00706.0776,E,1,06,2.2,98.1,M,47.7,M,,0000*6B
$GPGSA,A,3,10,26,27,29,08,28,,,,,,,3.3,2.2,2.4*3D
$GPRMC,173759.000,A,5044.0999,N,00706.0776,E,1.85,220.58,070507,,*02
$GPGGA,173800.000,5044.0987,N,00706.0773,E,1,06,2.2,96.1,M,47.7,M,,0000*6C
$GPGSA,A,3,10,26,27,29,08,28,,,,,,,3.3,2.2,2.4*3D
$GPRMC,173800.000,A,5044.0987,N,00706.0773,E,2.47,224.94,070507,,*02
$GPGGA,173801.000,5044.0979,N,00706.0767,E,1,06,2.2,95.2,M,47.7,M,,0000*69
$GPGSA,A,3,10,26,27,29,08,28,,,,,,,3.3,2.2,2.4*3D
$GPRMC,173801.000,A,5044.0979,N,00706.0767,E,2.15,261.66,070507,,*0C
$GPGGA,173802.000,5044.0968,N,00706.0762,E,1,06,2.2,94.0,M,47.7,M,,0000*6C
$GPGSA,A,3,10,26,27,29,08,28,,,,,,,3.3,2.2,2.4*3D
$GPGSV,3,1,12,29,83,295,25,26,70,300,22,28,57,091,34,08,35,066,38*73
$GPGSV,3,2,12,10,30,192,25,27,12,073,17,09,12,255,18,18,12,323,16*7E
$GPGSV,3,3,12,21,08,293,17,19,06,021,17,17,04,131,,24,04,258,*78
$GPRMC,173802.000,A,5044.0968,N,00706.0762,E,2.01,206.60,070507,,*08
$GPGGA,173803.000,5044.0960,N,00706.0759,E,1,06,2.2,92.0,M,47.7,M,,0000*6B
$GPGSA,A,3,10,26,27,29,08,28,,,,,,,3.3,2.2,2.4*3D
$GPRMC,173803.000,A,5044.0960,N,00706.0759,E,1.87,279.12,070507,,*09
$GPGGA,173804.000,5044.0949,N,00706.0753,E,1,06,2.2,89.1,M,47.7,M,,0000*66
$GPGSA,A,3,10,26,27,29,08,28,,,,,,,3.3,2.2,2.4*3D
$GPRMC,173804.000,A,5044.0949,N,00706.0753,E,1.49,247.73,070507,,*07
$GPGGA,173805.000,5044.0938,N,00706.0749,E,1,06,2.2,86.8,M,47.7,M,,0000*6C
$GPGSA,A,3,10,26,27,29,08,28,,,,,,,3.3,2.2,2.4*3D
$GPRMC,173805.000,A,5044.0938,N,00706.0749,E,1.84,195.30,070507,,*01
$GPGGA,173806.000,5044.0931,N,00706.0746,E,1,06,2.2,84.3,M,47.7,M,,0000*60
$GPGSA,A,3,10,26,27,29,08,28,,,,,,,3.3,2.2,2.4*3D
$GPRMC,173806.000,A,5044.0931,N,00706.0746,E,0.23,81.11,070507,,*3F
$GPGGA,173807.000,5044.0923,N,00706.0742,E,1,06,2.2,83.1,M,47.7,M,,0000*63
$GPGSA,A,3,10,26,27,29,08,28,,,,,,,3.3,2.2,2.4*3D
$GPGSV,3,1,12,29,83,295,24,26,70,300,26,28,57,091,26,08,35,066,32*7F
$GPGSV,3,2,12,10,30,192,24,27,12,073,26,09,12,255,18,18,12,323,15*7E
$GPGSV,3,3,12,21,08,293,17,19,06,021,17,17,04,131,08,24,04,258,*70
$GPRMC,173807.000,A,5044.0923,N,00706.0742,E,1.41,238.05,070507,,*09
$GPGGA,173808.000,5044.0922,N,00706.0737,E,1,05,2.5,81.3,M,47.7,M,,0000*6B
$GPGSA,A,3,10,26,29,08,28,,,,,,,,4.5,2.5,3.7*3C
$GPRMC,173808.000,A,5044.0922,N,00706.0737,E,0.73,323.64,070507,,*09
$GPGGA,173809.000,5044.0925,N,00706.0728,E,1,06,2.2,80.6,M,47.7,M,,0000*63
$GPGSA,A,3,10,26,27,29,08,28,,,,,,,3.3,2.2,2.4*3D
$GPRMC,173809.000,A,5044.0925,N,00706.0728,E,1.93,312.03,070507,,*0D
$GPGGA,173810.000,5044.0927,N,00706.0716,E,1,06,2.2,79.8,M,47.7,M,,0000*6C
$GPGSA,A,3,10,26,27,29,08,28,,,,,,,3.3,2.2,2.4*3D
$GPRMC,173810.000,A,5044.0927,N,00706.0716,E,2.21,327.36,070507,,*00
$GPGGA,173811.000,5044.0925,N,00706.0708,E,1,06,2.2,78.4,M,47.7,M,,0000*6D
$GPGSA,A,3,10,26,27,29,08,28,,,,,,,3.3,2.2,2.4*3D
$GPRMC,173811.000,A,5044.0925,N,00706.0708,E,1.06,334.14,070507,,*08
$GPGGA,173812.000,5044.0914,N,00706.0703,E,1,06,2.2,78.1,M,47.7,M,,0000*62
$GPGSA,A,3,10,26,27,29,08,28,,,,,,,3.3,2.2,2.4*3D
$GPGSV,3,1,12,29,83,295,25,26,70,300,26,28,57,091,27,08,35,066,29*75
$GPGSV,3,2,12,10,30,192,24,27,12,073,18,09,12,255,16,18,12,323,14*7C
$GPGSV,3,3,12,21,08,293,17,19,06,021,17,17,04,131,09,24,04,258,*71
$GPRMC,173812.000,A,5044.0914,N,00706.0703,E,1.85,181.65,070507,,*03
$GPGGA,173813.000,5044.0899,N,00706.0706,E,1,06,2.2,77.8,M,47.7,M,,0000*64
$GPGSA,A,3,10,26,27,29,08,28,,,,,,,3.3,2.2,2.4*3D
$GPRMC,173813.000,A,5044.0899,N,00706.0706,E,2.48,141.02,070507,,*0C
$GPGGA,173814.000,5044.0885,N,00706.0709,E,1,06,2.2,77.5,M,47.7,M,,0000*6C
$GPGSA,A,3,10,26,27,29,08,28,,,,,,,3.3,2.2,2.4*3D
$GPRMC,173814.000,A,5044.0885,N,00706.0709,E,2.45,196.00,070507,,*0C
$GPGGA,173815.000,5044.0865,N,00706.0701,E,1,06,2.2,77.7,M,47.7,M,,0000*69
$GPGSA,A,3,10,26,27,29,08,28,,,,,,,3.3,2.2,2.4*3D
$GPRMC,173815.000,A,5044.0865,N,00706.0701,E,5.27,195.14,070507,,*0E
$GPGGA,173816.000,5044.0843,N,00706.0692,E,1,06,2.2,77.9,M,47.7,M,,0000*6B
$GPGSA,A,3,10,26,27,29,08,28,,,,,,,3.3,2.2,2.4*3D
$GPRMC,173816.000,A,5044.0843,N,00706.0692,E,6.21,183.17,070507,,*03
$GPGGA,173817.000,5044.0811,N,00706.0680,E,1,06,2.2,75.4,M,47.7,M,,0000*61
$GPGSA,A,3,10,26,27,29,08,28,,,,,,,3.3,2.2,2.4*3D
$GPGSV,3,1,12,29,83,295,25,26,70,300,22,28,57,091,25,08,35,066,25*7F
$GPGSV,3,2,12,10,30,192,23,27,12,073,20,09,12,255,16,18,12,323,15*71
$GPGSV,3,3,12,21,08,293,17,19,06,021,17,17,04,131,,24,04,258,*78
$GPRMC,173817.000,A,5044.0811,N,00706.0680,E,6.75,193.54,070507,,*01
$GPGGA,173818.000,5044.0786,N,00706.0665,E,1,06,2.2,75.1,M,47.7,M,,0000*61
$GPGSA,A,3,10,26,27,29,08,28,,,,,,,3.3,2.2,2.4*3D
$GPRMC,173818.000,A,5044.0786,N,00706.0665,E,6.03,201.13,070507,,*0E
$GPGGA,173819.000,5044.0751,N,00706.0647,E,1,06,2.2,74.2,M,47.7,M,,0000*68
$GPGSA,A,3,10,26,27,29,08,28,,,,,,,3.3,2.2,2.4*3D
$GPRMC,173819.000,A,5044.0751,N,00706.0647,E,7.62,196.61,070507,,*0B
$GPGGA,173820.000,5044.0723,N,00706.0638,E,1,06,2.2,74.4,M,47.7,M,,0000*69
$GPGSA,A,3,10,26,27,29,08,28,,,,,,,3.3,2.2,2.4*3D
$GPRMC,173820.000,A,5044.0723,N,00706.0638,E,8.18,185.07,070507,,*0C
$GPGGA,173821.000,5044.0705,N,00706.0632,E,1,06,2.2,74.4,M,47.7,M,,0000*66
$GPGSA,A,3,10,26,27,29,08,28,,,,,,,3.3,2.2,2.4*3D
$GPRMC,173821.000,A,5044.0705,N,00706.0632,E,7.04,187.21,070507,,*07
$GPGGA,173822.000,5044.0690,N,00706.0618,E,1,06,2.2,75.0,M,47.7,M,,0000*65
$GPGSA,A,3,10,26,27,29,08,28,,,,,,,3.3,2.2,2.4*3D
$GPGSV,3,1,12,29,83,295,25,26,70,300,28,28,57,091,32,08,35,066,26*70
$GPGSV,3,2,12,10,30,192,25,27,12,073,18,09,12,255,15,18,12,323,26*7F
$GPGSV,3,3,12,21,08,293,16,19,06,021,24,17,04,131,,24,04,258,*79
$GPRMC,173822.000,A,5044.0690,N,00706.0618,E,6.59,199.94,070507,,*09
$GPGGA,173823.000,5044.0675,N,00706.0611,E,1,06,2.2,76.4,M,47.7,M,,0000*61
$GPGSA,A,3,10,26,27,29,08,28,,,,,,,3.3,2.2,2.4*3D
$GPRMC,173823.000,A,5044.0675,N,00706.0611,E,5.37,200.88,070507,,*0F
$GPGGA,173824.000,5044.0671,N,00706.0600,E,1,06,2.2,78.2,M,47.7,M,,0000*6A
$GPGSA,A,3,10,26,27,29,08,28,,,,,,,3.3,2.2,2.4*3D
$GPRMC,173824.000,A,5044.0671,N,00706.0600,E,5.12,215.25,070507,,*08
$GPGGA,173825.000,5044.0663,N,00706.0578,E,1,06,2.2,77.1,M,47.7,M,,0000*68
$GPGSA,A,3,10,26,27,29,08,28,,,,,,,3.3,2.2,2.4*3D
$GPRMC,173825.000,A,5044.0663,N,00706.0578,E,4.90,239.54,070507,,*05
$GPGGA,173826.000,5044.0661,N,00706.0557,E,1,06,2.2,76.8,M,47.7,M,,0000*6C
$GPGSA,A,3,10,26,27,29,08,28,,,,,,,3.3,2.2,2.4*3D
$GPRMC,173826.000,A,5044.0661,N,00706.0557,E,3.30,230.42,070507,,*0A
$GPGGA,173827.000,5044.0653,N,00706.0537,E,1,06,2.2,75.9,M,47.7,M,,0000*68
$GPGSA,A,3,10,26,27,29,08,28,,,,,,,3.3,2.2,2.4*3D
$GPGSV,3,1,12,29,83,295,25,26,70,300,27,28,57,091,19,08,35,066,25*75
$GPGSV,3,2,12,10,30,192,26,27,12,073,17,09,12,255,14,18,12,323,24*70
$GPGSV,3,3,12,21,08,293,15,19,06,021,07,17,04,131,,24,04,258,*7B
$GPRMC,173827.000,A,5044.0653,N,00706.0537,E,1.64,221.34,070507,,*0E
$GPGGA,173828.000,5044.0653,N,00706.0528,E,1,06,2.2,76.1,M,47.7,M,,0000*62
$GPGSA,A,3,10,26,27,29,08,28,,,,,,,3.3,2.2,2.4*3D
$GPRMC,173828.000,A,5044.0653,N,00706.0528,E,1.62,239.84,070507,,*0B
$GPGGA,173829.000,5044.0653,N,00706.0535,E,1,07,1.2,79.8,M,47.7,M,,0000*6B
$GPGSA,A,3,10,26,27,29,21,08,28,,,,,,1.7,1.2,1.2*3E
$GPRMC,173829.000,A,5044.0653,N,00706.0535,E,1.38,177.83,070507,,*07
$GPGGA,173830.000,5044.0647,N,00706.0554,E,1,07,1.2,82.9,M,47.7,M,,0000*64
$GPGSA,A,3,10,26,27,29,21,08,28,,,,,,1.7,1.2,1.2*3E
$GPRMC,173830.000,A,5044.0647,N,00706.0554,E,2.56,103.61,070507,,*09
$GPGGA,173831.000,5044.0643,N,00706.0570,E,1,07,1.2,84.6,M,47.7,M,,0000*6E
$GPGSA,A,3,10,26,27,29,21,08,28,,,,,,1.7,1.2,1.2*3E
$GPRMC,173831.000,A,5044.0643,N,00706.0570,E,2.53,109.08,070507,,*0A
$GPGGA,173832.000,5044.0642,N,00706.0582,E,1,07,1.2,85.8,M,47.7,M,,0000*6E
$GPGSA,A,3,10,26,27,29,21,08,28,,,,,,1.7,1.2,1.2*3E
$GPGSV,3,1,12,29,83,295,25,26,70,300,28,28,57,091,26,08,35,066,29*7A
$GPGSV,3,2,12,10,30,192,26,27,12,073,18,09,12,255,14,18,12,323,26*7D
$GPGSV,3,3,12,21,08,293,15,19,06,021,,17,04,131,,24,04,258,*7C
$GPRMC,173832.000,A,5044.0642,N,00706.0582,E,2.08,103.26,070507,,*0D
$GPGGA,173833.000,5044.0649,N,00706.0591,E,1,07,1.2,87.4,M,47.7,M,,0000*68
$GPGSA,A,3,10,26,27,29,21,08,28,,,,,,1.7,1.2,1.2*3E
$GPRMC,173833.000,A,5044.0649,N,00706.0591,E,1.62,95.92,070507,,*3B
$GPGGA,173834.000,5044.0655,N,00706.0601,E,1,06,1.2,90.0,M,47.7,M,,0000*6B
$GPGSA,A,3,10,26,27,29,21,28,,,,,,,1.7,1.2,1.2*36
$GPRMC,173834.000,A,5044.0655,N,00706.0601,E,1.96,89.67,070507,,*37
$GPGGA,173835.000,5044.0659,N,00706.0616,E,1,07,1.2,92.3,M,47.7,M,,0000*60
$GPGSA,A,3,10,26,27,29,21,08,28,,,,,,1.7,1.2,1.2*3E
$GPRMC,173835.000,A,5044.0659,N,00706.0616,E,1.99,86.94,070507,,*30
$GPGGA,173836.000,5044.0662,N,00706.0625,E,1,07,1.2,94.4,M,47.7,M,,0000*6A
$GPGSA,A,3,10,26,27,29,21,08,28,,,,,,1.7,1.2,1.2*3E
$GPRMC,173836.000,A,5044.0662,N,00706.0625,E,1.56,162.81,070507,,*07
$GPGGA,173837.000,5044.0658,N,00706.0631,E,1,07,1.2,97.7,M,47.7,M,,0000*67
$GPGSA,A,3,10,26,27,29,21,08,28,,,,,,1.7,1.2,1.2*3E
$GPGSV,3,1,12,29,83,295,25,26,70,300,28,28,57,091,26,08,35,066,28*7B
$GPGSV,3,2,12,10,30,192,25,27,12,073,18,09,12,255,14,18,12,323,15*7E
$GPGSV,3,3,12,21,08,293,13,19,06,021,12,17,04,131,,24,04,258,11*79
$GPRMC,173837.000,A,5044.0658,N,00706.0631,E,2.03,172.94,070507,,*0C
$GPGGA,173838.000,5044.0654,N,00706.0638,E,1,06,2.2,99.0,M,47.7,M,,0000*66
$GPGSA,A,3,10,26,27,29,08,28,,,,,,,3.3,2.2,2.4*3D
$GPRMC,173838.000,A,5044.0654,N,00706.0638,E,2.32,145.51,070507,,*09
$GPGGA,173839.000,5044.0652,N,00706.0639,E,1,06,2.2,99.8,M,47.7,M,,0000*68
$GPGSA,A,3,10,26,27,29,08,28,,,,,,,3.3,2.2,2.4*3D
$GPRMC,173839.000,A,5044.0652,N,00706.0639,E,2.07,164.24,070507,,*08
$GPGGA,173840.000,5044.0642,N,00706.0643,E,1,06,2.2,100.0,M,47.7,M,,0000*53
$GPGSA,A,3,10,26,27,29,08,28,,,,,,,3.3,2.2,2.4*3D
$GPRMC,173840.000,A,5044.0642,N,00706.0643,E,3.20,146.36,070507,,*0D
$GPGGA,173841.000,5044.0633,N,00706.0647,E,1,06,2.2,101.8,M,47.7,M,,0000*59
$GPGSA,A,3,10,26,27,29,08,28,,,,,,,3.3,2.2,2.4*3D
$GPRMC,173841.000,A,5044.0633,N,00706.0647,E,2.29,134.52,070507,,*01
$GPGGA,173842.000,5044.0631,N,00706.0650,E,1,06,2.2,103.3,M,47.7,M,,0000*57
$GPGSA,A,3,10,26,27,29,08,28,,,,,,,3.3,2.2,2.4*3D
$GPGSV,3,1,12,29,83,295,25,26,70,300,28,28,57,091,25,08,35,066,26*76
$GPGSV,3,2,12,10,30,192,23,27,12,073,17,09,12,255,15,18,12,323,14*77
$GPGSV,3,3,12,21,08,293,,19,06,021,07,17,04,131,,24,04,258,*7F
$GPRMC,173842.000,A,5044.0631,N,00706.0650,E,2.46,149.81,070507,,*0B
$GPGGA,173843.000,5044.0627,N,00706.0657,E,1,06,2.2,104.3,M,47.7,M,,0000*51
$GPGSA,A,3,10,26,27,29,08,28,,,,,,,3.3,2.2,2.4*3D
$GPRMC,173843.000,A,5044.0627,N,00706.0657,E,3.21,129.24,070507,,*03
$GPGGA,173844.000,5044.0617,N,00706.0674,E,1,06,2.2,106.2,M,47.7,M,,0000*57
$GPGSA,A,3,10,26,27,29,08,28,,,,,,,3.3,2.2,2.4*3D
$GPRMC,173844.000,A,5044.0617,N,00706.0674,E,4.03,136.40,070507,,*0D
$GPGGA,173845.000,5044.0603,N,00706.0688,E,1,06,2.2,108.7,M,47.7,M,,0000*5B
$GPGSA,A,3,10,26,27,29,08,28,,,,,,,3.3,2.2,2.4*3D
$GPRMC,173845.000,A,5044.0603,N,00706.0688,E,3.41,141.50,070507,,*0A
$GPGGA,173846.000,5044.0593,N,00706.0702,E,1,06,2.2,111.9,M,47.7,M,,0000*57
$GPGSA,A,3,10,26,27,29,08,28,,,,,,,3.3,2.2,2.4*3D
$GPRMC,173846.000,A,5044.0593,N,00706.0702,E,2.60,121.17,070507,,*07
$GPGGA,173847.000,5044.0584,N,00706.0712,E,1,06,2.2,113.8,M,47.7,M,,0000*52
$GPGSA,A,3,10,26,27,29,08,28,,,,,,,3.3,2.2,2.4*3D
$GPGSV,3,1,12,29,83,295,26,26,70,300,28,28,57,091,26,08,35,066,20*70
$GPGSV,3,2,12,10,30,192,22,27,12,073,16,09,12,255,14,18,12,323,16*74
$GPGSV,3,3,12,21,08,293,,19,06,021,12,17,04,131,,24,04,258,*7B
$GPRMC,173847.000,A,5044.0584,N,00706.0712,E,3.38,139.32,070507,,*03
$GPGGA,173848.000,5044.0575,N,00706.0725,E,1,06,2.2,115.8,M,47.7,M,,0000*51
$GPGSA,A,3,10,26,27,29,08,28,,,,,,,3.3,2.2,2.4*3D
$GPRMC,173848.000,A,5044.0575,N,00706.0725,E,3.46,128.39,070507,,*04
$GPGGA,173849.000,5044.0574,N,00706.0744,E,1,06,2.2,118.2,M,47.7,M,,0000*51
$GPGSA,A,3,10,26,27,29,08,28,,,,,,,3.3,2.2,2.4*3D
$GPRMC,173849.000,A,5044.0574,N,00706.0744,E,3.30,104.18,070507,,*0F
$GPGGA,173850.000,5044.0572,N,00706.0759,E,1,06,2.2,119.2,M,47.7,M,,0000*52
$GPGSA,A,3,10,26,27,29,08,28,,,,,,,3.3,2.2,2.4*3D
$GPRMC,173850.000,A,5044.0572,N,00706.0759,E,3.65,114.52,070507,,*02
$GPGGA,173851.000,5044.0568,N,00706.0776,E,1,06,2.2,119.7,M,47.7,M,,0000*50
$GPGSA,A,3,10,26,27,29,08,28,,,,,,,3.3,2.2,2.4*3D
$GPRMC,173851.000,A,5044.0568,N,00706.0776,E,4.30,114.69,070507,,*0A
$GPGGA,173852.000,5044.0566,N,00706.0792,E,1,06,2.2,120.4,M,47.7,M,,0000*5E
$GPGSA,A,3,10,26,27,29,08,28,,,,,,,3.3,2.2,2.4*3D
$GPGSV,3,1,12,29,83,295,26,26,70,300,29,28,57,091,26,08,35,066,21*70
$GPGSV,3,2,12,10,30,192,21,27,12,073,15,09,12,255,14,18,12,323,18*7A
$GPGSV,3,3,12,21,08,293,,19,06,021,15,17,04,131,,24,04,258,*7C
$GPRMC,173852.000,A,5044.0566,N,00706.0792,E,2.74,143.70,070507,,*01
$GPGGA,173853.000,5044.0567,N,00706.0800,E,1,06,2.2,121.4,M,47.7,M,,0000*5B
$GPGSA,A,3,10,26,27,29,08,28,,,,,,,3.3,2.2,2.4*3D
$GPRMC,173853.000,A,5044.0567,N,00706.0800,E,1.54,130.15,070507,,*03
$GPGGA,173854.000,5044.0567,N,00706.0813,E,1,06,2.2,122.0,M,47.7,M,,0000*59
$GPGSA,A,3,10,26,27,29,08,28,,,,,,,3.3,2.2,2.4*3D
$GPRMC,173854.000,A,5044.0567,N,00706.0813,E,3.24,131.61,070507,,*01
$GPGGA,173855.000,5044.0558,N,00706.0833,E,1,06,2.2,122.5,M,47.7,M,,0000*53
$GPGSA,A,3,10,26,27,29,08,28,,,,,,,3.3,2.2,2.4*3D
$GPRMC,173855.000,A,5044.0558,N,00706.0833,E,4.94,143.98,070507,,*01
$GPGGA,173856.000,5044.0546,N,00706.0849,E,1,06,2.2,122.6,M,47.7,M,,0000*51
$GPGSA,A,3,10,26,27,29,08,28,,,,,,,3.3,2.2,2.4*3D
$GPRMC,173856.000,A,5044.0546,N,00706.0849,E,5.05,140.85,070507,,*06
$GPGGA,173857.000,5044.0533,N,00706.0856,E,1,06,2.2,122.4,M,47.7,M,,0000*5E
$GPGSA,A,3,10,26,27,29,08,28,,,,,,,3.3,2.2,2.4*3D
$GPGSV,3,1,12,29,83,295,26,26,70,300,28,28,57,091,20,08,35,066,22*74
$GPGSV,3,2,12,10,30,192,21,27,12,073,14,09,12,255,14,18,12,323,27*77
$GPGSV,3,3,12,21,08,293,,19,06,021,13,17,04,131,12,24,04,258,11*79
$GPRMC,173857.000,A,5044.0533,N,00706.0856,E,4.19,167.45,070507,,*0E
$GPGGA,173858.000,5044.0521,N,00706.0862,E,1,06,2.2,122.7,M,47.7,M,,0000*56
$GPGSA,A,3,10,26,27,29,08,28,,,,,,,3.3,2.2,2.4*3D
$GPRMC,173858.000,A,5044.0521,N,00706.0862,E,4.00,144.05,070507,,*08
$GPGGA,173859.000,5044.0507,N,00706.0876,E,1,06,2.2,123.9,M,47.7,M,,0000*59
$GPGSA,A,3,10,26,27,29,08,28,,,,,,,3.3,2.2,2.4*3D
$GPRMC,173859.000,A,5044.0507,N,00706.0876,E,4.05,142.18,070507,,*07
$GPGGA,173900.000,5044.0498,N,00706.0886,E,1,06,2.2,123.6,M,47.7,M,,0000*53
$GPGSA,A,3,10,26,27,29,08,28,,,,,,,3.3,2.2,2.4*3D
$GPRMC,173900.000,A,5044.0498,N,00706.0886,E,2.51,134.58,070507,,*00
$GPGGA,173901.000,5044.0491,N,00706.0906,E,1,06,2.3,125.0,M,47.7,M,,0000*53
$GPGSA,A,3,10,26,27,29,08,28,,,,,,,3.3,2.3,2.4*3C
$GPRMC,173901.000,A,5044.0491,N,00706.0906,E,3.29,99.30,070507,,*37
$GPGGA,173902.000,5044.0487,N,00706.0927,E,1,05,2.5,124.2,M,47.7,M,,0000*52
$GPGSA,A,3,10,26,29,08,28,,,,,,,,4.5,2.5,3.7*3C
$GPGSV,3,1,12,29,83,295,26,26,70,300,29,28,57,091,29,08,35,066,29*77
$GPGSV,3,2,12,10,30,192,23,27,12,073,,09,12,255,,18,12,323,27*75
$GPGSV,3,3,12,21,08,293,,19,06,021,,17,04,131,,24,04,258,*78
$GPRMC,173902.000,A,5044.0487,N,00706.0927,E,2.60,118.42,070507,,*01
$GPGGA,173903.000,5044.0481,N,00706.0945,E,1,05,2.5,122.4,M,47.7,M,,0000*51
$GPGSA,A,3,10,26,29,08,28,,,,,,,,4.5,2.5,3.7*3C
$GPRMC,173903.000,A,5044.0481,N,00706.0945,E,3.36,133.73,070507,,*0B
$GPGGA,173904.000,5044.0485,N,00706.0944,E,1,05,2.5,118.3,M,47.7,M,,0000*5D
$GPGSA,A,3,10,26,29,08,28,,,,,,,,4.5,2.5,3.7*3C
$GPRMC,173904.000,A,5044.0485,N,00706.0944,E,2.14,135.13,070507,,*08
$GPGGA,173905.000,5044.0484,N,00706.0945,E,1,05,2.5,115.4,M,47.7,M,,0000*56
$GPGSA,A,3,10,26,08,29,28,,,,,,,,4.5,2.5,3.7*3C
$GPRMC,173905.000,A,5044.0484,N,00706.0945,E,1.89,157.75,070507,,*0A
$GPGGA,173906.000,5044.0483,N,00706.0958,E,1,05,2.5,113.2,M,47.7,M,,0000*5E
$GPGSA,A,3,10,26,08,29,28,,,,,,,,4.5,2.5,3.7*3C
$GPRMC,173906.000,A,5044.0483,N,00706.0958,E,3.01,120.55,070507,,*02
$GPGGA,173907.000,5044.0482,N,00706.0971,E,1,05,2.5,111.4,M,47.7,M,,0000*51
$GPGSA,A,3,10,26,08,29,28,,,,,,,,4.5,2.5,3.7*3C
$GPGSV,3,1,12,29,83,295,26,26,70,300,28,28,57,091,28,08,35,066,37*78
$GPGSV,3,2,12,10,30,192,25,27,12,073,,09,12,255,07,18,12,323,22*71
$GPGSV,3,3,12,21,08,293,,19,06,021,,17,04,131,,24,04,258,*78
$GPRMC,173907.000,A,5044.0482,N,00706.0971,E,1.94,146.34,070507,,*00
$GPGGA,173908.000,5044.0478,N,00706.0981,E,1,05,2.6,109.8,M,47.7,M,,0000*52
$GPGSA,A,3,10,26,08,29,28,,,,,,,,4.5,2.6,3.7*3F
$GPRMC,173908.000,A,5044.0478,N,00706.0981,E,2.15,148.58,070507,,*0B
$GPGGA,173909.000,5044.0477,N,00706.0989,E,1,05,2.6,104.8,M,47.7,M,,0000*59
$GPGSA,A,3,10,26,08,29,28,,,,,,,,4.5,2.6,3.7*3F
$GPRMC,173909.000,A,5044.0477,N,00706.0989,E,2.47,174.32,070507,,*09
$GPGGA,173910.000,5044.0478,N,00706.0987,E,1,05,2.6,99.9,M,47.7,M,,0000*64
$GPGSA,A,3,10,26,08,29,28,,,,,,,,4.5,2.6,3.7*3F
$GPRMC,173910.000,A,5044.0478,N,00706.0987,E,1.14,184.68,070507,,*05
$GPGGA,173911.000,5044.0473,N,00706.0985,E,1,05,2.6,95.7,M,47.7,M,,0000*6E
$GPGSA,A,3,10,26,08,29,28,,,,,,,,4.5,2.6,3.7*3F
$GPRMC,173911.000,A,5044.0473,N,00706.0985,E,2.29,195.29,070507,,*05
$GPGGA,173912.000,5044.0464,N,00706.0981,E,1,05,2.6,93.7,M,47.7,M,,0000*69
$GPGSA,A,3,10,26,08,29,28,,,,,,,,4.5,2.6,3.7*3F
$GPGSV,3,1,12,29,83,295,25,26,70,300,28,28,57,091,29,08,35,066,34*79
$GPGSV,3,2,12,10,30,192,23,27,12,073,,09,12,255,,18,12,323,21*73
$GPGSV,3,3,12,21,08,293,,19,06,021,,17,04,131,,24,04,258,07*7F
$GPRMC,173912.000,A,5044.0464,N,00706.0981,E,2.84,209.42,070507,,*08
$GPGGA,173913.000,5044.0460,N,00706.0980,E,1,05,2.6,91.5,M,47.7,M,,0000*6D
$GPGSA,A,3,10,26,08,29,28,,,,,,,,4.5,2.6,3.7*3F
$GPRMC,173913.000,A,5044.0460,N,00706.0980,E,2.80,231.87,070507,,*0A
$GPGGA,173914.000,5044.0450,N,00706.0978,E,1,05,2.6,89.6,M,47.7,M,,0000*64
$GPGSA,A,3,10,26,08,29,28,,,,,,,,4.5,2.6,3.7*3F
$GPRMC,173914.000,A,5044.0450,N,00706.0978,E,2.77,216.09,070507,,*02
$GPGGA,173915.000,5044.0445,N,00706.0975,E,1,05,2.6,88.5,M,47.7,M,,0000*6E
$GPGSA,A,3,10,26,08,29,28,,,,,,,,4.5,2.6,3.7*3F
$GPRMC,173915.000,A,5044.0445,N,00706.0975,E,2.17,220.36,070507,,*05
$GPGGA,173916.000,5044.0441,N,00706.0981,E,1,05,2.6,89.2,M,47.7,M,,0000*64
$GPGSA,A,3,10,26,08,29,28,,,,,,,,4.5,2.6,3.7*3F
$GPRMC,173916.000,A,5044.0441,N,00706.0981,E,2.13,235.11,070507,,*0C
$GPGGA,173917.000,5044.0436,N,00706.0981,E,1,05,2.6,89.1,M,47.7,M,,0000*66
$GPGSA,A,3,10,26,08,29,28,,,,,,,,4.5,2.6,3.7*3F
$GPGSV,3,1,12,29,83,295,25,26,70,300,19,28,57,091,29,08,35,066,31*7E
$GPGSV,3,2,12,10,30,192,21,27,12,073,,09,12,255,,18,12,323,21*71
$GPGSV,3,3,12,21,08,293,,19,06,021,16,17,04,131,,24,04,258,*7F
$GPRMC,173917.000,A,5044.0436,N,00706.0981,E,2.35,220.44,070507,,*0D
$GPGGA,173918.000,5044.0432,N,00706.0985,E,1,05,2.6,89.3,M,47.7,M,,0000*6B
$GPGSA,A,3,10,26,08,29,28,,,,,,,,4.5,2.6,3.7*3F
$GPRMC,173918.000,A,5044.0432,N,00706.0985,E,2.26,210.50,070507,,*06
$GPGGA,173919.000,5044.0425,N,00706.0989,E,1,05,2.6,88.9,M,47.7,M,,0000*6B
$GPGSA,A,3,10,26,08,29,28,,,,,,,,4.5,2.6,3.7*3F
$GPRMC,173919.000,A,5044.0425,N,00706.0989,E,2.22,207.00,070507,,*0A
$GPGGA,173920.000,5044.0419,N,00706.0998,E,1,05,2.6,89.6,M,47.7,M,,0000*60
$GPGSA,A,3,10,26,08,29,28,,,,,,,,4.5,2.6,3.7*3F
$GPRMC,173920.000,A,5044.0419,N,00706.0998,E,1.72,219.27,070507,,*03
$GPGGA,173921.000,5044.0414,N,00706.0998,E,1,05,2.6,88.9,M,47.7,M,,0000*62
$GPGSA,A,3,10,26,08,29,28,,,,,,,,4.5,2.6,3.7*3F
$GPRMC,173921.000,A,5044.0414,N,00706.0998,E,1.92,253.21,070507,,*09
$GPGGA,173922.000,5044.0414,N,00706.0998,E,1,05,2.6,88.2,M,47.7,M,,0000*6A
$GPGSA,A,3,10,26,08,29,28,,,,,,,,4.5,2.6,3.7*3F
$GPGSV,3,1,12,29,83,295,25,26,70,300,21,28,57,091,27,08,35,066,29*72
$GPGSV,3,2,12,10,30,192,19,27,12,073,,09,12,255,,18,12,323,18*70
$GPGSV,3,3,12,21,08,293,07,19,06,021,17,17,04,131,,24,04,258,*79
$GPRMC,173922.000,A,5044.0414,N,00706.0998,E,1.11,308.33,070507,,*0D
$GPGGA,173923.000,5044.0417,N,00706.1002,E,1,05,2.6,88.9,M,47.7,M,,0000*68
$GPGSA,A,3,10,26,08,29,28,,,,,,,,4.5,2.6,3.7*3F
$GPRMC,173923.000,A,5044.0417,N,00706.1002,E,1.64,356.97,070507,,*03
$GPGGA,173924.000,5044.0423,N,00706.1008,E,1,05,2.6,90.3,M,47.7,M,,0000*61
$GPGSA,A,3,10,26,08,29,28,,,,,,,,4.5,2.6,3.7*3F
$GPRMC,173924.000,A,5044.0423,N,00706.1008,E,2.53,336.03,070507,,*05
$GPGGA,173925.000,5044.0432,N,00706.1009,E,1,05,2.6,91.4,M,47.7,M,,0000*67
$GPGSA,A,3,10,26,08,29,28,,,,,,,,4.5,2.6,3.7*3F
$GPRMC,173925.000,A,5044.0432,N,00706.1009,E,3.42,314.20,070507,,*05
$GPGGA,173926.000,5044.0441,N,00706.1012,E,1,05,2.6,93.3,M,47.7,M,,0000*6F
$GPGSA,A,3,10,26,08,29,28,,,,,,,,4.5,2.6,3.7*3F
$GPRMC,173926.000,A,5044.0441,N,00706.1012,E,3.63,331.83,070507,,*05
$GPGGA,173927.000,5044.0442,N,00706.1022,E,1,05,2.6,95.7,M,47.7,M,,0000*6C
$GPGSA,A,3,10,26,08,29,28,,,,,,,,4.5,2.6,3.7*3F
$GPGSV,3,1,12,29,83,295,25,26,70,300,21,28,57,091,31,08,35,066,26*7A
$GPGSV,3,2,12,10,30,192,14,27,12,073,,09,12,255,12,18,12,323,17*71
$GPGSV,3,3,12,21,08,293,,19,06,021,17,17,04,131,,24,04,258,*7E
$GPRMC,173927.000,A,5044.0442,N,00706.1022,E,1.58,359.69,070507,,*04
$GPGGA,173928.000,5044.0448,N,00706.1014,E,1,05,2.6,96.1,M,47.7,M,,0000*69
$GPGSA,A,3,10,26,08,29,28,,,,,,,,4.5,2.6,3.7*3F
$GPRMC,173928.000,A,5044.0448,N,00706.1014,E,1.40,342.80,070507,,*00
$GPGGA,173929.000,5044.0436,N,00706.1004,E,1,05,2.6,96.1,M,47.7,M,,0000*60
$GPGSA,A,3,10,26,08,29,28,,,,,,,,4.5,2.6,3.7*3F
$GPRMC,173929.000,A,5044.0436,N,00706.1004,E,1.32,324.41,070507,,*01
$GPGGA,173930.000,5044.0419,N,00706.0994,E,1,05,2.6,95.2,M,47.7,M,,0000*64
$GPGSA,A,3,10,26,08,29,28,,,,,,,,4.5,2.6,3.7*3F
$GPRMC,173930.000,A,5044.0419,N,00706.0994,E,1.22,5.48,070507,,*0D
$GPGGA,173931.000,5044.0411,N,00706.0982,E,1,05,2.6,93.5,M,47.7,M,,0000*6B
$GPGSA,A,3,10,26,08,29,28,,,,,,,,4.5,2.6,3.7*3F
$GPRMC,173931.000,A,5044.0411,N,00706.0982,E,1.76,315.54,070507,,*0D
$GPGGA,173932.000,5044.0404,N,00706.0972,E,1,05,2.6,93.0,M,47.7,M,,0000*66
$GPGSA,A,3,10,26,08,29,28,,,,,,,,4.5,2.6,3.7*3F
$GPGSV,3,1,12,29,83,295,25,26,70,300,28,28,57,091,21,08,35,066,25*71
$GPGSV,3,2,12,10,30,192,24,27,12,073,,09,12,255,,18,12,323,16*70
$GPGSV,3,3,12,21,08,293,,19,06,021,16,17,04,131,,24,04,258,*7F
$GPRMC,173932.000,A,5044.0404,N,00706.0972,E,1.27,300.88,070507,,*04
$GPGGA,173933.000,5044.0407,N,00706.0958,E,1,05,2.6,91.4,M,47.7,M,,0000*6A
$GPGSA,A,3,10,26,08,29,28,,,,,,,,4.5,2.6,3.7*3F
$GPRMC,173933.000,A,5044.0407,N,00706.0958,E,1.96,7.99,070507,,*00
$GPGGA,173934.000,5044.0415,N,00706.0949,E,1,05,2.6,90.1,M,47.7,M,,0000*6A
$GPGSA,A,3,10,26,08,29,28,,,,,,,,4.5,2.6,3.7*3F
$GPRMC,173934.000,A,5044.0415,N,00706.0949,E,2.07,17.64,070507,,*3C
$GPGGA,173935.000,5044.0417,N,00706.0934,E,1,05,2.6,87.7,M,47.7,M,,0000*63
$GPGSA,A,3,10,26,08,29,28,,,,,,,,4.5,2.6,3.7*3F
$GPRMC,173935.000,A,5044.0417,N,00706.0934,E,0.93,242.45,070507,,*0B
$GPGGA,173936.000,5044.0417,N,00706.0925,E,1,05,2.6,86.4,M,47.7,M,,0000*62
$GPGSA,A,3,10,26,08,29,28,,,,,,,,4.5,2.6,3.7*3F
$GPRMC,173936.000,A,5044.0417,N,00706.0925,E,0.35,268.31,070507,,*0F
$GPGGA,173937.000,5044.0427,N,00706.0914,E,1,05,2.6,86.1,M,47.7,M,,0000*67
$GPGSA,A,3,10,26,08,29,28,,,,,,,,4.5,2.6,3.7*3F
$GPGSV,3,1,12,29,83,295,26,26,70,300,29,28,57,091,20,08,35,066,22*75
$GPGSV,3,2,12,10,30,192,20,27,12,073,,09,12,255,,18,12,323,20*71
$GPGSV,3,3,12,21,08,293,,19,06,021,16,17,04,131,,24,04,258,*7F
$GPRMC,173937.000,A,5044.0427,N,00706.0914,E,0.54,273.00,070507,,*00
$GPGGA,173938.000,5044.0433,N,00706.0900,E,1,05,2.6,86.2,M,47.7,M,,0000*6B
$GPGSA,A,3,10,26,08,29,28,,,,,,,,4.5,2.6,3.7*3F
$GPRMC,173938.000,A,5044.0433,N,00706.0900,E,0.76,249.19,070507,,*0E
$GPGGA,173939.000,5044.0449,N,00706.0891,E,1,05,2.6,85.0,M,47.7,M,,0000*6F
$GPGSA,A,3,10,26,08,29,28,,,,,,,,4.5,2.6,3.7*3F
$GPRMC,173939.000,A,5044.0449,N,00706.0891,E,2.39,329.52,070507,,*0A
$GPGGA,173940.000,5044.0457,N,00706.0887,E,1,05,2.6,84.4,M,47.7,M,,0000*6C
$GPGSA,A,3,10,26,08,29,28,,,,,,,,4.5,2.6,3.7*3F
$GPRMC,173940.000,A,5044.0457,N,00706.0887,E,0.85,266.11,070507,,*04
$GPGGA,173941.000,5044.0467,N,00706.0885,E,1,06,2.3,82.3,M,47.7,M,,0000*6B
$GPGSA,A,3,10,26,08,29,27,28,,,,,,,3.3,2.3,2.4*3C
$GPRMC,173941.000,A,5044.0467,N,00706.0885,E,0.86,251.24,070507,,*05
$GPGGA,173942.000,5044.0470,N,00706.0881,E,1,06,5.3,79.3,M,47.7,M,,0000*69
$GPGSA,A,3,26,08,29,27,28,21,,,,,,,5.8,5.3,2.2*32
$GPGSV,3,1,12,29,83,295,12,26,70,300,22,28,57,091,20,08,35,066,18*70
$GPGSV,3,2,12,10,30,192,17,27,12,073,14,09,12,255,08,18,12,323,26*7E
$GPGSV,3,3,12,21,08,293,17,19,06,021,16,17,04,131,,24,04,258,*79
$GPRMC,173942.000,A,5044.0470,N,00706.0881,E,1.21,301.09,070507,,*03
$GPGGA,173943.000,5044.0470,N,00706.0884,E,1,05,5.5,77.2,M,47.7,M,,0000*67
$GPGSA,A,3,26,08,27,28,21,,,,,,,,5.9,5.5,2.3*3F
$GPRMC,173943.000,A,5044.0470,N,00706.0884,E,1.17,266.19,070507,,*03
$GPGGA,173944.000,5044.0473,N,00706.0881,E,1,03,7.9,75.5,M,47.7,M,,0000*6B
$GPGSA,A,2,26,27,21,,,,,,,,,,8.0,7.9,1.0*36
$GPRMC,173944.000,A,5044.0473,N,00706.0881,E,1.39,290.08,070507,,*07
$GPGGA,173945.000,5044.0474,N,00706.0875,E,1,00,50.0,74.8,M,47.7,M,,0000*52
$GPGSA,A,2,,,,,,,,,,,,,50.0,50.0,50.0*06
$GPRMC,173945.000,A,5044.0474,N,00706.0875,E,1.39,290.08,070507,,*0A
$GPGGA,173946.000,5044.0451,N,00706.0867,E,1,03,3.4,74.3,M,47.7,M,,0000*6F
$GPGSA,A,2,10,26,21,,,,,,,,,,3.6,3.4,1.0*36
$GPRMC,173946.000,A,5044.0451,N,00706.0867,E,3.00,224.47,070507,,*01
$GPGGA,173947.000,5044.0445,N,00706.0858,E,1,00,50.0,73.5,M,47.7,M,,0000*57
$GPGSA,A,2,,,,,,,,,,,,,50.0,50.0,50.0*06
$GPGSV,3,1,12,29,83,295,,26,70,300,13,28,57,091,30,08,35,066,*79
$GPGSV,3,2,12,10,30,192,19,27,12,073,,09,12,255,,18,12,323,19*71
$GPGSV,3,3,12,21,08,293,13,19,06,021,13,17,04,131,,24,04,258,*78
$GPRMC,173947.000,A,5044.0445,N,00706.0858,E,3.00,224.47,070507,,*09
$GPGGA,173948.000,5044.0439,N,00706.0849,E,1,00,50.0,72.7,M,47.7,M,,0000*50
$GPGSA,A,2,,,,,,,,,,,,,50.0,50.0,50.0*06
$GPRMC,173948.000,A,5044.0439,N,00706.0849,E,3.00,224.47,070507,,*0D
$GPGGA,173949.000,5044.0484,N,00706.0925,E,1,04,3.8,71.6,M,47.7,M,,0000*64
$GPGSA,A,3,10,28,08,29,,,,,,,,,5.5,3.8,4.0*35
$GPRMC,173949.000,A,5044.0484,N,00706.0925,E,3.49,104.06,070507,,*08
$GPGGA,173950.000,5044.0495,N,00706.0957,E,1,04,3.8,70.3,M,47.7,M,,0000*6D
$GPGSA,A,3,10,28,08,29,,,,,,,,,5.5,3.8,4.0*35
$GPRMC,173950.000,A,5044.0495,N,00706.0957,E,1.79,106.56,070507,,*03
$GPGGA,173951.000,5044.0474,N,00706.0983,E,1,05,2.6,68.0,M,47.7,M,,0000*6E
$GPGSA,A,3,10,28,08,29,26,,,,,,,,4.5,2.6,3.7*3F
$GPRMC,173951.000,A,5044.0474,N,00706.0983,E,0.79,48.56,070507,,*3E
$GPGGA,173952.000,5044.0471,N,00706.1040,E,1,05,2.6,65.5,M,47.7,M,,0000*67
$GPGSA,A,3,10,28,08,29,26,,,,,,,,4.5,2.6,3.7*3F
$GPGSV,3,1,12,29,83,295,23,26,70,300,29,28,57,091,30,08,35,066,22*71
$GPGSV,3,2,12,10,30,192,24,27,12,073,,09,12,255,,18,12,323,10*76
$GPGSV,3,3,12,21,08,293,,19,06,021,18,17,04,131,,24,04,258,*71
$GPRMC,173952.000,A,5044.0471,N,00706.1040,E,2.09,107.72,070507,,*06
$GPGGA,173953.000,5044.0465,N,00706.1084,E,1,05,2.6,63.9,M,47.7,M,,0000*61
$GPGSA,A,3,10,28,08,29,26,,,,,,,,4.5,2.6,3.7*3F
