$GPGGA,172353.000,5044.0522,N,00705.9622,E,1,06,1.4,89.5,M,47.7,M,,0000*63
$GPGSA,A,3,21,08,10,29,28,26,,,,,,,2.2,1.4,1.8*31
$GPRMC,172353.000,A,5044.0522,N,00705.9622,E,0.84,309.12,070507,,*0F
$GPGGA,172354.000,5044.0525,N,00705.9620,E,1,06,1.4,87.5,M,47.7,M,,0000*6F
$GPGSA,A,3,21,08,10,29,28,26,,,,,,,2.2,1.4,1.8*31
$GPRMC,172354.000,A,5044.0525,N,00705.9620,E,0.89,308.75,070507,,*00
$GPGGA,172355.000,5044.0529,N,00705.9617,E,1,06,1.4,85.4,M,47.7,M,,0000*65
$GPGSA,A,3,21,08,10,29,28,26,,,,,,,2.2,1.4,1.8*31
$GPRMC,172355.000,A,5044.0529,N,00705.9617,E,0.79,308.37,070507,,*00
$GPGGA,172356.000,5044.0532,N,00705.9613,E,1,06,1.4,83.6,M,47.7,M,,0000*6C
$GPGSA,A,3,21,08,10,29,28,26,,,,,,,2.2,1.4,1.8*31
$GPRMC,172356.000,A,5044.0532,N,00705.9613,E,0.81,309.64,070507,,*0D
$GPGGA,172357.000,5044.0536,N,00705.9610,E,1,06,1.4,82.2,M,47.7,M,,0000*6F
$GPGSA,A,3,21,08,10,29,28,26,,,,,,,2.2,1.4,1.8*31
$GPGSV,3,1,11,29,77,301,30,26,63,300,20,28,57,103,36,08,41,064,40*75
$GPGSV,3,2,11,10,37,194,36,27,17,070,,21,10,299,14,24,08,263,07*7B
$GPGSV,3,3,11,19,07,026,24,09,07,251,,18,07,325,*46
$GPRMC,172357.000,A,5044.0536,N,00705.9610,E,0.87,307.51,070507,,*05
$GPGGA,172358.000,5044.0539,N,00705.9606,E,1,06,1.3,80.9,M,47.7,M,,0000*66
$GPGSA,A,3,21,08,10,29,28,26,,,,,,,2.2,1.3,1.8*36
$GPRMC,172358.000,A,5044.0539,N,00705.9606,E,0.62,308.73,070507,,*06
$GPGGA,172359.000,5044.0542,N,00705.9604,E,1,06,1.3,79.8,M,47.7,M,,0000*6E
$GPGSA,A,3,21,08,10,29,28,26,,,,,,,2.2,1.3,1.8*36
$GPRMC,172359.000,A,5044.0542,N,00705.9604,E,0.61,305.18,070507,,*0A
$GPGGA,172400.000,5044.0544,N,00705.9601,E,1,06,1.3,78.7,M,47.7,M,,0000*68
$GPGSA,A,3,21,08,10,29,28,26,,,,,,,2.2,1.3,1.8*36
$GPRMC,172400.000,A,5044.0544,N,00705.9601,E,0.21,304.09,070507,,*07
$GPGGA,172401.000,5044.0547,N,00705.9599,E,1,06,1.3,78.0,M,47.7,M,,0000*6F
$GPGSA,A,3,21,08,10,29,28,26,,,,,,,2.2,1.3,1.8*36
$GPRMC,172401.000,A,5044.0547,N,00705.9599,E,0.23,302.68,070507,,*04
$GPGGA,172402.000,5044.0549,N,00705.9597,E,1,06,1.3,77.3,M,47.7,M,,0000*60
$GPGSA,A,3,21,08,10,29,28,26,,,,,,,2.2,1.3,1.8*36
$GPGSV,3,1,11,29,77,301,30,26,63,300,25,28,57,103,36,08,41,064,41*71
$GPGSV,3,2,11,10,37,194,36,27,17,070,,21,10,299,12,24,08,263,*7A
$GPGSV,3,3,11,19,07,026,25,09,07,251,,18,07,325,*47
$GPRMC,172402.000,A,5044.0549,N,00705.9597,E,0.10,296.22,070507,,*05
$GPGGA,172403.000,5044.0551,N,00705.9594,E,1,06,1.3,76.5,M,47.7,M,,0000*6C
$GPGSA,A,3,21,08,10,29,28,26,,,,,,,2.2,1.3,1.8*36
$GPRMC,172403.000,A,5044.0551,N,00705.9594,E,0.03,327.39,070507,,*0D
$GPGGA,172404.000,5044.0554,N,00705.9593,E,1,05,1.4,75.4,M,47.7,M,,0000*6F
$GPGSA,A,3,21,08,10,28,26,,,,,,,,2.7,1.4,2.3*37
$GPRMC,172404.000,A,5044.0554,N,00705.9593,E,0.28,122.95,070507,,*00
$GPGGA,172405.000,5044.0556,N,00705.9591,E,1,06,1.3,75.0,M,47.7,M,,0000*6E
$GPGSA,A,3,21,08,10,29,28,26,,,,,,,2.2,1.3,1.8*36
$GPRMC,172405.000,A,5044.0556,N,00705.9591,E,0.16,311.39,070507,,*08
$GPGGA,172406.000,5044.0558,N,00705.9587,E,1,06,1.3,74.6,M,47.7,M,,0000*63
$GPGSA,A,3,21,08,10,29,28,26,,,,,,,2.2,1.3,1.8*36
$GPRMC,172406.000,A,5044.0558,N,00705.9587,E,0.70,259.83,070507,,*0E
$GPGGA,172407.000,5044.0556,N,00705.9581,E,1,06,1.3,73.9,M,47.7,M,,0000*62
$GPGSA,A,3,21,08,10,29,28,26,,,,,,,2.2,1.3,1.8*36
$GPGSV,3,1,11,29,77,301,28,26,63,300,28,28,57,103,24,08,41,064,32*72
$GPGSV,3,2,11,10,37,194,36,27,17,070,14,21,10,299,13,24,08,263,*7E
$GPGSV,3,3,11,19,07,026,18,09,07,251,07,18,07,325,*4E
$GPRMC,172407.000,A,5044.0556,N,00705.9581,E,1.96,208.28,070507,,*0B
$GPGGA,172408.000,5044.0549,N,00705.9575,E,1,06,1.3,73.3,M,47.7,M,,0000*62
$GPGSA,A,3,21,08,10,29,28,26,,,,,,,2.2,1.3,1.8*36
$GPRMC,172408.000,A,5044.0549,N,00705.9575,E,3.51,192.70,070507,,*05
$GPGGA,172409.000,5044.0541,N,00705.9573,E,1,06,1.3,72.9,M,47.7,M,,0000*66
$GPGSA,A,3,21,08,10,29,28,26,,,,,,,2.2,1.3,1.8*36
$GPRMC,172409.000,A,5044.0541,N,00705.9573,E,3.06,173.29,070507,,*0B
$GPGGA,172410.000,5044.0533,N,00705.9574,E,1,07,1.3,73.6,M,47.7,M,,0000*63
$GPGSA,A,3,21,08,10,29,28,26,24,,,,,,2.1,1.3,1.6*3D
$GPRMC,172410.000,A,5044.0533,N,00705.9574,E,2.95,174.93,070507,,*0C
$GPGGA,172411.000,5044.0527,N,00705.9574,E,1,06,1.5,73.1,M,47.7,M,,0000*67
$GPGSA,A,3,08,10,29,28,26,24,,,,,,,2.3,1.5,1.8*34
$GPRMC,172411.000,A,5044.0527,N,00705.9574,E,3.09,176.55,070507,,*04
$GPGGA,172412.000,5044.0520,N,00705.9572,E,1,06,1.5,72.9,M,47.7,M,,0000*6C
$GPGSA,A,3,08,10,29,28,26,24,,,,,,,2.3,1.5,1.8*34
$GPGSV,3,1,11,29,77,301,28,26,63,300,31,28,57,103,28,08,41,064,34*70
$GPGSV,3,2,11,10,37,194,26,27,17,070,15,21,10,299,15,24,08,263,20*7A
$GPGSV,3,3,11,19,07,026,18,09,07,251,,18,07,325,07*4E
$GPRMC,172412.000,A,5044.0520,N,00705.9572,E,3.77,189.59,070507,,*03
$GPGGA,172413.000,5044.0522,N,00705.9573,E,1,06,1.5,72.8,M,47.7,M,,0000*6F
$GPGSA,A,3,08,10,29,28,26,24,,,,,,,2.3,1.5,1.8*34
$GPRMC,172413.000,A,5044.0522,N,00705.9573,E,1.42,154.81,070507,,*00
$GPGGA,172414.000,5044.0515,N,00705.9576,E,1,06,1.3,72.9,M,47.7,M,,0000*6E
$GPGSA,A,3,21,08,10,29,28,26,,,,,,,2.2,1.3,1.8*36
$GPRMC,172414.000,A,5044.0515,N,00705.9576,E,2.51,189.26,070507,,*0A
$GPGGA,172415.000,5044.0513,N,00705.9579,E,1,05,2.0,71.8,M,47.7,M,,0000*67
$GPGSA,A,3,08,10,29,28,26,,,,,,,,4.9,2.0,4.5*30
$GPRMC,172415.000,A,5044.0513,N,00705.9579,E,0.93,145.22,070507,,*0A
$GPGGA,172416.000,5044.0514,N,00705.9585,E,1,07,1.3,72.0,M,47.7,M,,0000*69
$GPGSA,A,3,21,08,10,29,28,26,24,,,,,,2.1,1.3,1.6*3D
$GPRMC,172416.000,A,5044.0514,N,00705.9585,E,1.90,137.61,070507,,*0D
$GPGGA,172417.000,5044.0516,N,00705.9592,E,1,07,1.3,72.0,M,47.7,M,,0000*6C
$GPGSA,A,3,21,08,10,29,28,26,24,,,,,,2.1,1.3,1.6*3D
$GPGSV,3,1,11,29,77,301,28,26,63,300,31,28,57,103,28,08,41,064,34*70
$GPGSV,3,2,11,10,37,194,21,27,17,070,16,21,10,299,22,24,08,263,19*70
$GPGSV,3,3,11,19,07,026,17,09,07,251,19,18,07,325,07*49
$GPRMC,172417.000,A,5044.0516,N,00705.9592,E,1.29,106.64,070507,,*0D
$GPGGA,172418.000,5044.0519,N,00705.9596,E,1,08,1.1,73.2,M,47.7,M,,0000*66
$GPGSA,A,3,21,08,10,29,28,26,27,24,,,,,1.7,1.1,1.2*3B
$GPRMC,172418.000,A,5044.0519,N,00705.9596,E,0.96,44.47,070507,,*3A
$GPGGA,172419.000,5044.0523,N,00705.9598,E,1,07,1.2,73.3,M,47.7,M,,0000*6D
$GPGSA,A,3,21,08,10,29,28,26,27,,,,,,1.9,1.2,1.4*36
$GPRMC,172419.000,A,5044.0523,N,00705.9598,E,1.05,351.96,070507,,*0C
$GPGGA,172420.000,5044.0527,N,00705.9602,E,1,08,1.1,73.3,M,47.7,M,,0000*6F
$GPGSA,A,3,21,08,10,29,28,26,27,24,,,,,1.7,1.1,1.2*3B
$GPRMC,172420.000,A,5044.0527,N,00705.9602,E,0.32,331.15,070507,,*0A
$GPGGA,172421.000,5044.0534,N,00705.9605,E,1,08,1.1,72.8,M,47.7,M,,0000*61
$GPGSA,A,3,21,08,10,29,28,26,27,24,,,,,1.7,1.1,1.2*3B
$GPRMC,172421.000,A,5044.0534,N,00705.9605,E,0.58,262.30,070507,,*02
$GPGGA,172422.000,5044.0537,N,00705.9611,E,1,08,1.1,72.1,M,47.7,M,,0000*6D
$GPGSA,A,3,21,08,10,29,28,26,27,24,,,,,1.7,1.1,1.2*3B
$GPGSV,3,1,11,29,77,301,23,26,63,300,26,28,57,103,23,08,41,064,38*7A
$GPGSV,3,2,11,10,37,194,21,27,17,070,22,21,10,299,22,24,08,263,20*7D
$GPGSV,3,3,11,19,07,026,16,09,07,251,18,18,07,325,*4E
$GPRMC,172422.000,A,5044.0537,N,00705.9611,E,0.81,180.10,070507,,*0E
$GPGGA,172423.000,5044.0540,N,00705.9615,E,1,08,1.1,72.5,M,47.7,M,,0000*6C
$GPGSA,A,3,21,08,10,29,28,26,27,24,,,,,1.7,1.1,1.2*3B
$GPRMC,172423.000,A,5044.0540,N,00705.9615,E,0.78,196.74,070507,,*08
$GPGGA,172424.000,5044.0545,N,00705.9622,E,1,08,1.1,73.1,M,47.7,M,,0000*6F
$GPGSA,A,3,21,08,10,29,28,26,27,24,,,,,1.7,1.1,1.2*3B
$GPRMC,172424.000,A,5044.0545,N,00705.9622,E,0.79,355.52,070507,,*06
$GPGGA,172425.000,5044.0552,N,00705.9626,E,1,08,1.1,73.8,M,47.7,M,,0000*65
$GPGSA,A,3,21,08,10,29,28,26,27,24,,,,,1.7,1.1,1.2*3B
$GPRMC,172425.000,A,5044.0552,N,00705.9626,E,0.78,346.26,070507,,*05
$GPGGA,172426.000,5044.0555,N,00705.9634,E,1,08,1.1,74.5,M,47.7,M,,0000*68
$GPGSA,A,3,21,08,10,29,28,26,27,24,,,,,1.7,1.1,1.2*3B
$GPRMC,172426.000,A,5044.0555,N,00705.9634,E,0.97,112.28,070507,,*0E
$GPGGA,172427.000,5044.0549,N,00705.9642,E,1,08,1.1,74.9,M,47.7,M,,0000*69
$GPGSA,A,3,21,08,10,29,28,26,27,24,,,,,1.7,1.1,1.2*3B
$GPGSV,3,1,11,29,77,301,24,26,63,300,30,28,57,103,31,08,41,064,36*77
$GPGSV,3,2,11,10,37,194,22,27,17,070,23,21,10,299,22,24,08,263,20*7F
$GPGSV,3,3,11,19,07,026,16,09,07,251,19,18,07,325,*4F
$GPRMC,172427.000,A,5044.0549,N,00705.9642,E,1.90,140.65,070507,,*0B
$GPGGA,172428.000,5044.0540,N,00705.9646,E,1,08,1.1,75.4,M,47.7,M,,0000*67
$GPGSA,A,3,21,08,10,29,28,26,27,24,,,,,1.7,1.1,1.2*3B
$GPRMC,172428.000,A,5044.0540,N,00705.9646,E,1.09,203.95,070507,,*02
$GPGGA,172429.000,5044.0530,N,00705.9647,E,1,08,1.1,76.3,M,47.7,M,,0000*64
$GPGSA,A,3,21,08,10,29,28,26,27,24,,,,,1.7,1.1,1.2*3B
$GPRMC,172429.000,A,5044.0530,N,00705.9647,E,2.27,173.82,070507,,*08
$GPGGA,172430.000,5044.0516,N,00705.9648,E,1,08,1.1,76.8,M,47.7,M,,0000*6C
$GPGSA,A,3,21,08,10,29,28,26,27,24,,,,,1.7,1.1,1.2*3B
$GPRMC,172430.000,A,5044.0516,N,00705.9648,E,3.41,186.73,070507,,*0E
$GPGGA,172431.000,5044.0498,N,00705.9657,E,1,08,1.1,76.6,M,47.7,M,,0000*6A
$GPGSA,A,3,21,08,10,29,28,26,27,24,,,,,1.7,1.1,1.2*3B
$GPRMC,172431.000,A,5044.0498,N,00705.9657,E,4.19,159.44,070507,,*0A
$GPGGA,172432.000,5044.0481,N,00705.9666,E,1,08,1.1,77.0,M,47.7,M,,0000*64
$GPGSA,A,3,21,08,10,29,28,26,27,24,,,,,1.7,1.1,1.2*3B
$GPGSV,3,1,11,29,77,301,23,26,63,300,21,28,57,103,31,08,41,064,37*71
$GPGSV,3,2,11,10,37,194,22,27,17,070,30,21,10,299,22,24,08,263,20*7D
$GPGSV,3,3,11,19,07,026,15,09,07,251,19,18,07,325,14*49
$GPRMC,172432.000,A,5044.0481,N,00705.9666,E,2.65,186.32,070507,,*0D
$GPGGA,172433.000,5044.0463,N,00705.9669,E,1,08,1.1,77.2,M,47.7,M,,0000*64
$GPGSA,A,3,21,08,10,29,28,26,27,24,,,,,1.7,1.1,1.2*3B
$GPRMC,172433.000,A,5044.0463,N,00705.9669,E,3.22,200.95,070507,,*0D
$GPGGA,172434.000,5044.0450,N,00705.9673,E,1,08,1.1,77.6,M,47.7,M,,0000*6C
$GPGSA,A,3,21,08,10,29,28,26,27,24,,,,,1.7,1.1,1.2*3B
$GPRMC,172434.000,A,5044.0450,N,00705.9673,E,1.92,174.46,070507,,*06
$GPGGA,172435.000,5044.0438,N,00705.9680,E,1,08,1.1,78.4,M,47.7,M,,0000*62
$GPGSA,A,3,21,08,10,29,28,26,27,24,,,,,1.7,1.1,1.2*3B
$GPRMC,172435.000,A,5044.0438,N,00705.9680,E,1.29,177.37,070507,,*00
$GPGGA,172436.000,5044.0426,N,00705.9691,E,1,08,1.1,80.2,M,47.7,M,,0000*6F
$GPGSA,A,3,21,08,10,29,28,26,27,24,,,,,1.7,1.1,1.2*3B
$GPRMC,172436.000,A,5044.0426,N,00705.9691,E,0.86,202.21,070507,,*0E
$GPGGA,172437.000,5044.0418,N,00705.9704,E,1,08,1.1,82.6,M,47.7,M,,0000*68
$GPGSA,A,3,21,08,10,29,28,26,27,24,,,,,1.7,1.1,1.2*3B
$GPGSV,3,1,11,29,77,301,20,26,63,300,21,28,57,103,31,08,41,064,38*7D
$GPGSV,3,2,11,10,37,194,21,27,17,070,39,21,10,299,22,24,08,263,23*74
$GPGSV,3,3,11,19,07,026,14,09,07,251,20,18,07,325,20*45
$GPRMC,172437.000,A,5044.0418,N,00705.9704,E,1.84,159.95,070507,,*0E
$GPGGA,172438.000,5044.0402,N,00705.9717,E,1,08,1.1,85.0,M,47.7,M,,0000*6F
$GPGSA,A,3,21,08,10,29,28,26,27,24,,,,,1.7,1.1,1.2*3B
$GPRMC,172438.000,A,5044.0402,N,00705.9717,E,2.63,181.65,070507,,*08
$GPGGA,172438.900,5044.0387,N,00705.9725,E,1,08,1.1,86.5,M,47.7,M,,0000*6B
$GPGSA,A,3,21,08,10,29,28,26,27,24,,,,,1.7,1.1,1.2*3B
$GPRMC,172438.900,A,5044.0387,N,00705.9725,E,2.38,184.03,070507,,*01
$GPGGA,172440.000,5044.0370,N,00705.9731,E,1,08,1.1,88.4,M,47.7,M,,0000*6F
$GPGSA,A,3,21,08,10,29,28,26,27,24,,,,,1.7,1.1,1.2*3B
$GPRMC,172440.000,A,5044.0370,N,00705.9731,E,3.73,174.93,070507,,*02
$GPGGA,172441.000,5044.0352,N,00705.9735,E,1,07,1.2,90.6,M,47.7,M,,0000*6D
$GPGSA,A,3,21,08,10,29,28,26,27,,,,,,1.9,1.2,1.4*36
$GPRMC,172441.000,A,5044.0352,N,00705.9735,E,4.12,180.39,070507,,*0C
$GPGGA,172442.000,5044.0336,N,00705.9737,E,1,07,1.3,91.8,M,47.7,M,,0000*60
$GPGSA,A,3,08,10,29,28,26,27,24,,,,,,1.9,1.3,1.3*35
$GPGSV,3,1,11,29,77,301,27,26,63,300,21,28,57,103,32,08,41,064,38*79
$GPGSV,3,2,11,10,37,194,26,27,17,070,39,21,10,299,19,24,08,263,19*72
$GPGSV,3,3,11,19,07,026,13,09,07,251,19,18,07,325,20*48
$GPRMC,172442.000,A,5044.0336,N,00705.9737,E,3.38,187.87,070507,,*02
$GPGGA,172443.000,5044.0320,N,00705.9738,E,1,08,1.1,93.7,M,47.7,M,,0000*69
$GPGSA,A,3,21,08,10,29,28,26,27,24,,,,,1.7,1.1,1.2*3B
$GPRMC,172443.000,A,5044.0320,N,00705.9738,E,3.72,192.02,070507,,*0C
$GPGGA,172444.000,5044.0308,N,00705.9737,E,1,08,1.1,96.1,M,47.7,M,,0000*68
$GPGSA,A,3,21,08,10,29,28,26,27,24,,,,,1.7,1.1,1.2*3B
$GPRMC,172444.000,A,5044.0308,N,00705.9737,E,2.78,184.93,070507,,*0A
$GPGGA,172445.000,5044.0298,N,00705.9731,E,1,07,1.3,97.6,M,47.7,M,,0000*6C
$GPGSA,A,3,08,10,29,28,26,27,24,,,,,,1.9,1.3,1.3*35
$GPRMC,172445.000,A,5044.0298,N,00705.9731,E,3.37,184.18,070507,,*0C
$GPGGA,172446.000,5044.0291,N,00705.9723,E,1,07,1.3,99.4,M,47.7,M,,0000*69
$GPGSA,A,3,08,10,29,28,26,27,24,,,,,,1.9,1.3,1.3*35
$GPRMC,172446.000,A,5044.0291,N,00705.9723,E,3.51,172.28,070507,,*0F
$GPGGA,172447.000,5044.0285,N,00705.9715,E,1,07,1.3,101.5,M,47.7,M,,0000*59
$GPGSA,A,3,08,10,29,28,26,27,24,,,,,,1.9,1.3,1.3*35
$GPGSV,3,1,11,29,77,301,26,26,63,300,31,28,57,103,18,08,41,064,35*7C
$GPGSV,3,2,11,10,37,194,27,27,17,070,24,21,10,299,15,24,08,263,20*79
$GPGSV,3,3,11,19,07,026,12,09,07,251,18,18,07,325,17*4C
$GPRMC,172447.000,A,5044.0285,N,00705.9715,E,3.51,172.46,070507,,*06
$GPGGA,172448.000,5044.0272,N,00705.9713,E,1,08,1.1,104.2,M,47.7,M,,0000*57
$GPGSA,A,3,21,08,10,29,28,26,27,24,,,,,1.7,1.1,1.2*3B
$GPRMC,172448.000,A,5044.0272,N,00705.9713,E,4.51,186.20,070507,,*0B
$GPGGA,172449.000,5044.0260,N,00705.9705,E,1,08,1.1,106.8,M,47.7,M,,0000*5A
$GPGSA,A,3,21,08,10,29,28,26,27,24,,,,,1.7,1.1,1.2*3B
$GPRMC,172449.000,A,5044.0260,N,00705.9705,E,3.56,201.76,070507,,*01
$GPGGA,172450.000,5044.0234,N,00705.9699,E,1,05,1.5,107.8,M,47.7,M,,0000*5F
$GPGSA,A,3,10,29,26,27,24,,,,,,,,2.0,1.5,1.4*3C
$GPRMC,172450.000,A,5044.0234,N,00705.9699,E,5.09,188.46,070507,,*01
$GPGGA,172451.000,5044.0209,N,00705.9696,E,1,04,4.3,108.3,M,47.7,M,,0000*59
$GPGSA,A,3,10,29,26,27,,,,,,,,,7.9,4.3,6.6*30
$GPRMC,172451.000,A,5044.0209,N,00705.9696,E,5.09,184.99,070507,,*0F
$GPGGA,172452.000,5044.0184,N,00705.9689,E,1,04,4.3,108.9,M,47.7,M,,0000*58
$GPGSA,A,3,10,29,26,27,,,,,,,,,7.9,4.3,6.6*30
$GPGSV,3,1,11,29,77,301,26,26,63,300,31,28,57,103,18,08,41,064,17*7C
$GPGSV,3,2,11,10,37,194,27,27,17,070,20,21,10,299,14,24,08,263,18*77
$GPGSV,3,3,11,19,07,026,16,09,07,251,16,18,07,325,07*47
$GPRMC,172452.000,A,5044.0184,N,00705.9689,E,5.80,202.05,070507,,*0D
$GPGGA,172453.000,5044.0174,N,00705.9677,E,1,03,11.2,110.3,M,47.7,M,,0000*66
$GPGSA,A,2,29,26,27,,,,,,,,,,11.2,11.2,1.0*38
$GPRMC,172453.000,A,5044.0174,N,00705.9677,E,4.10,208.16,070507,,*02
$GPGGA,172454.000,5044.0160,N,00705.9664,E,1,05,1.9,110.8,M,47.7,M,,0000*51
$GPGSA,A,3,10,29,28,26,27,,,,,,,,3.2,1.9,2.6*3E
$GPRMC,172454.000,A,5044.0160,N,00705.9664,E,3.12,187.54,070507,,*05
$GPGGA,172455.000,5044.0143,N,00705.9654,E,1,05,1.9,110.8,M,47.7,M,,0000*52
$GPGSA,A,3,10,29,28,26,27,,,,,,,,3.2,1.9,2.6*3E
$GPRMC,172455.000,A,5044.0143,N,00705.9654,E,3.36,189.58,070507,,*02
$GPGGA,172456.000,5044.0128,N,00705.9643,E,1,05,1.9,111.0,M,47.7,M,,0000*53
$GPGSA,A,3,10,29,28,26,27,,,,,,,,3.2,1.9,2.6*3E
$GPRMC,172456.000,A,5044.0128,N,00705.9643,E,2.81,193.82,070507,,*0B
$GPGGA,172457.000,5044.0113,N,00705.9632,E,1,05,1.9,111.8,M,47.7,M,,0000*54
$GPGSA,A,3,10,29,28,26,27,,,,,,,,3.2,1.9,2.6*3E
$GPGSV,3,1,11,29,77,301,27,26,63,300,31,28,57,103,29,08,41,064,17*7F
$GPGSV,3,2,11,10,37,194,25,27,17,070,19,21,10,299,12,24,08,263,*70
$GPGSV,3,3,11,19,07,026,,09,07,251,14,18,07,325,*45
$GPRMC,172457.000,A,5044.0113,N,00705.9632,E,3.57,193.34,070507,,*03
$GPGGA,172458.000,5044.0098,N,00705.9630,E,1,04,4.3,112.9,M,47.7,M,,0000*57
$GPGSA,A,3,10,29,26,27,,,,,,,,,7.9,4.3,6.6*30
$GPRMC,172458.000,A,5044.0098,N,00705.9630,E,2.99,169.46,070507,,*0F
$GPGGA,172459.000,5044.0084,N,00705.9612,E,1,06,1.8,113.7,M,47.7,M,,0000*58
$GPGSA,A,3,08,10,29,28,26,27,,,,,,,3.2,1.8,2.6*37
$GPRMC,172459.000,A,5044.0084,N,00705.9612,E,2.67,208.76,070507,,*05
$GPGGA,172500.000,5044.0071,N,00705.9600,E,1,07,1.2,114.7,M,47.7,M,,0000*50
$GPGSA,A,3,21,08,10,29,28,26,27,,,,,,1.9,1.2,1.4*36
$GPRMC,172500.000,A,5044.0071,N,00705.9600,E,2.01,169.76,070507,,*05
$GPGGA,172501.000,5044.0057,N,00705.9590,E,1,07,1.2,115.5,M,47.7,M,,0000*5C
$GPGSA,A,3,21,08,10,29,28,26,27,,,,,,1.9,1.2,1.4*36
$GPRMC,172501.000,A,5044.0057,N,00705.9590,E,3.84,190.58,070507,,*0C
$GPGGA,172502.000,5044.0037,N,00705.9579,E,1,07,1.2,115.8,M,47.7,M,,0000*53
$GPGSA,A,3,21,08,10,29,28,26,27,,,,,,1.9,1.2,1.4*36
$GPGSV,3,1,11,29,77,301,27,26,63,300,27,28,57,103,24,08,41,064,25*74
$GPGSV,3,2,11,10,37,194,26,27,17,070,18,21,10,299,12,24,08,263,09*7B
$GPGSV,3,3,11,19,07,026,07,09,07,251,,18,07,325,10*46
$GPRMC,172502.000,A,5044.0037,N,00705.9579,E,4.03,197.01,070507,,*0D
$GPGGA,172503.000,5044.0017,N,00705.9570,E,1,06,1.3,115.7,M,47.7,M,,0000*56
$GPGSA,A,3,21,08,10,29,28,26,,,,,,,2.2,1.3,1.8*36
$GPRMC,172503.000,A,5044.0017,N,00705.9570,E,4.58,179.55,070507,,*08
$GPGGA,172504.000,5044.0001,N,00705.9564,E,1,05,2.0,115.2,M,47.7,M,,0000*55
$GPGSA,A,3,08,10,29,28,26,,,,,,,,4.9,2.0,4.4*31
$GPRMC,172504.000,A,5044.0001,N,00705.9564,E,4.30,174.42,070507,,*08
$GPGGA,172505.000,5043.9985,N,00705.9557,E,1,05,2.0,114.7,M,47.7,M,,0000*5B
$GPGSA,A,3,08,10,29,28,26,,,,,,,,4.9,2.0,4.4*31
$GPRMC,172505.000,A,5043.9985,N,00705.9557,E,4.16,173.05,070507,,*02
$GPGGA,172506.000,5043.9971,N,00705.9549,E,1,05,2.0,114.4,M,47.7,M,,0000*5F
$GPGSA,A,3,08,10,29,28,26,,,,,,,,4.9,2.0,4.4*31
$GPRMC,172506.000,A,5043.9971,N,00705.9549,E,4.46,177.62,070507,,*05
$GPGGA,172507.000,5043.9958,N,00705.9538,E,1,05,2.0,114.2,M,47.7,M,,0000*55
$GPGSA,A,3,08,10,29,28,26,,,,,,,,4.9,2.0,4.4*31
$GPGSV,3,1,11,29,77,301,29,26,63,300,28,28,57,103,26,08,41,064,27*75
$GPGSV,3,2,11,10,37,194,27,27,17,070,,21,10,299,,24,08,263,*79
$GPGSV,3,3,11,19,07,026,,09,07,251,,18,07,325,*40
$GPRMC,172507.000,A,5043.9958,N,00705.9538,E,3.51,197.26,070507,,*06
$GPGGA,172508.000,5043.9943,N,00705.9525,E,1,05,2.0,113.3,M,47.7,M,,0000*5A
$GPGSA,A,3,08,10,29,28,26,,,,,,,,4.9,2.0,4.4*31
$GPRMC,172508.000,A,5043.9943,N,00705.9525,E,4.21,188.67,070507,,*04
$GPGGA,172509.000,5043.9933,N,00705.9516,E,1,05,2.0,112.9,M,47.7,M,,0000*57
$GPGSA,A,3,08,10,29,28,26,,,,,,,,4.9,2.0,4.4*31
$GPRMC,172509.000,A,5043.9933,N,00705.9516,E,2.91,182.48,070507,,*08
$GPGGA,172510.000,5043.9925,N,00705.9499,E,1,05,2.0,112.1,M,47.7,M,,0000*56
$GPGSA,A,3,08,10,29,28,26,,,,,,,,4.9,2.0,4.4*31
$GPRMC,172510.000,A,5043.9925,N,00705.9499,E,2.54,217.61,070507,,*0C
$GPGGA,172511.000,5043.9915,N,00705.9482,E,1,05,2.0,111.2,M,47.7,M,,0000*5E
$GPGSA,A,3,08,10,29,28,26,,,,,,,,4.9,2.0,4.4*31
$GPRMC,172511.000,A,5043.9915,N,00705.9482,E,2.34,190.87,070507,,*06
$GPGGA,172512.000,5043.9902,N,00705.9472,E,1,05,2.0,109.6,M,47.7,M,,0000*59
$GPGSA,A,3,08,10,29,28,26,,,,,,,,4.9,2.0,4.4*31
$GPGSV,3,1,11,29,77,301,25,26,63,300,28,28,57,103,25,08,41,064,25*78
$GPGSV,3,2,11,10,37,194,26,27,17,070,,21,10,299,,24,08,263,*78
$GPGSV,3,3,11,19,07,026,,09,07,251,,18,07,325,*40
$GPRMC,172512.000,A,5043.9902,N,00705.9472,E,2.54,169.35,070507,,*05
$GPGGA,172513.000,5043.9889,N,00705.9465,E,1,05,2.0,108.6,M,47.7,M,,0000*5D
$GPGSA,A,3,08,10,29,28,26,,,,,,,,4.9,2.0,4.4*31
$GPRMC,172513.000,A,5043.9889,N,00705.9465,E,0.90,181.82,070507,,*00
$GPGGA,172514.000,5043.9879,N,00705.9452,E,1,05,2.0,107.6,M,47.7,M,,0000*5E
$GPGSA,A,3,08,10,29,28,26,,,,,,,,4.9,2.0,4.4*31
$GPRMC,172514.000,A,5043.9879,N,00705.9452,E,1.63,237.93,070507,,*0F
$GPGGA,172515.000,5043.9872,N,00705.9441,E,1,05,2.0,106.4,M,47.7,M,,0000*55
$GPGSA,A,3,08,10,29,28,26,,,,,,,,4.9,2.0,4.4*31
$GPRMC,172515.000,A,5043.9872,N,00705.9441,E,1.80,211.61,070507,,*03
$GPGGA,172516.000,5043.9863,N,00705.9428,E,1,05,2.0,104.9,M,47.7,M,,0000*56
$GPGSA,A,3,08,10,29,28,26,,,,,,,,4.9,2.0,4.4*31
$GPRMC,172516.000,A,5043.9863,N,00705.9428,E,3.35,199.35,070507,,*01
$GPGGA,172517.000,5043.9854,N,00705.9418,E,1,05,2.0,103.5,M,47.7,M,,0000*5B
$GPGSA,A,3,08,10,29,28,26,,,,,,,,4.9,2.0,4.4*31
$GPGSV,3,1,11,29,77,301,26,26,63,300,27,28,57,103,25,08,41,064,24*75
$GPGSV,3,2,11,10,37,194,26,27,17,070,,21,10,299,,24,08,263,*78
$GPGSV,3,3,11,19,07,026,,09,07,251,,18,07,325,14*45
$GPRMC,172517.000,A,5043.9854,N,00705.9418,E,2.54,192.53,070507,,*0A
$GPGGA,172518.000,5043.9843,N,00705.9404,E,1,05,2.1,102.0,M,47.7,M,,0000*5A
$GPGSA,A,3,08,10,29,28,26,,,,,,,,4.9,2.1,4.4*30
$GPRMC,172518.000,A,5043.9843,N,00705.9404,E,3.40,200.77,070507,,*04
$GPGGA,172519.000,5043.9835,N,00705.9399,E,1,05,2.1,101.5,M,47.7,M,,0000*5F
$GPGSA,A,3,08,10,29,28,26,,,,,,,,4.9,2.1,4.4*30
$GPRMC,172519.000,A,5043.9835,N,00705.9399,E,3.02,217.82,070507,,*0D
$GPGGA,172520.000,5043.9826,N,00705.9393,E,1,05,2.1,99.2,M,47.7,M,,0000*6A
$GPGSA,A,3,08,10,29,28,26,,,,,,,,4.9,2.1,4.4*30
$GPRMC,172520.000,A,5043.9826,N,00705.9393,E,2.53,200.41,070507,,*03
$GPGGA,172521.000,5043.9816,N,00705.9381,E,1,05,2.1,96.9,M,47.7,M,,0000*6F
$GPGSA,A,3,08,10,29,28,26,,,,,,,,4.9,2.1,4.4*30
$GPRMC,172521.000,A,5043.9816,N,00705.9381,E,2.67,204.11,070507,,*04
$GPGGA,172522.000,5043.9797,N,00705.9373,E,1,05,2.1,96.6,M,47.7,M,,0000*68
$GPGSA,A,3,08,10,29,28,26,,,,,,,,4.9,2.1,4.4*30
$GPGSV,3,1,11,29,77,301,26,26,63,300,26,28,57,103,24,08,41,064,25*74
$GPGSV,3,2,11,10,37,194,26,27,17,070,15,21,10,299,,24,08,263,*7C
$GPGSV,3,3,11,19,07,026,09,09,07,251,,18,07,325,13*4B
$GPRMC,172522.000,A,5043.9797,N,00705.9373,E,4.44,198.71,070507,,*0B
$GPGGA,172523.000,5043.9781,N,00705.9364,E,1,05,2.1,96.4,M,47.7,M,,0000*6A
$GPGSA,A,3,08,10,29,28,26,,,,,,,,4.9,2.1,4.4*30
$GPRMC,172523.000,A,5043.9781,N,00705.9364,E,4.54,189.11,070507,,*0C
$GPGGA,172524.000,5043.9763,N,00705.9361,E,1,05,2.1,98.0,M,47.7,M,,0000*6E
$GPGSA,A,3,08,10,29,28,26,,,,,,,,4.9,2.1,4.4*30
$GPRMC,172524.000,A,5043.9763,N,00705.9361,E,4.76,193.98,070507,,*08
$GPGGA,172525.000,5043.9752,N,00705.9356,E,1,06,1.8,96.0,M,47.7,M,,0000*6E
$GPGSA,A,3,27,08,10,29,28,26,,,,,,,3.2,1.8,2.6*37
$GPRMC,172525.000,A,5043.9752,N,00705.9356,E,4.03,193.06,070507,,*0A
$GPGGA,172526.000,5043.9745,N,00705.9357,E,1,06,1.8,93.4,M,47.7,M,,0000*6B
$GPGSA,A,3,27,08,10,29,28,26,,,,,,,3.2,1.8,2.6*37
$GPRMC,172526.000,A,5043.9745,N,00705.9357,E,4.06,172.54,070507,,*03
$GPGGA,172527.000,5043.9738,N,00705.9360,E,1,06,1.8,92.1,M,47.7,M,,0000*60
$GPGSA,A,3,27,08,10,29,28,26,,,,,,,3.2,1.8,2.6*37
$GPGSV,3,1,11,29,77,301,27,26,63,300,27,28,57,103,30,08,41,064,26*72
$GPGSV,3,2,11,10,37,194,20,27,17,070,15,21,10,299,,24,08,263,*7A
$GPGSV,3,3,11,19,07,026,,09,07,251,,18,07,325,*40
$GPRMC,172527.000,A,5043.9738,N,00705.9360,E,4.26,185.56,070507,,*04
$GPGGA,172528.000,5043.9738,N,00705.9353,E,1,06,1.8,92.5,M,47.7,M,,0000*6B
$GPGSA,A,3,27,08,10,29,28,26,,,,,,,3.2,1.8,2.6*37
$GPRMC,172528.000,A,5043.9738,N,00705.9353,E,2.41,217.57,070507,,*05
$GPGGA,172529.000,5043.9743,N,00705.9349,E,1,06,1.8,92.0,M,47.7,M,,0000*68
$GPGSA,A,3,27,08,10,29,28,26,,,,,,,3.2,1.8,2.6*37
$GPRMC,172529.000,A,5043.9743,N,00705.9349,E,1.47,226.41,070507,,*03
$GPGGA,172530.000,5043.9752,N,00705.9354,E,1,06,1.8,91.8,M,47.7,M,,0000*67
$GPGSA,A,3,27,08,10,29,28,26,,,,,,,3.2,1.8,2.6*37
$GPRMC,172530.000,A,5043.9752,N,00705.9354,E,0.64,170.45,070507,,*03
$GPGGA,172531.000,5043.9759,N,00705.9349,E,1,06,1.8,90.8,M,47.7,M,,0000*60
$GPGSA,A,3,27,08,10,29,28,26,,,,,,,3.2,1.8,2.6*37
$GPRMC,172531.000,A,5043.9759,N,00705.9349,E,1.79,290.01,070507,,*05
$GPGGA,172532.000,5043.9753,N,00705.9337,E,1,06,1.8,88.1,M,47.7,M,,0000*60
$GPGSA,A,3,27,08,10,29,28,26,,,,,,,3.2,1.8,2.6*37
$GPGSV,3,1,11,29,77,301,27,26,63,300,31,28,57,103,26,08,41,064,35*70
$GPGSV,3,2,11,10,37,194,22,27,17,070,33,21,10,299,,24,08,263,16*7B
$GPGSV,3,3,11,19,07,026,,09,07,251,,18,07,325,*40
$GPRMC,172532.000,A,5043.9753,N,00705.9337,E,2.74,206.09,070507,,*0C
$GPGGA,172533.000,5043.9750,N,00705.9318,E,1,06,1.8,83.0,M,47.7,M,,0000*65
$GPGSA,A,3,27,08,10,29,28,26,,,,,,,3.2,1.8,2.6*37
$GPRMC,172533.000,A,5043.9750,N,00705.9318,E,2.54,230.76,070507,,*0C
$GPGGA,172534.000,5043.9753,N,00705.9307,E,1,06,1.8,79.9,M,47.7,M,,0000*63
$GPGSA,A,3,27,08,10,29,28,26,,,,,,,3.2,1.8,2.6*37
$GPRMC,172534.000,A,5043.9753,N,00705.9307,E,0.76,313.08,070507,,*0D
$GPGGA,172535.000,5043.9762,N,00705.9301,E,1,06,1.8,75.6,M,47.7,M,,0000*65
$GPGSA,A,3,27,08,10,29,28,26,,,,,,,3.2,1.8,2.6*37
$GPRMC,172535.000,A,5043.9762,N,00705.9301,E,2.53,41.58,070507,,*3C
$GPGGA,172536.000,5043.9766,N,00705.9295,E,1,06,1.8,71.1,M,47.7,M,,0000*6D
$GPGSA,A,3,27,08,10,29,28,26,,,,,,,3.2,1.8,2.6*37
$GPRMC,172536.000,A,5043.9766,N,00705.9295,E,2.11,44.07,070507,,*3E
$GPGGA,172537.000,5043.9777,N,00705.9287,E,1,06,1.8,68.2,M,47.7,M,,0000*64
$GPGSA,A,3,27,08,10,29,28,26,,,,,,,3.2,1.8,2.6*37
$GPGSV,3,1,11,29,77,301,26,26,63,300,31,28,57,103,24,08,41,064,26*71
$GPGSV,3,2,11,10,37,194,25,27,17,070,25,21,10,299,,24,08,263,*7C
$GPGSV,3,3,11,19,07,026,,09,07,251,,18,07,325,*40
$GPRMC,172537.000,A,5043.9777,N,00705.9287,E,2.52,18.41,070507,,*30
$GPGGA,172538.000,5043.9787,N,00705.9287,E,1,06,1.8,65.3,M,47.7,M,,0000*68
$GPGSA,A,3,27,08,10,29,28,26,,,,,,,3.2,1.8,2.6*37
$GPRMC,172538.000,A,5043.9787,N,00705.9287,E,2.79,49.46,070507,,*3A
$GPGGA,172539.000,5043.9796,N,00705.9287,E,1,06,1.8,63.3,M,47.7,M,,0000*6F
$GPGSA,A,3,27,08,10,29,28,26,,,,,,,3.2,1.8,2.6*37
$GPRMC,172539.000,A,5043.9796,N,00705.9287,E,2.49,34.00,070507,,*30
$GPGGA,172540.000,5043.9806,N,00705.9289,E,1,06,1.8,62.0,M,47.7,M,,0000*6B
$GPGSA,A,3,27,08,10,29,28,26,,,,,,,3.2,1.8,2.6*37
$GPRMC,172540.000,A,5043.9806,N,00705.9289,E,3.08,31.76,070507,,*36
$GPGGA,172541.000,5043.9818,N,00705.9290,E,1,06,1.8,59.7,M,47.7,M,,0000*62
$GPGSA,A,3,27,08,10,29,28,26,,,,,,,3.2,1.8,2.6*37
$GPRMC,172541.000,A,5043.9818,N,00705.9290,E,3.43,36.57,070507,,*3B
$GPGGA,172542.000,5043.9825,N,00705.9300,E,1,06,1.8,58.1,M,47.7,M,,0000*60
$GPGSA,A,3,27,08,10,29,28,26,,,,,,,3.2,1.8,2.6*37
$GPGSV,3,1,11,29,77,301,26,26,63,300,32,28,57,103,24,08,41,064,26*72
$GPGSV,3,2,11,10,37,194,23,27,17,070,20,21,10,299,,24,08,263,*7F
$GPGSV,3,3,11,19,07,026,,09,07,251,,18,07,325,*40
$GPRMC,172542.000,A,5043.9825,N,00705.9300,E,3.37,46.30,070507,,*3B
$GPGGA,172543.000,5043.9834,N,00705.9320,E,1,06,1.8,57.3,M,47.7,M,,0000*6E
$GPGSA,A,3,27,08,10,29,28,26,,,,,,,3.2,1.8,2.6*37
$GPRMC,172543.000,A,5043.9834,N,00705.9320,E,4.16,71.00,070507,,*3B
$GPGGA,172544.000,5043.9841,N,00705.9341,E,1,06,1.8,57.9,M,47.7,M,,0000*66
$GPGSA,A,3,27,08,10,29,28,26,,,,,,,3.2,1.8,2.6*37
$GPRMC,172544.000,A,5043.9841,N,00705.9341,E,3.30,47.75,070507,,*3D
$GPGGA,172545.000,5043.9842,N,00705.9366,E,1,06,1.8,59.8,M,47.7,M,,0000*6E
$GPGSA,A,3,27,08,10,29,28,26,,,,,,,3.2,1.8,2.6*37
$GPRMC,172545.000,A,5043.9842,N,00705.9366,E,2.52,57.71,070507,,*3A
$GPGGA,172546.000,5043.9844,N,00705.9386,E,1,06,1.8,61.3,M,47.7,M,,0000*65
$GPGSA,A,3,27,08,10,29,28,26,,,,,,,3.2,1.8,2.6*37
$GPRMC,172546.000,A,5043.9844,N,00705.9386,E,2.52,54.79,070507,,*3A
$GPGGA,172547.000,5043.9840,N,00705.9404,E,1,06,1.8,62.3,M,47.7,M,,0000*6E
$GPGSA,A,3,27,08,10,29,28,26,,,,,,,3.2,1.8,2.6*37
$GPGSV,3,1,11,29,77,301,26,26,63,300,26,28,57,103,25,08,41,064,26*76
$GPGSV,3,2,11,10,37,194,22,27,17,070,25,21,10,299,,24,08,263,*7B
$GPGSV,3,3,11,19,07,026,,09,07,251,,18,07,325,*40
$GPRMC,172547.000,A,5043.9840,N,00705.9404,E,1.95,84.37,070507,,*3D
$GPGGA,172548.000,5043.9836,N,00705.9423,E,1,06,1.8,61.4,M,47.7,M,,0000*61
$GPGSA,A,3,27,08,10,29,28,26,,,,,,,3.1,1.8,2.6*34
$GPRMC,172548.000,A,5043.9836,N,00705.9423,E,3.35,79.84,070507,,*34
$GPGGA,172549.000,5043.9835,N,00705.9442,E,1,06,1.8,60.6,M,47.7,M,,0000*67
$GPGSA,A,3,27,08,10,29,28,26,,,,,,,3.1,1.8,2.6*34
$GPRMC,172549.000,A,5043.9835,N,00705.9442,E,3.51,76.10,070507,,*31
$GPGGA,172550.000,5043.9835,N,00705.9464,E,1,06,1.8,61.6,M,47.7,M,,0000*6A
$GPGSA,A,3,27,08,10,29,28,26,,,,,,,3.1,1.8,2.6*34
$GPRMC,172550.000,A,5043.9835,N,00705.9464,E,2.12,30.98,070507,,*39
$GPGGA,172551.000,5043.9839,N,00705.9480,E,1,06,1.8,61.0,M,47.7,M,,0000*6B
$GPGSA,A,3,27,08,10,29,28,26,,,,,,,3.1,1.8,2.6*34
$GPRMC,172551.000,A,5043.9839,N,00705.9480,E,3.47,66.60,070507,,*3B
$GPGGA,172552.000,5043.9844,N,00705.9501,E,1,06,1.8,61.5,M,47.7,M,,0000*6F
$GPGSA,A,3,27,08,10,29,28,26,,,,,,,3.1,1.8,2.6*34
$GPGSV,3,1,11,29,77,301,26,26,63,300,26,28,57,103,25,08,41,064,25*75
$GPGSV,3,2,11,10,37,194,22,27,17,070,28,21,10,299,,24,08,263,*76
$GPGSV,3,3,11,19,07,026,,09,07,251,,18,07,325,07*47
$GPRMC,172552.000,A,5043.9844,N,00705.9501,E,2.94,71.12,070507,,*36
$GPGGA,172553.000,5043.9847,N,00705.9521,E,1,06,1.8,62.4,M,47.7,M,,0000*6D
$GPGSA,A,3,27,08,10,29,28,26,,,,,,,3.1,1.8,2.6*34
$GPRMC,172553.000,A,5043.9847,N,00705.9521,E,3.79,49.77,070507,,*3C
$GPGGA,172554.000,5043.9847,N,00705.9545,E,1,06,1.8,62.3,M,47.7,M,,0000*6F
$GPGSA,A,3,27,08,10,29,28,26,,,,,,,3.1,1.8,2.6*34
$GPRMC,172554.000,A,5043.9847,N,00705.9545,E,3.61,74.89,070507,,*3F
$GPGGA,172555.000,5043.9852,N,00705.9561,E,1,06,1.8,62.2,M,47.7,M,,0000*6D
$GPGSA,A,3,27,08,10,29,28,26,,,,,,,3.1,1.8,2.6*34
$GPRMC,172555.000,A,5043.9852,N,00705.9561,E,3.72,49.90,070507,,*38
$GPGGA,172556.000,5043.9860,N,00705.9582,E,1,06,1.8,61.9,M,47.7,M,,0000*6A
$GPGSA,A,3,27,08,10,29,28,26,,,,,,,3.1,1.8,2.6*34
$GPRMC,172556.000,A,5043.9860,N,00705.9582,E,4.57,50.20,070507,,*34
$GPGGA,172557.000,5043.9863,N,00705.9610,E,1,06,1.8,61.3,M,47.7,M,,0000*6A
$GPGSA,A,3,27,08,10,29,28,26,,,,,,,3.1,1.8,2.6*34
$GPGSV,3,1,11,29,77,301,26,26,63,300,24,28,57,103,20,08,41,064,25*72
$GPGSV,3,2,11,10,37,194,21,27,17,070,28,21,10,299,,24,08,263,*75
$GPGSV,3,3,11,19,07,026,09,09,07,251,,18,07,325,*49
$GPRMC,172557.000,A,5043.9863,N,00705.9610,E,4.28,70.94,070507,,*3B
$GPGGA,172558.000,5043.9869,N,00705.9633,E,1,06,1.8,60.3,M,47.7,M,,0000*6F
$GPGSA,A,3,27,08,10,29,28,26,,,,,,,3.1,1.8,2.6*34
$GPRMC,172558.000,A,5043.9869,N,00705.9633,E,3.59,69.80,070507,,*33
$GPGGA,172559.000,5043.9871,N,00705.9652,E,1,06,1.8,58.8,M,47.7,M,,0000*60
$GPGSA,A,3,27,08,10,29,28,26,,,,,,,3.1,1.8,2.6*34
$GPRMC,172559.000,A,5043.9871,N,00705.9652,E,3.18,59.56,070507,,*31
$GPGGA,172600.000,5043.9874,N,00705.9673,E,1,06,1.8,58.9,M,47.7,M,,0000*68
$GPGSA,A,3,27,08,10,29,28,26,,,,,,,3.1,1.8,2.6*34
$GPRMC,172600.000,A,5043.9874,N,00705.9673,E,3.67,59.33,070507,,*33
$GPGGA,172601.000,5043.9878,N,00705.9684,E,1,06,1.8,56.3,M,47.7,M,,0000*69
$GPGSA,A,3,27,08,10,29,28,26,,,,,,,3.1,1.8,2.6*34
$GPRMC,172601.000,A,5043.9878,N,00705.9684,E,3.13,66.33,070507,,*39
$GPGGA,172602.000,5043.9886,N,00705.9696,E,1,06,1.8,54.0,M,47.7,M,,0000*69
$GPGSA,A,3,27,08,10,29,28,26,,,,,,,3.1,1.8,2.6*34
$GPGSV,3,1,11,29,77,301,22,26,63,300,24,28,57,103,22,08,41,064,26*77
$GPGSV,3,2,11,10,37,194,20,27,17,070,31,21,10,299,17,24,08,263,*7A
$GPGSV,3,3,11,19,07,026,,09,07,251,,18,07,325,*40
$GPRMC,172602.000,A,5043.9886,N,00705.9696,E,3.74,62.61,070507,,*3A
$GPGGA,172603.000,5043.9897,N,00705.9705,E,1,06,1.8,52.7,M,47.7,M,,0000*62
$GPGSA,A,3,27,08,10,29,28,26,,,,,,,3.1,1.8,2.6*34
$GPRMC,172603.000,A,5043.9897,N,00705.9705,E,3.63,53.44,070507,,*33
$GPGGA,172604.000,5043.9901,N,00705.9723,E,1,06,1.8,52.5,M,47.7,M,,0000*6D
$GPGSA,A,3,27,08,10,29,28,26,,,,,,,3.1,1.8,2.6*34
$GPRMC,172604.000,A,5043.9901,N,00705.9723,E,3.45,43.35,070507,,*3D
$GPGGA,172605.000,5043.9902,N,00705.9735,E,1,06,1.8,51.3,M,47.7,M,,0000*6D
$GPGSA,A,3,27,08,10,29,28,26,,,,,,,3.1,1.8,2.6*34
$GPRMC,172605.000,A,5043.9902,N,00705.9735,E,3.08,76.25,070507,,*36
$GPGGA,172606.000,5043.9900,N,00705.9755,E,1,06,1.8,51.4,M,47.7,M,,0000*6D
$GPGSA,A,3,27,08,10,29,28,26,,,,,,,3.1,1.8,2.6*34
$GPRMC,172606.000,A,5043.9900,N,00705.9755,E,4.25,94.33,070507,,*32
$GPGGA,172607.000,5043.9897,N,00705.9772,E,1,07,1.3,50.9,M,47.7,M,,0000*60
$GPGSA,A,3,27,08,10,29,28,26,24,,,,,,1.9,1.3,1.3*35
$GPGSV,3,1,11,29,77,301,25,26,63,300,29,28,57,103,22,08,41,064,28*73
$GPGSV,3,2,11,10,37,194,29,27,17,070,29,21,10,299,15,24,08,263,15*7C
$GPGSV,3,3,11,19,07,026,12,09,07,251,,18,07,325,07*44
$GPRMC,172607.000,A,5043.9897,N,00705.9772,E,3.56,89.61,070507,,*31
$GPGGA,172608.000,5043.9891,N,00705.9786,E,1,07,1.3,49.6,M,47.7,M,,0000*65
$GPGSA,A,3,27,08,10,29,28,26,24,,,,,,1.9,1.3,1.3*35
$GPRMC,172608.000,A,5043.9891,N,00705.9786,E,4.19,105.35,070507,,*0B
$GPGGA,172609.000,5043.9891,N,00705.9803,E,1,07,1.3,49.6,M,47.7,M,,0000*66
$GPGSA,A,3,27,08,10,29,28,26,24,,,,,,1.9,1.3,1.3*35
$GPRMC,172609.000,A,5043.9891,N,00705.9803,E,3.38,93.23,070507,,*35
$GPGGA,172610.000,5043.9898,N,00705.9810,E,1,07,1.3,47.8,M,47.7,M,,0000*65
$GPGSA,A,3,27,08,10,29,28,26,24,,,,,,1.9,1.3,1.3*35
$GPRMC,172610.000,A,5043.9898,N,00705.9810,E,3.00,70.74,070507,,*32
$GPGGA,172611.000,5043.9907,N,00705.9818,E,1,07,1.3,46.9,M,47.7,M,,0000*6B
$GPGSA,A,3,27,08,10,29,28,26,24,,,,,,1.9,1.3,1.3*35
$GPRMC,172611.000,A,5043.9907,N,00705.9818,E,2.97,36.52,070507,,*35
$GPGGA,172612.000,5043.9912,N,00705.9826,E,1,07,1.3,47.2,M,47.7,M,,0000*6B
$GPGSA,A,3,27,08,10,29,28,26,24,,,,,,1.9,1.3,1.3*35
$GPGSV,3,1,11,29,77,301,25,26,63,300,30,28,57,103,23,08,41,064,28*7A
$GPGSV,3,2,11,10,37,194,22,27,17,070,25,21,10,299,15,24,08,263,16*78
$GPGSV,3,3,11,19,07,026,,09,07,251,11,18,07,325,*40
$GPRMC,172612.000,A,5043.9912,N,00705.9826,E,1.74,37.09,070507,,*3E
$GPGGA,172613.000,5043.9915,N,00705.9839,E,1,08,1.1,48.2,M,47.7,M,,0000*61
$GPGSA,A,3,27,08,10,29,28,26,21,24,,,,,1.7,1.1,1.2*3B
$GPRMC,172613.000,A,5043.9915,N,00705.9839,E,2.73,26.86,070507,,*35
$GPGGA,172614.000,5043.9922,N,00705.9850,E,1,07,1.3,48.6,M,47.7,M,,0000*64
$GPGSA,A,3,27,08,10,29,28,26,24,,,,,,1.9,1.3,1.3*35
$GPRMC,172614.000,A,5043.9922,N,00705.9850,E,2.06,64.18,070507,,*3A
$GPGGA,172615.000,5043.9929,N,00705.9862,E,1,07,1.3,48.8,M,47.7,M,,0000*61
$GPGSA,A,3,27,08,10,29,28,26,24,,,,,,1.9,1.3,1.3*35
$GPRMC,172615.000,A,5043.9929,N,00705.9862,E,1.99,85.65,070507,,*31
$GPGGA,172616.000,5043.9931,N,00705.9873,E,1,07,1.3,49.0,M,47.7,M,,0000*62
$GPGSA,A,3,27,08,10,29,28,26,24,,,,,,1.9,1.3,1.3*35
$GPRMC,172616.000,A,5043.9931,N,00705.9873,E,2.89,36.05,070507,,*37
$GPGGA,172617.000,5043.9931,N,00705.9885,E,1,07,1.3,49.0,M,47.7,M,,0000*6A
$GPGSA,A,3,27,08,10,29,28,26,24,,,,,,1.9,1.3,1.3*35
$GPGSV,3,1,11,29,77,301,25,26,63,300,30,28,57,103,24,08,41,064,27*72
$GPGSV,3,2,11,10,37,194,24,27,17,070,25,21,10,299,16,24,08,263,15*7E
$GPGSV,3,3,11,19,07,026,,09,07,251,14,18,07,325,*45
$GPRMC,172617.000,A,5043.9931,N,00705.9885,E,1.93,49.14,070507,,*3F
$GPGGA,172618.000,5043.9929,N,00705.9897,E,1,07,1.3,49.5,M,47.7,M,,0000*6A
$GPGSA,A,3,27,08,10,29,28,26,24,,,,,,1.9,1.3,1.3*35
$GPRMC,172618.000,A,5043.9929,N,00705.9897,E,2.06,49.93,070507,,*3A
$GPGGA,172619.000,5043.9927,N,00705.9904,E,1,06,1.8,48.6,M,47.7,M,,0000*66
$GPGSA,A,3,27,08,10,29,28,26,,,,,,,3.1,1.8,2.6*34
$GPRMC,172619.000,A,5043.9927,N,00705.9904,E,1.72,46.40,070507,,*3F
$GPGGA,172620.000,5043.9925,N,00705.9912,E,1,07,1.3,47.7,M,47.7,M,,0000*6D
$GPGSA,A,3,27,08,10,29,28,26,24,,,,,,1.9,1.3,1.3*35
$GPRMC,172620.000,A,5043.9925,N,00705.9912,E,1.71,45.67,070507,,*35
$GPGGA,172621.000,5043.9926,N,00705.9921,E,1,07,1.3,47.5,M,47.7,M,,0000*6D
$GPGSA,A,3,27,08,10,29,28,26,24,,,,,,1.9,1.3,1.3*35
$GPRMC,172621.000,A,5043.9926,N,00705.9921,E,2.04,39.31,070507,,*3E
$GPGGA,172622.000,5043.9927,N,00705.9928,E,1,06,1.8,47.3,M,47.7,M,,0000*6A
$GPGSA,A,3,27,08,10,29,28,26,,,,,,,3.1,1.8,2.6*34
$GPGSV,3,1,11,29,77,301,25,26,63,300,27,28,57,103,26,08,41,064,27*76
$GPGSV,3,2,11,10,37,194,31,27,17,070,27,21,10,299,16,24,08,263,14*79
$GPGSV,3,3,11,19,07,026,15,09,07,251,12,18,07,325,*47
$GPRMC,172622.000,A,5043.9927,N,00705.9928,E,1.79,40.63,070507,,*35
$GPGGA,172623.000,5043.9928,N,00705.9934,E,1,06,1.8,46.9,M,47.7,M,,0000*62
$GPGSA,A,3,27,08,10,29,28,26,,,,,,,3.1,1.8,2.6*34
$GPRMC,172623.000,A,5043.9928,N,00705.9934,E,1.74,0.88,070507,,*0A
$GPGGA,172624.000,5043.9931,N,00705.9939,E,1,07,1.3,46.9,M,47.7,M,,0000*6A
$GPGSA,A,3,27,08,10,29,28,26,24,,,,,,1.9,1.3,1.3*35
$GPRMC,172624.000,A,5043.9931,N,00705.9939,E,1.89,4.26,070507,,*0A
$GPGGA,172625.000,5043.9935,N,00705.9948,E,1,07,1.3,47.1,M,47.7,M,,0000*60
$GPGSA,A,3,27,08,10,29,28,26,24,,,,,,1.9,1.3,1.3*35
$GPRMC,172625.000,A,5043.9935,N,00705.9948,E,2.88,45.36,070507,,*3F
$GPGGA,172626.000,5043.9939,N,00705.9964,E,1,07,1.3,48.1,M,47.7,M,,0000*6E
$GPGSA,A,3,27,08,10,29,28,26,24,,,,,,1.9,1.3,1.3*35
$GPRMC,172626.000,A,5043.9939,N,00705.9964,E,3.48,34.35,070507,,*36
$GPGGA,172627.000,5043.9940,N,00705.9973,E,1,07,1.3,49.0,M,47.7,M,,0000*67
$GPGSA,A,3,27,08,10,29,28,26,24,,,,,,1.9,1.3,1.3*35
$GPGSV,3,1,11,29,77,301,25,26,63,300,30,28,57,103,26,08,41,064,27*70
$GPGSV,3,2,11,10,37,194,31,27,17,070,23,21,10,299,16,24,08,263,13*7A
$GPGSV,3,3,11,19,07,026,15,09,07,251,13,18,07,325,07*41
$GPRMC,172627.000,A,5043.9940,N,00705.9973,E,2.12,13.31,070507,,*30
$GPGGA,172628.000,5043.9943,N,00705.9979,E,1,07,1.3,49.6,M,47.7,M,,0000*67
$GPGSA,A,3,27,08,10,29,28,26,24,,,,,,1.9,1.3,1.3*35
$GPRMC,172628.000,A,5043.9943,N,00705.9979,E,1.08,346.23,070507,,*0E
$GPGGA,172629.000,5043.9944,N,00705.9984,E,1,07,1.3,50.2,M,47.7,M,,0000*6F
$GPGSA,A,3,27,08,10,29,28,26,24,,,,,,1.9,1.3,1.3*35
$GPRMC,172629.000,A,5043.9944,N,00705.9984,E,1.16,47.67,070507,,*37
$GPGGA,172630.000,5043.9945,N,00705.9991,E,1,07,1.3,51.3,M,47.7,M,,0000*62
$GPGSA,A,3,27,08,10,29,28,26,24,,,,,,1.9,1.3,1.3*35
$GPRMC,172630.000,A,5043.9945,N,00705.9991,E,0.65,89.35,070507,,*3A
$GPGGA,172631.000,5043.9944,N,00706.0000,E,1,07,1.3,53.0,M,47.7,M,,0000*68
$GPGSA,A,3,27,08,10,29,28,26,24,,,,,,1.9,1.3,1.3*35
$GPRMC,172631.000,A,5043.9944,N,00706.0000,E,1.61,65.46,070507,,*32
$GPGGA,172632.000,5043.9948,N,00706.0010,E,1,07,1.3,53.4,M,47.7,M,,0000*62
$GPGSA,A,3,27,08,10,29,28,26,24,,,,,,1.9,1.3,1.3*35
$GPGSV,3,1,11,29,77,301,25,26,63,300,30,28,57,103,26,08,41,064,29*7E
$GPGSV,3,2,11,10,37,194,32,27,17,070,21,21,10,299,17,24,08,263,13*7A
$GPGSV,3,3,11,19,07,026,,09,07,251,13,18,07,325,07*45
$GPRMC,172632.000,A,5043.9948,N,00706.0010,E,1.55,54.44,070507,,*3B
$GPGGA,172633.000,5043.9949,N,00706.0025,E,1,07,1.3,52.9,M,47.7,M,,0000*68
$GPGSA,A,3,27,08,10,29,28,26,24,,,,,,1.9,1.3,1.3*35
$GPRMC,172633.000,A,5043.9949,N,00706.0025,E,1.70,99.10,070507,,*3A
$GPGGA,172634.000,5043.9949,N,00706.0040,E,1,06,1.8,52.3,M,47.7,M,,0000*6C
$GPGSA,A,3,27,08,10,29,28,26,,,,,,,3.1,1.8,2.6*34
$GPRMC,172634.000,A,5043.9949,N,00706.0040,E,2.85,107.76,070507,,*01
$GPGGA,172635.000,5043.9948,N,00706.0058,E,1,06,1.8,51.1,M,47.7,M,,0000*64
$GPGSA,A,3,27,08,10,29,28,26,,,,,,,3.1,1.8,2.6*34
$GPRMC,172635.000,A,5043.9948,N,00706.0058,E,3.26,111.93,070507,,*0C
$GPGGA,172636.000,5043.9947,N,00706.0073,E,1,06,1.8,50.2,M,47.7,M,,0000*63
$GPGSA,A,3,27,08,10,29,28,26,,,,,,,3.1,1.8,2.6*34
$GPRMC,172636.000,A,5043.9947,N,00706.0073,E,1.79,124.33,070507,,*0D
$GPGGA,172637.000,5043.9947,N,00706.0085,E,1,06,1.8,49.3,M,47.7,M,,0000*62
$GPGSA,A,3,27,08,10,29,28,26,,,,,,,3.1,1.8,2.6*34
$GPGSV,3,1,11,29,77,301,25,26,63,300,30,28,57,103,26,08,41,064,33*75
$GPGSV,3,2,11,10,37,194,31,27,17,070,23,21,10,299,17,24,08,263,15*7D
$GPGSV,3,3,11,19,07,026,12,09,07,251,16,18,07,325,*44
$GPRMC,172637.000,A,5043.9947,N,00706.0085,E,1.69,126.99,070507,,*06
$GPGGA,172638.000,5043.9943,N,00706.0104,E,1,07,1.3,49.1,M,47.7,M,,0000*69
$GPGSA,A,3,27,08,10,29,28,26,24,,,,,,1.9,1.3,1.3*35
$GPRMC,172638.000,A,5043.9943,N,00706.0104,E,3.58,115.15,070507,,*01
$GPGGA,172639.000,5043.9938,N,00706.0129,E,1,07,1.3,49.6,M,47.7,M,,0000*6C
$GPGSA,A,3,27,08,10,29,28,26,24,,,,,,1.9,1.3,1.3*35
$GPRMC,172639.000,A,5043.9938,N,00706.0129,E,3.63,111.61,070507,,*0C
$GPGGA,172640.000,5043.9939,N,00706.0150,E,1,06,1.8,48.1,M,47.7,M,,0000*61
$GPGSA,A,3,27,08,10,29,28,26,,,,,,,3.1,1.8,2.6*34
$GPRMC,172640.000,A,5043.9939,N,00706.0150,E,2.96,103.53,070507,,*04
$GPGGA,172641.000,5043.9938,N,00706.0164,E,1,06,1.8,47.7,M,47.7,M,,0000*6F
$GPGSA,A,3,27,08,10,29,28,26,,,,,,,3.1,1.8,2.6*34
$GPRMC,172641.000,A,5043.9938,N,00706.0164,E,2.52,90.66,070507,,*36
$GPGGA,172642.000,5043.9941,N,00706.0180,E,1,06,1.8,46.3,M,47.7,M,,0000*6D
$GPGSA,A,3,27,08,10,29,28,26,,,,,,,3.1,1.8,2.6*34
$GPGSV,3,1,11,29,77,301,25,26,63,300,29,28,57,103,25,08,41,064,32*7F
$GPGSV,3,2,11,10,37,194,32,27,17,070,21,21,10,299,18,24,08,263,16*70
$GPGSV,3,3,11,19,07,026,13,09,07,251,23,18,07,325,19*4B
$GPRMC,172642.000,A,5043.9941,N,00706.0180,E,2.28,90.36,070507,,*39
$GPGGA,172643.000,5043.9942,N,00706.0195,E,1,06,1.8,44.9,M,47.7,M,,0000*63
$GPGSA,A,3,27,08,10,29,28,26,,,,,,,3.1,1.8,2.6*34
$GPRMC,172643.000,A,5043.9942,N,00706.0195,E,2.23,88.21,070507,,*3B
$GPGGA,172644.000,5043.9943,N,00706.0208,E,1,06,1.8,44.7,M,47.7,M,,0000*6C
$GPGSA,A,3,27,08,10,29,28,26,,,,,,,3.1,1.8,2.6*34
$GPRMC,172644.000,A,5043.9943,N,00706.0208,E,3.03,76.05,070507,,*3E
$GPGGA,172645.000,5043.9940,N,00706.0232,E,1,08,1.1,46.8,M,47.7,M,,0000*6D
$GPGSA,A,3,27,08,10,29,28,26,21,24,,,,,1.7,1.1,1.2*3B
$GPRMC,172645.000,A,5043.9940,N,00706.0232,E,3.45,81.86,070507,,*34
$GPGGA,172646.000,5043.9937,N,00706.0256,E,1,08,1.1,48.2,M,47.7,M,,0000*68
$GPGSA,A,3,27,08,10,29,28,26,21,24,,,,,1.7,1.1,1.2*3B
$GPRMC,172646.000,A,5043.9937,N,00706.0256,E,3.58,88.56,070507,,*3D
$GPGGA,172647.000,5043.9934,N,00706.0279,E,1,08,1.1,49.2,M,47.7,M,,0000*66
$GPGSA,A,3,27,08,10,29,28,26,21,24,,,,,1.7,1.1,1.2*3B
$GPGSV,3,1,11,29,77,301,25,26,63,300,30,28,57,103,25,08,41,064,28*7C
$GPGSV,3,2,11,10,37,194,32,27,17,070,21,21,10,299,22,24,08,263,24*78
$GPGSV,3,3,11,19,07,026,08,09,07,251,24,18,07,325,39*44
$GPRMC,172647.000,A,5043.9934,N,00706.0279,E,3.49,91.93,070507,,*33
$GPGGA,172648.000,5043.9931,N,00706.0301,E,1,08,1.1,49.7,M,47.7,M,,0000*67
$GPGSA,A,3,27,08,10,29,28,26,21,24,,,,,1.7,1.1,1.2*3B
$GPRMC,172648.000,A,5043.9931,N,00706.0301,E,2.90,90.91,070507,,*31
$GPGGA,172649.000,5043.9927,N,00706.0323,E,1,08,1.1,50.1,M,47.7,M,,0000*6F
$GPGSA,A,3,27,08,10,29,28,26,21,24,,,,,1.7,1.1,1.2*3B
$GPRMC,172649.000,A,5043.9927,N,00706.0323,E,3.84,107.22,070507,,*04
$GPGGA,172650.000,5043.9919,N,00706.0345,E,1,08,1.1,50.4,M,47.7,M,,0000*6F
$GPGSA,A,3,27,08,10,29,28,26,21,24,,,,,1.7,1.1,1.2*3B
$GPRMC,172650.000,A,5043.9919,N,00706.0345,E,3.39,133.29,070507,,*0B
$GPGGA,172651.000,5043.9912,N,00706.0365,E,1,08,1.1,50.2,M,47.7,M,,0000*61
$GPGSA,A,3,27,08,10,29,28,26,21,24,,,,,1.7,1.1,1.2*3B
$GPRMC,172651.000,A,5043.9912,N,00706.0365,E,3.08,140.38,070507,,*05
$GPGGA,172652.000,5043.9903,N,00706.0385,E,1,08,1.1,51.8,M,47.7,M,,0000*67
$GPGSA,A,3,27,08,10,29,28,26,21,24,,,,,1.7,1.1,1.2*3B
$GPGSV,3,1,11,29,77,301,25,26,63,300,29,28,57,103,25,08,41,064,32*7F
$GPGSV,3,2,11,10,37,194,25,27,17,070,21,21,10,299,22,24,08,263,26*7C
$GPGSV,3,3,11,19,07,026,,09,07,251,23,18,07,325,20*43
$GPRMC,172652.000,A,5043.9903,N,00706.0385,E,3.95,130.64,070507,,*02
$GPGGA,172653.000,5043.9895,N,00706.0409,E,1,08,1.1,53.2,M,47.7,M,,0000*63
$GPGSA,A,3,27,08,10,29,28,26,21,24,,,,,1.7,1.1,1.2*3B
$GPRMC,172653.000,A,5043.9895,N,00706.0409,E,4.07,114.59,070507,,*0A
$GPGGA,172654.000,5043.9890,N,00706.0429,E,1,08,1.1,54.9,M,47.7,M,,0000*6F
$GPGSA,A,3,27,08,10,29,28,26,21,24,,,,,1.7,1.1,1.2*3B
$GPRMC,172654.000,A,5043.9890,N,00706.0429,E,3.66,117.83,070507,,*0E
$GPGGA,172655.000,5043.9887,N,00706.0447,E,1,08,1.1,55.2,M,47.7,M,,0000*6A
$GPGSA,A,3,27,08,10,29,28,26,21,24,,,,,1.7,1.1,1.2*3B
$GPRMC,172655.000,A,5043.9887,N,00706.0447,E,2.80,96.38,070507,,*30
$GPGGA,172656.000,5043.9887,N,00706.0467,E,1,08,1.1,56.5,M,47.7,M,,0000*6F
$GPGSA,A,3,27,08,10,29,28,26,21,24,,,,,1.7,1.1,1.2*3B
$GPRMC,172656.000,A,5043.9887,N,00706.0467,E,3.59,100.64,070507,,*03
$GPGGA,172657.000,5043.9887,N,00706.0482,E,1,08,1.1,57.1,M,47.7,M,,0000*60
$GPGSA,A,3,27,08,10,29,28,26,21,24,,,,,1.7,1.1,1.2*3B
$GPGSV,3,1,11,29,77,301,25,26,63,300,29,28,57,103,26,08,41,064,38*76
$GPGSV,3,2,11,10,37,194,27,27,17,070,21,21,10,299,17,24,08,263,25*7B
$GPGSV,3,3,11,19,07,026,13,09,07,251,17,18,07,325,20*46
$GPRMC,172657.000,A,5043.9887,N,00706.0482,E,2.34,83.68,070507,,*35
$GPGGA,172658.000,5043.9890,N,00706.0489,E,1,08,1.1,58.1,M,47.7,M,,0000*6D
$GPGSA,A,3,27,08,10,29,28,26,21,24,,,,,1.7,1.1,1.2*3B
$GPRMC,172658.000,A,5043.9890,N,00706.0489,E,2.20,8.77,070507,,*0F
$GPGGA,172659.000,5043.9896,N,00706.0489,E,1,08,1.1,58.4,M,47.7,M,,0000*6F
$GPGSA,A,3,27,08,10,29,28,26,21,24,,,,,1.7,1.1,1.2*3B
$GPRMC,172659.000,A,5043.9896,N,00706.0489,E,2.64,1.36,070507,,*04
$GPGGA,172700.000,5043.9900,N,00706.0486,E,1,07,1.2,60.2,M,47.7,M,,0000*62
$GPGSA,A,3,27,08,10,29,28,26,21,,,,,,1.8,1.2,1.4*37
$GPRMC,172700.000,A,5043.9900,N,00706.0486,E,1.92,26.98,070507,,*33
$GPGGA,172701.000,5043.9896,N,00706.0486,E,1,08,1.1,63.0,M,47.7,M,,0000*60
$GPGSA,A,3,27,08,10,29,28,26,21,24,,,,,1.7,1.1,1.2*3B
$GPRMC,172701.000,A,5043.9896,N,00706.0486,E,1.60,149.91,070507,,*00
$GPGGA,172702.000,5043.9898,N,00706.0482,E,1,08,1.1,65.1,M,47.7,M,,0000*6E
$GPGSA,A,3,27,08,10,29,28,26,21,24,,,,,1.7,1.1,1.2*3B
$GPGSV,3,1,12,29,78,301,25,26,65,300,29,28,57,101,19,08,39,065,23*76
$GPGSV,3,2,12,10,35,193,17,27,16,071,20,21,10,297,18,09,08,252,16*73
$GPGSV,3,3,12,18,08,324,29,24,07,262,16,19,07,025,13,17,00,133,*78
$GPRMC,172702.000,A,5043.9898,N,00706.0482,E,0.94,223.76,070507,,*05
$GPGGA,172703.000,5043.9897,N,00706.0476,E,1,08,1.1,67.2,M,47.7,M,,0000*6A
$GPGSA,A,3,27,08,10,29,28,26,21,24,,,,,1.7,1.1,1.2*3B
$GPRMC,172703.000,A,5043.9897,N,00706.0476,E,1.04,291.81,070507,,*09
$GPGGA,172704.000,5043.9902,N,00706.0474,E,1,08,1.1,68.8,M,47.7,M,,0000*67
$GPGSA,A,3,27,08,10,29,28,26,21,24,,,,,1.7,1.1,1.2*3B
$GPRMC,172704.000,A,5043.9902,N,00706.0474,E,0.69,51.17,070507,,*3A
$GPGGA,172705.000,5043.9901,N,00706.0480,E,1,08,1.1,71.3,M,47.7,M,,0000*6D
$GPGSA,A,3,27,08,10,29,28,26,21,24,,,,,1.7,1.1,1.2*3B
$GPRMC,172705.000,A,5043.9901,N,00706.0480,E,1.33,103.63,070507,,*08
$GPGGA,172706.000,5043.9899,N,00706.0486,E,1,07,2.0,72.7,M,47.7,M,,0000*62
$GPGSA,A,3,27,08,29,28,26,21,24,,,,,,2.3,2.0,1.2*3F
$GPRMC,172706.000,A,5043.9899,N,00706.0486,E,1.98,98.76,070507,,*3B
$GPGGA,172707.000,5043.9902,N,00706.0491,E,1,07,1.2,74.7,M,47.7,M,,0000*61
$GPGSA,A,3,27,08,10,29,28,26,21,,,,,,1.8,1.2,1.4*37
$GPGSV,3,1,12,29,78,301,25,26,65,300,29,28,57,101,20,08,39,065,24*7B
$GPGSV,3,2,12,10,35,193,17,27,16,071,19,21,10,297,21,09,08,252,16*73
$GPGSV,3,3,12,18,08,324,23,24,07,262,12,19,07,025,12,17,00,133,10*76
$GPRMC,172707.000,A,5043.9902,N,00706.0491,E,1.06,106.07,070507,,*08
$GPGGA,172708.000,5043.9906,N,00706.0496,E,1,06,1.3,76.5,M,47.7,M,,0000*6D
$GPGSA,A,3,08,10,29,28,26,21,,,,,,,2.2,1.3,1.7*39
$GPRMC,172708.000,A,5043.9906,N,00706.0496,E,0.84,159.58,070507,,*0F
$GPGGA,172709.000,5043.9905,N,00706.0504,E,1,06,1.3,77.8,M,47.7,M,,0000*69
$GPGSA,A,3,08,10,29,28,26,21,,,,,,,2.2,1.3,1.7*39
$GPRMC,172709.000,A,5043.9905,N,00706.0504,E,1.54,125.66,070507,,*0D
$GPGGA,172710.000,5043.9901,N,00706.0510,E,1,06,1.3,79.6,M,47.7,M,,0000*60
$GPGSA,A,3,08,10,29,28,26,21,,,,,,,2.2,1.3,1.7*39
$GPRMC,172710.000,A,5043.9901,N,00706.0510,E,1.19,88.24,070507,,*3D
$GPGGA,172711.000,5043.9895,N,00706.0519,E,1,06,1.3,80.2,M,47.7,M,,0000*66
$GPGSA,A,3,08,10,29,28,26,21,,,,,,,2.2,1.3,1.7*39
$GPRMC,172711.000,A,5043.9895,N,00706.0519,E,2.12,108.75,070507,,*0C
$GPGGA,172712.000,5043.9886,N,00706.0528,E,1,06,1.3,80.6,M,47.7,M,,0000*61
$GPGSA,A,3,08,10,29,28,26,21,,,,,,,2.2,1.3,1.7*39
$GPGSV,3,1,12,29,78,301,26,26,65,300,28,28,57,101,20,08,39,065,25*78
$GPGSV,3,2,12,10,35,193,17,27,16,071,18,21,10,297,30,09,08,252,15*71
$GPGSV,3,3,12,18,08,324,21,24,07,262,,19,07,025,,17,00,133,*75
$GPRMC,172712.000,A,5043.9886,N,00706.0528,E,2.11,138.27,070507,,*08
$GPGGA,172713.000,5043.9877,N,00706.0536,E,1,06,1.3,81.0,M,47.7,M,,0000*66
$GPGSA,A,3,08,10,29,28,26,21,,,,,,,2.2,1.3,1.7*39
$GPRMC,172713.000,A,5043.9877,N,00706.0536,E,2.46,136.04,070507,,*05
$GPGGA,172714.000,5043.9867,N,00706.0545,E,1,06,1.3,81.7,M,47.7,M,,0000*63
$GPGSA,A,3,08,10,29,28,26,21,,,,,,,2.2,1.3,1.7*39
$GPRMC,172714.000,A,5043.9867,N,00706.0545,E,2.40,132.70,070507,,*06
$GPGGA,172715.000,5043.9857,N,00706.0550,E,1,06,1.3,81.8,M,47.7,M,,0000*6A
$GPGSA,A,3,08,10,29,28,26,21,,,,,,,2.2,1.3,1.7*39
$GPRMC,172715.000,A,5043.9857,N,00706.0550,E,1.34,164.25,070507,,*03
$GPGGA,172716.000,5043.9851,N,00706.0553,E,1,06,1.3,82.2,M,47.7,M,,0000*65
$GPGSA,A,3,08,10,29,28,26,21,,,,,,,2.2,1.3,1.7*39
$GPRMC,172716.000,A,5043.9851,N,00706.0553,E,1.71,139.52,070507,,*0C
$GPGGA,172717.000,5043.9842,N,00706.0559,E,1,06,1.3,82.1,M,47.7,M,,0000*6F
$GPGSA,A,3,08,10,29,28,26,21,,,,,,,2.2,1.3,1.7*39
$GPGSV,3,1,12,29,78,301,25,26,65,300,28,28,57,101,21,08,39,065,25*7A
$GPGSV,3,2,12,10,35,193,17,27,16,071,17,21,10,297,32,09,08,252,14*7D
$GPGSV,3,3,12,18,08,324,24,24,07,262,14,19,07,025,12,17,00,133,*76
$GPRMC,172717.000,A,5043.9842,N,00706.0559,E,1.84,166.03,070507,,*01
$GPGGA,172718.000,5043.9833,N,00706.0567,E,1,08,1.1,82.7,M,47.7,M,,0000*61
$GPGSA,A,3,27,08,10,29,28,26,21,24,,,,,1.7,1.1,1.2*3B
$GPRMC,172718.000,A,5043.9833,N,00706.0567,E,2.02,139.73,070507,,*05
$GPGGA,172719.000,5043.9826,N,00706.0579,E,1,08,1.1,83.8,M,47.7,M,,0000*65
$GPGSA,A,3,27,08,10,29,28,26,21,24,,,,,1.7,1.1,1.2*3B
$GPRMC,172719.000,A,5043.9826,N,00706.0579,E,2.05,164.16,070507,,*03
$GPGGA,172720.000,5043.9819,N,00706.0588,E,1,08,1.1,84.7,M,47.7,M,,0000*65
$GPGSA,A,3,27,08,10,29,28,26,21,24,,,,,1.7,1.1,1.2*3B
$GPRMC,172720.000,A,5043.9819,N,00706.0588,E,2.02,134.47,070507,,*0D
$GPGGA,172721.000,5043.9811,N,00706.0599,E,1,08,1.1,85.8,M,47.7,M,,0000*62
$GPGSA,A,3,27,08,10,29,28,26,21,24,,,,,1.7,1.1,1.2*3B
$GPRMC,172721.000,A,5043.9811,N,00706.0599,E,2.53,146.45,070507,,*07
$GPGGA,172722.000,5043.9794,N,00706.0606,E,1,08,1.1,85.8,M,47.7,M,,0000*66
$GPGSA,A,3,27,08,10,29,28,26,21,24,,,,,1.7,1.1,1.2*3B
$GPGSV,3,1,12,29,78,301,25,26,65,300,28,28,57,101,20,08,39,065,24*7A
$GPGSV,3,2,12,10,35,193,25,27,16,071,17,21,10,297,35,09,08,252,14*7B
$GPGSV,3,3,12,18,08,324,24,24,07,262,13,19,07,025,,17,00,133,*72
$GPRMC,172722.000,A,5043.9794,N,00706.0606,E,3.31,169.12,070507,,*09
$GPGGA,172723.000,5043.9776,N,00706.0611,E,1,07,1.2,85.7,M,47.7,M,,0000*6E
$GPGSA,A,3,27,10,29,28,26,21,24,,,,,,1.7,1.2,1.2*30
$GPRMC,172723.000,A,5043.9776,N,00706.0611,E,3.29,174.58,070507,,*09
$GPGGA,172724.000,5043.9759,N,00706.0620,E,1,08,1.1,85.0,M,47.7,M,,0000*6D
$GPGSA,A,3,27,08,10,29,28,26,21,24,,,,,1.7,1.1,1.2*3B
$GPRMC,172724.000,A,5043.9759,N,00706.0620,E,2.83,169.78,070507,,*0E
$GPGGA,172725.000,5043.9744,N,00706.0632,E,1,08,1.1,85.0,M,47.7,M,,0000*63
$GPGSA,A,3,27,08,10,29,28,26,21,24,,,,,1.7,1.1,1.2*3B
$GPRMC,172725.000,A,5043.9744,N,00706.0632,E,2.17,124.98,070507,,*0A
$GPGGA,172726.000,5043.9739,N,00706.0649,E,1,08,1.1,86.2,M,47.7,M,,0000*67
$GPGSA,A,3,27,08,10,29,28,26,21,24,,,,,1.7,1.1,1.2*3B
$GPRMC,172726.000,A,5043.9739,N,00706.0649,E,2.10,110.72,070507,,*0B
$GPGGA,172727.000,5043.9733,N,00706.0662,E,1,08,1.1,86.7,M,47.7,M,,0000*60
$GPGSA,A,3,27,08,10,29,28,26,21,24,,,,,1.7,1.1,1.2*3B
$GPGSV,3,1,12,29,78,301,25,26,65,300,28,28,57,101,26,08,39,065,26*7E
$GPGSV,3,2,12,10,35,193,27,27,16,071,16,21,10,297,38,09,08,252,14*75
$GPGSV,3,3,12,18,08,324,24,24,07,262,13,19,07,025,14,17,00,133,09*7E
$GPRMC,172727.000,A,5043.9733,N,00706.0662,E,1.26,146.17,070507,,*0F
$GPGGA,172728.000,5043.9723,N,00706.0673,E,1,08,1.1,87.3,M,47.7,M,,0000*6B
$GPGSA,A,3,27,08,10,29,28,26,21,24,,,,,1.7,1.1,1.2*3B
$GPRMC,172728.000,A,5043.9723,N,00706.0673,E,2.91,162.14,070507,,*0B
$GPGGA,172729.000,5043.9711,N,00706.0684,E,1,08,1.1,87.5,M,47.7,M,,0000*65
$GPGSA,A,3,27,08,10,29,28,26,21,24,,,,,1.7,1.1,1.2*3B
$GPRMC,172729.000,A,5043.9711,N,00706.0684,E,3.15,167.07,070507,,*09
$GPGGA,172730.000,5043.9705,N,00706.0697,E,1,08,1.1,87.9,M,47.7,M,,0000*66
$GPGSA,A,3,27,08,10,29,28,26,21,24,,,,,1.7,1.1,1.2*3B
$GPRMC,172730.000,A,5043.9705,N,00706.0697,E,2.39,136.54,070507,,*0B
$GPGGA,172731.000,5043.9697,N,00706.0715,E,1,08,1.1,87.4,M,47.7,M,,0000*6B
$GPGSA,A,3,27,08,10,29,28,26,21,24,,,,,1.7,1.1,1.2*3B
$GPRMC,172731.000,A,5043.9697,N,00706.0715,E,2.39,123.94,070507,,*03
$GPGGA,172732.000,5043.9690,N,00706.0732,E,1,08,1.1,87.4,M,47.7,M,,0000*6A
$GPGSA,A,3,27,08,10,29,28,26,21,24,,,,,1.7,1.1,1.2*3B
$GPGSV,3,1,12,29,78,301,23,26,65,300,25,28,57,101,26,08,39,065,27*74
$GPGSV,3,2,12,10,35,193,23,27,16,071,15,21,10,297,26,09,08,252,13*7A
$GPGSV,3,3,12,18,08,324,24,24,07,262,13,19,07,025,,17,00,133,10*73
$GPRMC,172732.000,A,5043.9690,N,00706.0732,E,2.19,141.82,070507,,*03
$GPGGA,172733.000,5043.9681,N,00706.0745,E,1,08,1.1,87.0,M,47.7,M,,0000*6F
$GPGSA,A,3,27,08,10,29,28,26,21,24,,,,,1.7,1.1,1.2*3B
$GPRMC,172733.000,A,5043.9681,N,00706.0745,E,1.61,128.20,070507,,*09
$GPGGA,172734.000,5043.9674,N,00706.0760,E,1,08,1.1,86.0,M,47.7,M,,0000*64
$GPGSA,A,3,27,08,10,29,28,26,21,24,,,,,1.7,1.1,1.2*3B
$GPRMC,172734.000,A,5043.9674,N,00706.0760,E,2.14,115.51,070507,,*0A
$GPGGA,172735.000,5043.9667,N,00706.0779,E,1,08,1.1,85.3,M,47.7,M,,0000*6F
$GPGSA,A,3,27,08,10,29,28,26,21,24,,,,,1.7,1.1,1.2*3B
$GPRMC,172735.000,A,5043.9667,N,00706.0779,E,3.39,116.75,070507,,*0A
$GPGGA,172736.000,5043.9662,N,00706.0801,E,1,07,1.2,84.0,M,47.7,M,,0000*67
$GPGSA,A,3,27,08,10,29,28,26,21,,,,,,1.8,1.2,1.4*37
$GPRMC,172736.000,A,5043.9662,N,00706.0801,E,3.15,113.20,070507,,*07
$GPGGA,172737.000,5043.9657,N,00706.0824,E,1,07,1.2,82.9,M,47.7,M,,0000*68
$GPGSA,A,3,27,08,10,29,28,26,21,,,,,,1.8,1.2,1.4*37
$GPGSV,3,1,12,29,78,301,26,26,65,300,29,28,57,101,26,08,39,065,34*7F
$GPGSV,3,2,12,10,35,193,32,27,16,071,15,21,10,297,28,09,08,252,12*75
$GPGSV,3,3,12,18,08,324,26,24,07,262,,19,07,025,,17,00,133,08*7A
$GPRMC,172737.000,A,5043.9657,N,00706.0824,E,3.27,112.75,070507,,*07
$GPGGA,172738.000,5043.9652,N,00706.0845,E,1,07,1.2,82.0,M,47.7,M,,0000*6C
$GPGSA,A,3,27,08,10,29,28,26,21,,,,,,1.8,1.2,1.4*37
$GPRMC,172738.000,A,5043.9652,N,00706.0845,E,3.14,117.49,070507,,*00
$GPGGA,172739.000,5043.9646,N,00706.0867,E,1,07,1.2,80.9,M,47.7,M,,0000*63
$GPGSA,A,3,27,08,10,29,28,26,21,,,,,,1.8,1.2,1.4*37
$GPRMC,172739.000,A,5043.9646,N,00706.0867,E,3.27,122.15,070507,,*0B
$GPGGA,172740.000,5043.9644,N,00706.0890,E,1,07,1.2,78.5,M,47.7,M,,0000*6C
$GPGSA,A,3,27,08,10,29,28,26,21,,,,,,1.8,1.2,1.4*37
$GPRMC,172740.000,A,5043.9644,N,00706.0890,E,1.88,110.41,070507,,*08
$GPGGA,172741.000,5043.9643,N,00706.0911,E,1,07,1.2,76.6,M,47.7,M,,0000*6F
$GPGSA,A,3,27,08,10,29,28,26,21,,,,,,1.8,1.2,1.4*37
$GPRMC,172741.000,A,5043.9643,N,00706.0911,E,2.52,126.80,070507,,*0A
$GPGGA,172742.000,5043.9638,N,00706.0925,E,1,07,1.2,74.8,M,47.7,M,,0000*6B
$GPGSA,A,3,27,08,10,29,28,26,21,,,,,,1.8,1.2,1.4*37
$GPGSV,3,1,12,29,78,301,25,26,65,300,28,28,57,101,26,08,39,065,33*7A
$GPGSV,3,2,12,10,35,193,26,27,16,071,14,21,10,297,18,09,08,252,*71
$GPGSV,3,3,12,18,08,324,20,24,07,262,,19,07,025,14,17,00,133,09*78
$GPRMC,172742.000,A,5043.9638,N,00706.0925,E,2.04,181.70,070507,,*03
$GPGGA,172743.000,5043.9629,N,00706.0937,E,1,07,1.2,73.0,M,47.7,M,,0000*66
$GPGSA,A,3,27,08,10,29,28,26,21,,,,,,1.8,1.2,1.4*37
$GPRMC,172743.000,A,5043.9629,N,00706.0937,E,2.92,163.29,070507,,*0E
$GPGGA,172744.000,5043.9620,N,00706.0947,E,1,07,1.2,71.8,M,47.7,M,,0000*65
$GPGSA,A,3,27,08,10,29,28,26,21,,,,,,1.8,1.2,1.4*37
$GPRMC,172744.000,A,5043.9620,N,00706.0947,E,2.22,150.22,070507,,*07
$GPGGA,172745.000,5043.9608,N,00706.0959,E,1,07,1.2,70.6,M,47.7,M,,0000*6E
$GPGSA,A,3,27,08,10,29,28,26,21,,,,,,1.8,1.2,1.4*37
$GPRMC,172745.000,A,5043.9608,N,00706.0959,E,3.94,155.39,070507,,*00
$GPGGA,172746.000,5043.9593,N,00706.0975,E,1,07,1.2,68.4,M,47.7,M,,0000*69
$GPGSA,A,3,27,08,10,29,28,26,21,,,,,,1.8,1.2,1.4*37
$GPRMC,172746.000,A,5043.9593,N,00706.0975,E,4.17,142.86,070507,,*02
$GPGGA,172747.000,5043.9582,N,00706.0993,E,1,07,1.2,65.9,M,47.7,M,,0000*60
$GPGSA,A,3,27,08,10,29,28,26,21,,,,,,1.8,1.2,1.4*37
$GPGSV,3,1,12,29,78,301,25,26,65,300,28,28,57,101,25,08,39,065,24*7F
$GPGSV,3,2,12,10,35,193,26,27,16,071,23,21,10,297,27,09,08,252,*79
$GPGSV,3,3,12,18,08,324,18,24,07,262,,19,07,025,,17,00,133,*7F
$GPRMC,172747.000,A,5043.9582,N,00706.0993,E,4.06,138.95,070507,,*04
$GPGGA,172748.000,5043.9569,N,00706.1007,E,1,07,1.2,63.7,M,47.7,M,,0000*67
$GPGSA,A,3,27,08,10,29,28,26,21,,,,,,1.8,1.2,1.4*37
$GPRMC,172748.000,A,5043.9569,N,00706.1007,E,4.49,156.85,070507,,*09
$GPGGA,172749.000,5043.9559,N,00706.1023,E,1,07,1.2,62.3,M,47.7,M,,0000*66
$GPGSA,A,3,27,08,10,29,28,26,21,,,,,,1.8,1.2,1.4*37
$GPRMC,172749.000,A,5043.9559,N,00706.1023,E,4.08,136.09,070507,,*0A
$GPGGA,172750.000,5043.9548,N,00706.1039,E,1,07,1.2,60.5,M,47.7,M,,0000*61
$GPGSA,A,3,27,08,10,29,28,26,21,,,,,,1.8,1.2,1.4*37
$GPRMC,172750.000,A,5043.9548,N,00706.1039,E,3.63,141.28,070507,,*00
$GPGGA,172751.000,5043.9540,N,00706.1059,E,1,07,1.2,59.4,M,47.7,M,,0000*65
$GPGSA,A,3,27,08,10,29,28,26,21,,,,,,1.8,1.2,1.4*37
$GPRMC,172751.000,A,5043.9540,N,00706.1059,E,4.46,126.87,070507,,*0B
$GPGGA,172752.000,5043.9532,N,00706.1076,E,1,07,1.2,58.6,M,47.7,M,,0000*6D
$GPGSA,A,3,27,08,10,29,28,26,21,,,,,,1.8,1.2,1.4*37
$GPGSV,3,1,12,29,78,301,24,26,65,300,25,28,57,101,24,08,39,065,21*77
$GPGSV,3,2,12,10,35,193,29,27,16,071,19,21,10,297,26,09,08,252,18*77
$GPGSV,3,3,12,18,08,324,16,24,07,262,,19,07,025,,17,00,133,*71
$GPRMC,172752.000,A,5043.9532,N,00706.1076,E,3.70,122.91,070507,,*01
$GPGGA,172753.000,5043.9526,N,00706.1092,E,1,07,1.2,58.6,M,47.7,M,,0000*63
$GPGSA,A,3,27,08,10,29,28,26,21,,,,,,1.8,1.2,1.4*37
$GPRMC,172753.000,A,5043.9526,N,00706.1092,E,4.31,113.60,070507,,*01
$GPGGA,172754.000,5043.9525,N,00706.1102,E,1,07,1.2,58.0,M,47.7,M,,0000*69
$GPGSA,A,3,27,08,10,29,28,26,21,,,,,,1.8,1.2,1.4*37
$GPRMC,172754.000,A,5043.9525,N,00706.1102,E,2.33,87.94,070507,,*3E
$GPGGA,172755.000,5043.9528,N,00706.1113,E,1,07,1.2,57.8,M,47.7,M,,0000*62
$GPGSA,A,3,27,08,10,29,28,26,21,,,,,,1.8,1.2,1.4*37
$GPRMC,172755.000,A,5043.9528,N,00706.1113,E,3.00,60.57,070507,,*35
$GPGGA,172756.000,5043.9535,N,00706.1125,E,1,08,1.1,57.4,M,47.7,M,,0000*68
$GPGSA,A,3,27,08,10,29,28,26,21,24,,,,,1.7,1.1,1.2*3B
$GPRMC,172756.000,A,5043.9535,N,00706.1125,E,2.39,35.55,070507,,*36
$GPGGA,172757.000,5043.9540,N,00706.1133,E,1,08,1.1,57.6,M,47.7,M,,0000*6E
$GPGSA,A,3,27,08,10,29,28,26,21,24,,,,,1.7,1.1,1.2*3B
$GPGSV,3,1,12,29,78,301,23,26,65,300,28,28,57,101,22,08,39,065,20*7A
$GPGSV,3,2,12,10,35,193,26,27,16,071,20,21,10,297,19,09,08,252,20*75
$GPGSV,3,3,12,18,08,324,14,24,07,262,13,19,07,025,11,17,00,133,*71
$GPRMC,172757.000,A,5043.9540,N,00706.1133,E,3.35,28.91,070507,,*3B
$GPGGA,172758.000,5043.9546,N,00706.1146,E,1,08,1.1,57.5,M,47.7,M,,0000*66
$GPGSA,A,3,27,08,10,29,28,26,21,24,,,,,1.7,1.1,1.2*3B
$GPRMC,172758.000,A,5043.9546,N,00706.1146,E,3.30,22.74,070507,,*34
$GPGGA,172759.000,5043.9550,N,00706.1151,E,1,08,1.1,57.2,M,47.7,M,,0000*61
$GPGSA,A,3,27,08,10,29,28,26,21,24,,,,,1.7,1.1,1.2*3B
$GPRMC,172759.000,A,5043.9550,N,00706.1151,E,1.43,10.45,070507,,*31
$GPGGA,172800.000,5043.9553,N,00706.1152,E,1,08,1.1,57.3,M,47.7,M,,0000*63
$GPGSA,A,3,27,08,10,29,28,26,21,24,,,,,1.7,1.1,1.2*3B
$GPRMC,172800.000,A,5043.9553,N,00706.1152,E,1.73,11.52,070507,,*36
$GPGGA,172801.000,5043.9557,N,00706.1157,E,1,08,1.1,56.6,M,47.7,M,,0000*67
$GPGSA,A,3,27,08,10,29,28,26,21,24,,,,,1.7,1.1,1.2*3B
$GPRMC,172801.000,A,5043.9557,N,00706.1157,E,0.92,38.36,070507,,*31
$GPGGA,172802.000,5043.9563,N,00706.1162,E,1,08,1.1,56.2,M,47.7,M,,0000*61
$GPGSA,A,3,27,08,10,29,28,26,21,24,,,,,1.6,1.1,1.2*3A
$GPGSV,3,1,12,29,78,301,24,26,65,300,28,28,57,101,23,08,39,065,20*7C
$GPGSV,3,2,12,10,35,193,25,27,16,071,20,21,10,297,19,09,08,252,21*77
$GPGSV,3,3,12,18,08,324,19,24,07,262,14,19,07,025,15,17,00,133,07*78
$GPRMC,172802.000,A,5043.9563,N,00706.1162,E,1.07,143.30,070507,,*05
$GPGGA,172803.000,5043.9562,N,00706.1172,E,1,08,1.1,56.4,M,47.7,M,,0000*66
$GPGSA,A,3,27,08,10,29,28,26,21,24,,,,,1.6,1.1,1.2*3A
$GPRMC,172803.000,A,5043.9562,N,00706.1172,E,1.07,58.43,070507,,*3B
$GPGGA,172804.000,5043.9564,N,00706.1183,E,1,08,1.1,55.4,M,47.7,M,,0000*6A
$GPGSA,A,3,27,08,10,29,28,26,21,24,,,,,1.6,1.1,1.2*3A
$GPRMC,172804.000,A,5043.9564,N,00706.1183,E,1.57,57.16,070507,,*3E
$GPGGA,172805.000,5043.9568,N,00706.1194,E,1,08,1.1,54.9,M,47.7,M,,0000*6D
$GPGSA,A,3,27,08,10,29,28,26,21,24,,,,,1.6,1.1,1.2*3A
$GPRMC,172805.000,A,5043.9568,N,00706.1194,E,2.15,31.13,070507,,*35
