$GPGSA,A,3,27,08,10,29,28,21,,,,,,,2.6,1.4,2.2*3D
$GPRMC,170026.000,A,5044.0968,N,00706.4303,E,1.87,172.51,070507,,*0D
$GPGGA,170027.000,5044.0974,N,00706.4311,E,1,06,1.4,68.9,M,47.7,M,,0000*66
$GPGSA,A,3,27,08,10,29,28,21,,,,,,,2.6,1.4,2.2*3D
$GPGSV,3,1,10,29,65,300,18,28,53,123,17,08,52,061,30,26,51,297,28*7F
$GPGSV,3,2,10,10,48,199,15,27,27,066,39,24,15,271,15,21,12,309,15*77
$GPGSV,3,3,10,19,08,036,,03,00,012,*7D
$GPRMC,170027.000,A,5044.0974,N,00706.4311,E,2.07,137.37,070507,,*08
$GPGGA,170028.000,5044.0978,N,00706.4315,E,1,06,1.4,69.3,M,47.7,M,,0000*6A
$GPGSA,A,3,27,08,10,29,26,21,,,,,,,2.4,1.4,2.0*33
$GPRMC,170028.000,A,5044.0978,N,00706.4315,E,0.83,148.41,070507,,*08
$GPGGA,170029.000,5044.0984,N,00706.4314,E,1,06,1.4,70.3,M,47.7,M,,0000*61
$GPGSA,A,3,27,08,10,29,26,21,,,,,,,2.4,1.4,2.0*33
$GPRMC,170029.000,A,5044.0984,N,00706.4314,E,0.79,349.67,070507,,*09
$GPGGA,170030.000,5044.0995,N,00706.4315,E,1,06,1.4,70.9,M,47.7,M,,0000*62
$GPGSA,A,3,27,08,10,29,26,21,,,,,,,2.4,1.4,2.0*33
$GPRMC,170030.000,A,5044.0995,N,00706.4315,E,1.59,359.43,070507,,*04
$GPGGA,170031.000,5044.1000,N,00706.4315,E,1,05,3.9,71.0,M,47.7,M,,0000*63
$GPGSA,A,3,27,08,29,26,21,,,,,,,,4.0,3.9,1.0*3C
$GPRMC,170031.000,A,5044.1000,N,00706.4315,E,1.85,1.14,070507,,*0C
$GPGGA,170032.000,5044.1014,N,00706.4312,E,1,06,2.3,71.1,M,47.7,M,,0000*6B
$GPGSA,A,3,27,08,29,28,26,21,,,,,,,3.2,2.3,2.3*38
$GPGSV,3,1,10,29,66,300,18,28,53,121,17,26,52,297,28,08,51,061,31*7F
$GPGSV,3,2,10,10,48,199,14,27,26,066,39,24,14,270,15,21,12,308,13*70
$GPGSV,3,3,10,19,08,035,,03,00,011,08*75
$GPRMC,170032.000,A,5044.1014,N,00706.4312,E,1.76,2.08,070507,,*0F
$GPGGA,170033.000,5044.1026,N,00706.4311,E,1,06,2.3,71.6,M,47.7,M,,0000*6F
$GPGSA,A,3,27,08,29,28,26,21,,,,,,,3.2,2.3,2.3*38
$GPRMC,170033.000,A,5044.1026,N,00706.4311,E,2.48,355.74,070507,,*08
$GPGGA,170034.000,5044.1033,N,00706.4310,E,1,06,2.3,72.0,M,47.7,M,,0000*68
$GPGSA,A,3,27,08,29,28,26,21,,,,,,,3.2,2.3,2.3*38
$GPRMC,170034.000,A,5044.1033,N,00706.4310,E,2.40,359.92,070507,,*06
$GPGGA,170035.000,5044.1042,N,00706.4311,E,1,06,2.3,72.5,M,47.7,M,,0000*6B
$GPGSA,A,3,27,08,29,28,26,21,,,,,,,3.2,2.3,2.3*38
$GPRMC,170035.000,A,5044.1042,N,00706.4311,E,2.39,7.76,070507,,*0C
$GPGGA,170036.000,5044.1047,N,00706.4312,E,1,06,2.3,72.9,M,47.7,M,,0000*62
$GPGSA,A,3,27,08,29,28,26,21,,,,,,,3.2,2.3,2.3*38
$GPRMC,170036.000,A,5044.1047,N,00706.4312,E,2.88,2.21,070507,,*04
$GPGGA,170037.000,5044.1057,N,00706.4313,E,1,06,2.3,73.6,M,47.7,M,,0000*6D
$GPGSA,A,3,27,08,29,28,26,21,,,,,,,3.2,2.3,2.3*38
$GPGSV,3,1,10,29,66,300,19,28,53,121,16,26,52,297,27,08,51,061,32*73
$GPGSV,3,2,10,10,48,199,13,27,26,066,39,24,14,270,16,21,12,308,14*73
$GPGSV,3,3,10,19,08,035,09,03,00,011,09*7D
$GPRMC,170037.000,A,5044.1057,N,00706.4313,E,2.31,16.13,070507,,*33
$GPGGA,170038.000,5044.1069,N,00706.4313,E,1,06,2.3,74.2,M,47.7,M,,0000*6C
$GPGSA,A,3,27,08,29,28,26,21,,,,,,,3.2,2.3,2.3*38
$GPRMC,170038.000,A,5044.1069,N,00706.4313,E,2.45,11.98,070507,,*36
$GPGGA,170039.000,5044.1082,N,00706.4313,E,1,06,2.3,75.0,M,47.7,M,,0000*6B
$GPGSA,A,3,27,08,29,28,26,21,,,,,,,3.2,2.3,2.3*38
$GPRMC,170039.000,A,5044.1082,N,00706.4313,E,2.32,2.43,070507,,*06
$GPGGA,170040.000,5044.1094,N,00706.4315,E,1,07,1.3,75.5,M,47.7,M,,0000*63
$GPGSA,A,3,27,08,10,29,28,26,21,,,,,,2.4,1.3,2.0*3E
$GPRMC,170040.000,A,5044.1094,N,00706.4315,E,1.25,5.20,070507,,*0E
$GPGGA,170041.000,5044.1097,N,00706.4313,E,1,05,3.9,75.3,M,47.7,M,,0000*6B
$GPGSA,A,3,27,08,29,26,21,,,,,,,,4.0,3.9,1.0*3C
$GPRMC,170041.000,A,5044.1097,N,00706.4313,E,0.58,354.02,070507,,*06
$GPGGA,170042.000,5044.1089,N,00706.4311,E,1,06,1.4,74.6,M,47.7,M,,0000*6D
$GPGSA,A,3,27,08,10,29,26,21,,,,,,,2.4,1.4,2.0*33
$GPGSV,3,1,10,29,66,300,23,28,53,121,16,26,52,297,32,08,51,061,32*7E
$GPGSV,3,2,10,10,48,199,15,27,26,066,39,24,14,270,20,21,12,308,24*73
$GPGSV,3,3,10,19,08,035,,03,00,011,14*78
$GPRMC,170042.000,A,5044.1089,N,00706.4311,E,0.42,165.16,070507,,*06
$GPGGA,170043.000,5044.1087,N,00706.4311,E,1,04,14.5,74.1,M,47.7,M,,0000*52
$GPGSA,A,3,27,08,29,26,,,,,,,,,14.5,14.5,1.0*31
$GPRMC,170043.000,A,5044.1087,N,00706.4311,E,0.08,140.66,070507,,*07
$GPGGA,170044.000,5044.1091,N,00706.4311,E,1,05,2.6,73.7,M,47.7,M,,0000*66
$GPGSA,A,3,27,08,29,28,26,,,,,,,,5.4,2.6,4.7*3C
$GPRMC,170044.000,A,5044.1091,N,00706.4311,E,0.10,118.82,070507,,*09
$GPGGA,170045.000,5044.1090,N,00706.4310,E,1,06,2.3,73.0,M,47.7,M,,0000*66
$GPGSA,A,3,27,08,29,28,26,21,,,,,,,3.2,2.3,2.3*38
$GPRMC,170045.000,A,5044.1090,N,00706.4310,E,1.63,164.74,070507,,*0F
$GPGGA,170046.000,5044.1090,N,00706.4309,E,1,06,2.3,72.6,M,47.7,M,,0000*6A
$GPGSA,A,3,27,08,29,28,26,21,,,,,,,3.2,2.3,2.3*38
$GPRMC,170046.000,A,5044.1090,N,00706.4309,E,0.91,172.42,070507,,*0A
$GPGGA,170047.000,5044.1075,N,00706.4307,E,1,07,1.3,70.9,M,47.7,M,,0000*61
$GPGSA,A,3,27,08,10,29,28,26,21,,,,,,2.4,1.3,2.0*3E
$GPGSV,3,1,10,29,66,300,18,28,53,121,14,26,52,297,33,08,51,061,33*74
$GPGSV,3,2,10,10,48,199,15,27,26,066,40,24,14,270,19,21,12,308,17*77
$GPGSV,3,3,10,19,08,035,,03,00,011,07*7A
$GPRMC,170047.000,A,5044.1075,N,00706.4307,E,1.15,168.21,070507,,*0D
$GPGGA,170048.000,5044.1068,N,00706.4305,E,1,07,1.3,70.0,M,47.7,M,,0000*69
$GPGSA,A,3,27,08,10,29,28,26,21,,,,,,2.4,1.3,2.0*3E
$GPRMC,170048.000,A,5044.1068,N,00706.4305,E,1.60,188.25,070507,,*04
$GPGGA,170049.000,5044.1062,N,00706.4296,E,1,07,1.3,69.4,M,47.7,M,,0000*65
$GPGSA,A,3,27,08,10,29,28,26,21,,,,,,2.4,1.3,2.0*3E
$GPRMC,170049.000,A,5044.1062,N,00706.4296,E,3.11,232.49,070507,,*08
$GPGGA,170050.000,5044.1059,N,00706.4286,E,1,07,1.3,69.2,M,47.7,M,,0000*62
$GPGSA,A,3,27,08,10,29,28,26,21,,,,,,2.4,1.3,2.0*3E
$GPRMC,170050.000,A,5044.1059,N,00706.4286,E,1.80,263.64,070507,,*08
$GPGGA,170051.000,5044.1058,N,00706.4274,E,1,07,1.3,69.6,M,47.7,M,,0000*6B
$GPGSA,A,3,27,08,10,29,28,26,21,,,,,,2.4,1.3,2.0*3E
$GPRMC,170051.000,A,5044.1058,N,00706.4274,E,3.23,271.18,070507,,*06
$GPGGA,170052.000,5044.1057,N,00706.4259,E,1,07,1.3,69.6,M,47.7,M,,0000*68
$GPGSA,A,3,27,08,10,29,28,26,21,,,,,,2.4,1.3,2.0*3E
$GPGSV,3,1,10,29,66,300,30,28,53,121,22,26,52,297,28,08,51,061,33*71
$GPGSV,3,2,10,10,48,199,20,27,26,066,35,24,14,270,22,21,12,308,20*7F
$GPGSV,3,3,10,19,08,035,,03,00,011,12*7E
$GPRMC,170052.000,A,5044.1057,N,00706.4259,E,3.23,251.11,070507,,*0E
$GPGGA,170053.000,5044.1052,N,00706.4246,E,1,07,1.3,70.0,M,47.7,M,,0000*6C
$GPGSA,A,3,27,08,10,29,28,26,21,,,,,,2.4,1.3,2.0*3E
$GPRMC,170053.000,A,5044.1052,N,00706.4246,E,2.86,248.18,070507,,*0B
$GPGGA,170054.000,5044.1052,N,00706.4236,E,1,07,1.3,70.0,M,47.7,M,,0000*6C
$GPGSA,A,3,27,08,10,29,28,26,21,,,,,,2.4,1.3,2.0*3E
$GPRMC,170054.000,A,5044.1052,N,00706.4236,E,1.90,255.78,070507,,*05
$GPGGA,170055.000,5044.1050,N,00706.4225,E,1,07,1.3,69.6,M,47.7,M,,0000*63
$GPGSA,A,3,27,08,10,29,28,26,21,,,,,,2.4,1.3,2.0*3E
$GPRMC,170055.000,A,5044.1050,N,00706.4225,E,2.78,255.68,070507,,*00
$GPGGA,170056.000,5044.1046,N,00706.4216,E,1,07,1.3,69.0,M,47.7,M,,0000*61
$GPGSA,A,3,27,08,10,29,28,26,21,,,,,,2.4,1.3,2.0*3E
$GPRMC,170056.000,A,5044.1046,N,00706.4216,E,1.77,220.64,070507,,*06
$GPGGA,170057.000,5044.1041,N,00706.4212,E,1,07,1.3,69.6,M,47.7,M,,0000*65
$GPGSA,A,3,27,08,10,29,28,26,21,,,,,,2.4,1.3,2.0*3E
$GPGSV,3,1,10,29,66,300,29,28,53,121,23,26,52,297,28,08,51,061,22*78
$GPGSV,3,2,10,10,48,199,21,27,26,066,18,24,14,270,22,21,12,308,24*75
$GPGSV,3,3,10,19,08,035,14,03,00,011,*78
$GPRMC,170057.000,A,5044.1041,N,00706.4212,E,1.17,203.12,070507,,*02
$GPGGA,170058.000,5044.1030,N,00706.4209,E,1,07,1.3,69.1,M,47.7,M,,0000*61
$GPGSA,A,3,27,08,10,29,28,26,21,,,,,,2.3,1.3,2.0*39
$GPRMC,170058.000,A,5044.1030,N,00706.4209,E,1.90,175.60,070507,,*09
$GPGGA,170059.000,5044.1022,N,00706.4210,E,1,06,1.5,68.6,M,47.7,M,,0000*6A
$GPGSA,A,3,08,10,29,28,26,21,,,,,,,2.7,1.5,2.2*3C
$GPRMC,170059.000,A,5044.1022,N,00706.4210,E,1.01,129.15,070507,,*00
$GPGGA,170100.000,5044.1013,N,00706.4216,E,1,06,1.5,67.8,M,47.7,M,,0000*62
$GPGSA,A,3,08,10,29,28,26,21,,,,,,,2.7,1.5,2.2*3C
$GPRMC,170100.000,A,5044.1013,N,00706.4216,E,2.59,136.42,070507,,*0B
$GPGGA,170101.000,5044.1000,N,00706.4220,E,1,07,1.3,67.4,M,47.7,M,,0000*6F
$GPGSA,A,3,27,08,10,29,28,26,21,,,,,,2.3,1.3,2.0*39
$GPRMC,170101.000,A,5044.1000,N,00706.4220,E,2.28,169.00,070507,,*07
$GPGGA,170102.000,5044.0988,N,00706.4222,E,1,07,1.3,66.4,M,47.7,M,,0000*67
$GPGSA,A,3,27,08,10,29,28,26,21,,,,,,2.3,1.3,2.0*39
$GPGSV,3,1,10,29,66,300,25,28,53,121,23,26,52,297,28,08,51,061,33*74
$GPGSV,3,2,10,10,48,199,26,27,26,066,22,24,14,270,22,21,12,308,21*7E
$GPGSV,3,3,10,19,08,035,14,03,00,011,*78
$GPRMC,170102.000,A,5044.0988,N,00706.4222,E,2.70,162.00,070507,,*08
$GPGGA,170103.000,5044.0975,N,00706.4227,E,1,07,1.3,64.7,M,47.7,M,,0000*60
$GPGSA,A,3,27,08,10,29,28,26,21,,,,,,2.3,1.3,2.0*39
$GPRMC,170103.000,A,5044.0975,N,00706.4227,E,2.12,156.85,070507,,*00
$GPGGA,170104.000,5044.0961,N,00706.4225,E,1,07,1.3,63.5,M,47.7,M,,0000*65
$GPGSA,A,3,27,08,10,29,28,26,21,,,,,,2.3,1.3,2.0*39
$GPRMC,170104.000,A,5044.0961,N,00706.4225,E,2.27,160.71,070507,,*08
$GPGGA,170105.000,5044.0950,N,00706.4225,E,1,07,1.3,62.8,M,47.7,M,,0000*6A
$GPGSA,A,3,27,08,10,29,28,26,21,,,,,,2.3,1.3,2.0*39
$GPRMC,170105.000,A,5044.0950,N,00706.4225,E,1.11,134.89,070507,,*0B
$GPGGA,170106.000,5044.0943,N,00706.4226,E,1,07,1.3,62.4,M,47.7,M,,0000*64
$GPGSA,A,3,27,08,10,29,28,26,21,,,,,,2.3,1.3,2.0*39
$GPRMC,170106.000,A,5044.0943,N,00706.4226,E,1.12,98.06,070507,,*3A
$GPGGA,170107.000,5044.0939,N,00706.4228,E,1,07,1.3,62.5,M,47.7,M,,0000*67
$GPGSA,A,3,27,08,10,29,28,26,21,,,,,,2.3,1.3,2.0*39
$GPGSV,3,1,10,29,66,300,25,28,53,121,24,26,52,297,26,08,51,061,23*7C
$GPGSV,3,2,10,10,48,199,33,27,26,066,21,24,14,270,17,21,12,308,20*7E
$GPGSV,3,3,10,19,08,035,14,03,00,011,*78
$GPRMC,170107.000,A,5044.0939,N,00706.4228,E,1.28,76.96,070507,,*38
$GPGGA,170108.000,5044.0934,N,00706.4233,E,1,07,1.3,62.7,M,47.7,M,,0000*6D
$GPGSA,A,3,27,08,10,29,28,26,21,,,,,,2.3,1.3,2.0*39
$GPRMC,170108.000,A,5044.0934,N,00706.4233,E,1.33,110.80,070507,,*0C
$GPGGA,170109.000,5044.0924,N,00706.4234,E,1,07,1.3,62.2,M,47.7,M,,0000*6F
$GPGSA,A,3,27,08,10,29,28,26,21,,,,,,2.3,1.3,2.0*39
$GPRMC,170109.000,A,5044.0924,N,00706.4234,E,1.08,116.91,070507,,*05
$GPGGA,170110.000,5044.0918,N,00706.4240,E,1,06,1.5,61.5,M,47.7,M,,0000*68
$GPGSA,A,3,27,08,10,29,28,26,,,,,,,4.0,1.5,3.7*3F
$GPRMC,170110.000,A,5044.0918,N,00706.4240,E,1.41,106.96,070507,,*0A
$GPGGA,170111.000,5044.0917,N,00706.4249,E,1,06,1.5,60.1,M,47.7,M,,0000*6A
$GPGSA,A,3,27,08,10,29,28,26,,,,,,,4.0,1.5,3.7*3F
$GPRMC,170111.000,A,5044.0917,N,00706.4249,E,1.62,86.86,070507,,*34
$GPGGA,170112.000,5044.0916,N,00706.4259,E,1,06,1.5,60.1,M,47.7,M,,0000*69
$GPGSA,A,3,27,08,10,29,28,26,,,,,,,4.0,1.5,3.7*3F
$GPGSV,3,1,10,29,66,300,29,28,53,121,25,26,52,297,36,08,51,061,23*70
$GPGSV,3,2,10,10,48,199,33,27,26,066,20,24,14,270,24,21,12,308,10*7C
$GPGSV,3,3,10,19,08,035,13,03,00,011,10*7E
$GPRMC,170112.000,A,5044.0916,N,00706.4259,E,1.84,92.62,070507,,*30
$GPGGA,170113.000,5044.0914,N,00706.4268,E,1,06,1.5,58.7,M,47.7,M,,0000*65
$GPGSA,A,3,27,08,10,29,28,26,,,,,,,4.0,1.5,3.7*3F
$GPRMC,170113.000,A,5044.0914,N,00706.4268,E,1.29,117.44,070507,,*0E
$GPGGA,170114.000,5044.0912,N,00706.4282,E,1,06,1.5,58.2,M,47.7,M,,0000*65
$GPGSA,A,3,27,08,10,29,28,26,,,,,,,4.0,1.5,3.7*3F
$GPRMC,170114.000,A,5044.0912,N,00706.4282,E,2.28,83.97,070507,,*3B
$GPGGA,170115.000,5044.0912,N,00706.4300,E,1,06,1.5,57.1,M,47.7,M,,0000*63
$GPGSA,A,3,27,08,10,29,28,26,,,,,,,4.0,1.5,3.7*3F
$GPRMC,170115.000,A,5044.0912,N,00706.4300,E,3.27,80.56,070507,,*31
$GPGGA,170116.000,5044.0914,N,00706.4315,E,1,06,1.5,55.8,M,47.7,M,,0000*69
$GPGSA,A,3,27,08,10,29,28,26,,,,,,,4.0,1.5,3.7*3F
$GPRMC,170116.000,A,5044.0914,N,00706.4315,E,2.23,73.32,070507,,*3B
$GPGGA,170117.000,5044.0916,N,00706.4325,E,1,06,1.5,53.6,M,47.7,M,,0000*61
$GPGSA,A,3,27,08,10,29,28,26,,,,,,,4.0,1.5,3.7*3F
$GPGSV,3,1,10,29,66,300,25,28,53,121,24,26,52,297,30,08,51,061,22*7A
$GPGSV,3,2,10,10,48,199,32,27,26,066,19,24,14,270,23,21,12,308,08*79
$GPGSV,3,3,10,19,08,035,21,03,00,011,*7E
$GPRMC,170117.000,A,5044.0916,N,00706.4325,E,1.91,65.59,070507,,*3B
$GPGGA,170118.000,5044.0916,N,00706.4339,E,1,06,1.5,50.3,M,47.7,M,,0000*65
$GPGSA,A,3,27,08,10,29,28,26,,,,,,,4.0,1.5,3.7*3F
$GPRMC,170118.000,A,5044.0916,N,00706.4339,E,2.17,80.54,070507,,*32
$GPGGA,170119.000,5044.0915,N,00706.4356,E,1,06,1.5,48.6,M,47.7,M,,0000*62
$GPGSA,A,3,27,08,10,29,28,26,,,,,,,4.0,1.5,3.7*3F
$GPRMC,170119.000,A,5044.0915,N,00706.4356,E,3.48,90.80,070507,,*3A
$GPGGA,170120.000,5044.0913,N,00706.4374,E,1,07,1.3,45.5,M,47.7,M,,0000*67
$GPGSA,A,3,27,08,10,29,28,26,21,,,,,,2.3,1.3,1.9*33
$GPRMC,170120.000,A,5044.0913,N,00706.4374,E,3.61,90.97,070507,,*3B
$GPGGA,170121.000,5044.0914,N,00706.4392,E,1,07,1.3,45.4,M,47.7,M,,0000*68
$GPGSA,A,3,27,08,10,29,28,26,21,,,,,,2.3,1.3,1.9*33
$GPRMC,170121.000,A,5044.0914,N,00706.4392,E,2.95,84.08,070507,,*3C
$GPGGA,170122.000,5044.0918,N,00706.4405,E,1,07,1.3,45.2,M,47.7,M,,0000*68
$GPGSA,A,3,27,08,10,29,28,26,21,,,,,,2.3,1.3,1.9*33
$GPGSV,3,1,10,29,66,300,32,28,53,121,24,26,52,297,34,08,51,061,23*79
$GPGSV,3,2,10,10,48,199,33,27,26,066,27,24,14,270,24,21,12,308,19*72
$GPGSV,3,3,10,19,08,035,24,03,00,011,*7B
$GPRMC,170122.000,A,5044.0918,N,00706.4405,E,1.70,65.18,070507,,*3C
$GPGGA,170123.000,5044.0920,N,00706.4417,E,1,07,1.3,44.7,M,47.7,M,,0000*65
$GPGSA,A,3,27,08,10,29,28,26,21,,,,,,2.3,1.3,1.9*33
$GPRMC,170123.000,A,5044.0920,N,00706.4417,E,2.70,77.45,070507,,*3D
$GPGGA,170124.000,5044.0923,N,00706.4432,E,1,07,1.3,44.7,M,47.7,M,,0000*66
$GPGSA,A,3,27,08,10,29,28,26,21,,,,,,2.3,1.3,1.9*33
$GPRMC,170124.000,A,5044.0923,N,00706.4432,E,3.28,80.32,070507,,*3A
$GPGGA,170125.000,5044.0924,N,00706.4453,E,1,07,1.3,46.1,M,47.7,M,,0000*63
$GPGSA,A,3,27,08,10,29,28,26,21,,,,,,2.3,1.3,1.9*33
$GPRMC,170125.000,A,5044.0924,N,00706.4453,E,2.63,97.65,070507,,*31
$GPGGA,170126.000,5044.0925,N,00706.4467,E,1,07,1.3,46.9,M,47.7,M,,0000*6E
$GPGSA,A,3,27,08,10,29,28,26,21,,,,,,2.3,1.3,1.9*33
$GPRMC,170126.000,A,5044.0925,N,00706.4467,E,1.43,97.27,070507,,*33
$GPGGA,170127.000,5044.0925,N,00706.4481,E,1,07,1.3,46.7,M,47.7,M,,0000*69
$GPGSA,A,3,27,08,10,29,28,26,21,,,,,,2.3,1.3,1.9*33
$GPGSV,3,1,10,29,66,300,31,28,53,121,23,26,52,297,31,08,51,061,25*7E
$GPGSV,3,2,10,10,48,199,24,27,26,066,26,24,14,270,23,21,12,308,26*7E
$GPGSV,3,3,10,19,08,035,30,03,00,011,09*77
$GPRMC,170127.000,A,5044.0925,N,00706.4481,E,2.72,91.75,070507,,*3A
$GPGGA,170128.000,5044.0927,N,00706.4501,E,1,07,1.3,46.1,M,47.7,M,,0000*6B
$GPGSA,A,3,27,08,10,29,28,26,21,,,,,,2.3,1.3,1.9*33
$GPRMC,170128.000,A,5044.0927,N,00706.4501,E,3.32,78.17,070507,,*38
$GPGGA,170129.000,5044.0929,N,00706.4518,E,1,07,1.3,46.4,M,47.7,M,,0000*69
$GPGSA,A,3,27,08,10,29,28,26,21,,,,,,2.3,1.3,1.9*33
$GPRMC,170129.000,A,5044.0929,N,00706.4518,E,2.91,87.78,070507,,*3E
$GPGGA,170130.000,5044.0925,N,00706.4532,E,1,07,1.3,46.1,M,47.7,M,,0000*60
$GPGSA,A,3,27,08,10,29,28,26,21,,,,,,2.3,1.3,1.9*33
$GPRMC,170130.000,A,5044.0925,N,00706.4532,E,2.76,137.66,070507,,*0E
$GPGGA,170131.000,5044.0921,N,00706.4545,E,1,07,1.3,46.0,M,47.7,M,,0000*64
$GPGSA,A,3,27,08,10,29,28,26,21,,,,,,2.3,1.3,1.9*33
$GPRMC,170131.000,A,5044.0921,N,00706.4545,E,2.87,114.01,070507,,*05
$GPGGA,170132.000,5044.0922,N,00706.4560,E,1,07,1.3,47.1,M,47.7,M,,0000*63
$GPGSA,A,3,27,08,10,29,28,26,21,,,,,,2.3,1.3,1.9*33
$GPGSV,3,1,10,29,66,300,29,28,53,121,23,26,52,297,31,08,51,061,25*77
$GPGSV,3,2,10,10,48,199,24,27,26,066,23,24,14,270,24,21,12,308,27*7D
$GPGSV,3,3,10,19,08,035,35,03,00,011,*7B
$GPRMC,170132.000,A,5044.0922,N,00706.4560,E,2.82,88.07,070507,,*35
$GPGGA,170133.000,5044.0922,N,00706.4575,E,1,07,1.3,46.3,M,47.7,M,,0000*65
$GPGSA,A,3,27,08,10,29,28,26,21,,,,,,2.3,1.3,1.9*33
$GPRMC,170133.000,A,5044.0922,N,00706.4575,E,2.88,88.53,070507,,*3B
$GPGGA,170134.000,5044.0925,N,00706.4589,E,1,07,1.3,46.2,M,47.7,M,,0000*67
$GPGSA,A,3,27,08,10,29,28,26,21,,,,,,2.3,1.3,1.9*33
$GPRMC,170134.000,A,5044.0925,N,00706.4589,E,2.69,83.78,070507,,*35
$GPGGA,170135.000,5044.0925,N,00706.4603,E,1,07,1.3,45.4,M,47.7,M,,0000*62
$GPGSA,A,3,27,08,10,29,28,26,21,,,,,,2.3,1.3,1.9*33
$GPRMC,170135.000,A,5044.0925,N,00706.4603,E,3.19,89.14,070507,,*33
$GPGGA,170136.000,5044.0930,N,00706.4620,E,1,07,1.3,46.7,M,47.7,M,,0000*64
$GPGSA,A,3,27,08,10,29,28,26,21,,,,,,2.3,1.3,1.9*33
$GPRMC,170136.000,A,5044.0930,N,00706.4620,E,2.36,72.35,070507,,*3E
$GPGGA,170137.000,5044.0934,N,00706.4636,E,1,07,1.3,47.8,M,47.7,M,,0000*68
$GPGSA,A,3,27,08,10,29,28,26,21,,,,,,2.3,1.3,1.9*33
$GPGSV,3,1,10,29,66,300,25,28,53,121,22,26,52,297,30,08,51,061,25*7B
$GPGSV,3,2,10,10,48,199,24,27,26,066,24,24,14,270,24,21,12,308,37*7B
$GPGSV,3,3,10,19,08,035,33,03,00,011,16*7A
$GPRMC,170137.000,A,5044.0934,N,00706.4636,E,2.80,83.55,070507,,*39
$GPGGA,170138.000,5044.0935,N,00706.4655,E,1,07,1.3,47.7,M,47.7,M,,0000*6C
$GPGSA,A,3,27,08,10,29,28,26,21,,,,,,2.3,1.3,1.9*33
$GPRMC,170138.000,A,5044.0935,N,00706.4655,E,3.99,69.67,070507,,*3E
$GPGGA,170139.000,5044.0935,N,00706.4675,E,1,07,1.3,47.2,M,47.7,M,,0000*6A
$GPGSA,A,3,27,08,10,29,28,26,21,,,,,,2.3,1.3,1.9*33
$GPRMC,170139.000,A,5044.0935,N,00706.4675,E,3.79,81.53,070507,,*32
$GPGGA,170140.000,5044.0934,N,00706.4698,E,1,07,1.3,47.8,M,47.7,M,,0000*6C
$GPGSA,A,3,27,08,10,29,28,26,21,,,,,,2.3,1.3,1.9*33
$GPRMC,170140.000,A,5044.0934,N,00706.4698,E,3.87,107.02,070507,,*04
$GPGGA,170141.000,5044.0935,N,00706.4724,E,1,07,1.3,48.2,M,47.7,M,,0000*6F
$GPGSA,A,3,27,08,10,29,28,26,21,,,,,,2.3,1.3,1.9*33
$GPRMC,170141.000,A,5044.0935,N,00706.4724,E,3.70,91.15,070507,,*32
$GPGGA,170142.000,5044.0935,N,00706.4748,E,1,07,1.3,48.9,M,47.7,M,,0000*6D
$GPGSA,A,3,27,08,10,29,28,26,21,,,,,,2.3,1.3,1.9*33
$GPGSV,3,1,10,29,66,300,24,28,53,121,22,26,52,297,28,08,51,061,31*76
$GPGSV,3,2,10,10,48,199,23,27,26,066,32,24,14,270,17,21,12,308,33*7F
$GPGSV,3,3,10,19,08,035,40,03,00,011,18*70
$GPRMC,170142.000,A,5044.0935,N,00706.4748,E,3.72,98.85,070507,,*39
$GPGGA,170143.000,5044.0936,N,00706.4775,E,1,07,1.3,48.8,M,47.7,M,,0000*60
$GPGSA,A,3,27,08,10,29,28,26,21,,,,,,2.3,1.3,1.9*33
$GPRMC,170143.000,A,5044.0936,N,00706.4775,E,3.76,121.73,070507,,*0B
$GPGGA,170144.000,5044.0930,N,00706.4793,E,1,07,1.3,48.9,M,47.7,M,,0000*68
$GPGSA,A,3,27,08,10,29,28,26,21,,,,,,2.3,1.3,1.9*33
$GPRMC,170144.000,A,5044.0930,N,00706.4793,E,3.31,146.72,070507,,*01
$GPGGA,170145.000,5044.0927,N,00706.4802,E,1,07,1.3,49.6,M,47.7,M,,0000*66
$GPGSA,A,3,27,08,10,29,28,26,21,,,,,,2.3,1.3,1.9*33
$GPRMC,170145.000,A,5044.0927,N,00706.4802,E,0.65,149.21,070507,,*0A
$GPGGA,170146.000,5044.0928,N,00706.4807,E,1,07,1.3,50.4,M,47.7,M,,0000*65
$GPGSA,A,3,27,08,10,29,28,26,21,,,,,,2.3,1.3,1.9*33
$GPRMC,170146.000,A,5044.0928,N,00706.4807,E,1.16,221.33,070507,,*08
$GPGGA,170147.000,5044.0926,N,00706.4807,E,1,06,1.4,51.5,M,47.7,M,,0000*6C
$GPGSA,A,3,27,08,10,28,26,21,,,,,,,2.8,1.4,2.4*3A
$GPGSV,3,1,10,29,66,300,21,28,53,121,28,26,52,297,22,08,51,061,37*75
$GPGSV,3,2,10,10,48,199,20,27,26,066,36,24,14,270,16,21,12,308,25*7E
$GPGSV,3,3,10,19,08,035,37,03,00,011,22*79
$GPRMC,170147.000,A,5044.0926,N,00706.4807,E,3.03,236.24,070507,,*01
$GPGGA,170148.000,5044.0920,N,00706.4799,E,1,06,1.4,52.9,M,47.7,M,,0000*62
$GPGSA,A,3,27,08,10,28,26,21,,,,,,,2.8,1.4,2.4*3A
$GPRMC,170148.000,A,5044.0920,N,00706.4799,E,4.80,223.87,070507,,*01
$GPGGA,170149.000,5044.0911,N,00706.4794,E,1,07,1.3,52.2,M,47.7,M,,0000*61
$GPGSA,A,3,27,08,10,29,28,26,21,,,,,,2.3,1.3,1.9*33
$GPRMC,170149.000,A,5044.0911,N,00706.4794,E,3.49,215.63,070507,,*02
$GPGGA,170150.000,5044.0899,N,00706.4791,E,1,07,1.3,51.3,M,47.7,M,,0000*6F
$GPGSA,A,3,27,08,10,29,28,26,21,,,,,,2.3,1.3,1.9*33
$GPRMC,170150.000,A,5044.0899,N,00706.4791,E,3.69,213.98,070507,,*0E
$GPGGA,170151.000,5044.0891,N,00706.4788,E,1,07,1.3,51.2,M,47.7,M,,0000*6F
$GPGSA,A,3,27,08,10,29,28,26,21,,,,,,2.3,1.3,1.9*33
$GPRMC,170151.000,A,5044.0891,N,00706.4788,E,3.06,221.62,070507,,*02
$GPGGA,170152.000,5044.0879,N,00706.4783,E,1,07,1.3,49.7,M,47.7,M,,0000*6D
$GPGSA,A,3,27,08,10,29,28,26,21,,,,,,2.3,1.3,1.9*33
$GPGSV,3,1,10,29,66,300,20,28,53,121,29,26,52,297,21,08,51,061,28*78
$GPGSV,3,2,10,10,48,199,24,27,26,066,36,24,14,270,16,21,12,308,25*7A
$GPGSV,3,3,10,19,08,035,36,03,00,011,*78
$GPRMC,170152.000,A,5044.0879,N,00706.4783,E,3.70,220.10,070507,,*09
$GPGGA,170153.000,5044.0865,N,00706.4780,E,1,07,1.3,48.9,M,47.7,M,,0000*6D
$GPGSA,A,3,27,08,10,29,28,26,21,,,,,,2.3,1.3,1.9*33
$GPRMC,170153.000,A,5044.0865,N,00706.4780,E,3.78,200.21,070507,,*0E
$GPGGA,170154.000,5044.0851,N,00706.4779,E,1,07,1.3,47.5,M,47.7,M,,0000*68
$GPGSA,A,3,27,08,10,29,28,26,21,,,,,,2.3,1.3,1.9*33
$GPRMC,170154.000,A,5044.0851,N,00706.4779,E,3.60,206.46,070507,,*06
$GPGGA,170155.000,5044.0842,N,00706.4773,E,1,07,1.3,46.9,M,47.7,M,,0000*6C
$GPGSA,A,3,27,08,10,29,28,26,21,,,,,,2.3,1.3,1.9*33
$GPRMC,170155.000,A,5044.0842,N,00706.4773,E,2.25,240.60,070507,,*09
$GPGGA,170156.000,5044.0834,N,00706.4767,E,1,07,1.3,45.3,M,47.7,M,,0000*62
$GPGSA,A,3,27,08,10,29,28,26,21,,,,,,2.3,1.3,1.9*33
$GPRMC,170156.000,A,5044.0834,N,00706.4767,E,2.07,242.03,070507,,*09
$GPGGA,170157.000,5044.0829,N,00706.4759,E,1,07,1.3,43.8,M,47.7,M,,0000*6F
$GPGSA,A,3,27,08,10,29,28,26,21,,,,,,2.3,1.3,1.9*33
$GPGSV,3,1,10,29,66,300,21,28,53,121,30,26,52,297,22,08,51,061,27*7D
$GPGSV,3,2,10,10,48,199,26,27,26,066,27,24,14,270,17,21,12,308,19*76
$GPGSV,3,3,10,19,08,035,32,03,00,011,07*7B
$GPRMC,170157.000,A,5044.0829,N,00706.4759,E,2.58,263.02,070507,,*01
$GPGGA,170158.000,5044.0824,N,00706.4750,E,1,07,1.3,43.4,M,47.7,M,,0000*68
$GPGSA,A,3,27,08,10,29,28,26,21,,,,,,2.3,1.3,1.9*33
$GPRMC,170158.000,A,5044.0824,N,00706.4750,E,2.86,243.66,070507,,*09
$GPGGA,170159.000,5044.0815,N,00706.4741,E,1,07,1.3,42.3,M,47.7,M,,0000*6D
$GPGSA,A,3,27,08,10,29,28,26,21,,,,,,2.3,1.3,1.9*33
$GPRMC,170159.000,A,5044.0815,N,00706.4741,E,3.02,242.93,070507,,*0C
$GPGGA,170200.000,5044.0809,N,00706.4734,E,1,07,1.3,42.3,M,47.7,M,,0000*6D
$GPGSA,A,3,27,08,10,29,28,26,21,,,,,,2.3,1.3,1.9*33
$GPRMC,170200.000,A,5044.0809,N,00706.4734,E,2.29,197.48,070507,,*09
$GPGGA,170201.000,5044.0807,N,00706.4730,E,1,07,1.3,41.6,M,47.7,M,,0000*60
$GPGSA,A,3,27,08,10,29,28,26,21,,,,,,2.3,1.3,1.9*33
$GPRMC,170201.000,A,5044.0807,N,00706.4730,E,0.66,308.82,070507,,*09
$GPGGA,170202.000,5044.0804,N,00706.4721,E,1,07,1.3,41.2,M,47.7,M,,0000*64
$GPGSA,A,3,27,08,10,29,28,26,21,,,,,,2.3,1.3,1.9*33
$GPGSV,3,1,10,29,66,300,20,28,53,121,29,26,52,297,21,08,51,061,27*77
$GPGSV,3,2,10,10,48,199,25,27,26,066,21,24,14,270,18,21,12,308,18*7D
$GPGSV,3,3,10,19,08,035,27,03,00,011,*78
$GPRMC,170202.000,A,5044.0804,N,00706.4721,E,2.12,260.37,070507,,*09
$GPGGA,170203.000,5044.0801,N,00706.4705,E,1,07,1.3,40.6,M,47.7,M,,0000*63
$GPGSA,A,3,27,08,10,29,28,26,21,,,,,,2.3,1.3,1.9*33
$GPRMC,170203.000,A,5044.0801,N,00706.4705,E,3.36,271.53,070507,,*0E
$GPGGA,170204.000,5044.0799,N,00706.4695,E,1,07,1.3,41.0,M,47.7,M,,0000*65
$GPGSA,A,3,27,08,10,29,28,26,21,,,,,,2.3,1.3,1.9*33
$GPRMC,170204.000,A,5044.0799,N,00706.4695,E,2.27,261.97,070507,,*07
$GPGGA,170205.000,5044.0793,N,00706.4682,E,1,07,1.3,40.9,M,47.7,M,,0000*60
$GPGSA,A,3,27,08,10,29,28,26,21,,,,,,2.3,1.3,1.9*33
$GPRMC,170205.000,A,5044.0793,N,00706.4682,E,3.43,248.95,070507,,*00
$GPGGA,170206.000,5044.0782,N,00706.4670,E,1,07,1.3,41.1,M,47.7,M,,0000*67
$GPGSA,A,3,27,08,10,29,28,26,21,,,,,,2.3,1.3,1.9*33
$GPRMC,170206.000,A,5044.0782,N,00706.4670,E,3.65,215.66,070507,,*0E
$GPGGA,170207.000,5044.0777,N,00706.4656,E,1,07,1.3,41.7,M,47.7,M,,0000*6E
$GPGSA,A,3,27,08,10,29,28,26,21,,,,,,2.3,1.3,1.9*33
$GPGSV,3,1,10,29,66,300,20,28,53,121,25,26,52,297,21,08,51,061,27*7B
$GPGSV,3,2,10,10,48,199,26,27,26,066,23,24,14,270,19,21,12,308,18*7D
$GPGSV,3,3,10,19,08,035,21,03,00,011,11*7E
$GPRMC,170207.000,A,5044.0777,N,00706.4656,E,3.62,248.82,070507,,*04
$GPGGA,170208.000,5044.0773,N,00706.4633,E,1,07,1.3,42.4,M,47.7,M,,0000*66
$GPGSA,A,3,27,08,10,29,28,26,21,,,,,,2.3,1.3,1.9*33
$GPRMC,170208.000,A,5044.0773,N,00706.4633,E,3.21,244.48,070507,,*01
$GPGGA,170209.000,5044.0775,N,00706.4617,E,1,07,1.3,43.4,M,47.7,M,,0000*66
$GPGSA,A,3,27,08,10,29,28,26,21,,,,,,2.3,1.3,1.9*33
$GPRMC,170209.000,A,5044.0775,N,00706.4617,E,1.77,249.53,070507,,*06
$GPGGA,170210.000,5044.0775,N,00706.4604,E,1,07,1.3,44.4,M,47.7,M,,0000*6B
$GPGSA,A,3,27,08,10,29,28,26,21,,,,,,2.3,1.3,1.9*33
$GPRMC,170210.000,A,5044.0775,N,00706.4604,E,1.64,213.16,070507,,*00
$GPGGA,170211.000,5044.0778,N,00706.4592,E,1,07,1.3,44.9,M,47.7,M,,0000*66
$GPGSA,A,3,27,08,10,29,28,26,21,,,,,,2.3,1.3,1.9*33
$GPRMC,170211.000,A,5044.0778,N,00706.4592,E,1.97,290.11,070507,,*00
$GPGGA,170212.000,5044.0778,N,00706.4578,E,1,07,1.3,45.5,M,47.7,M,,0000*6C
$GPGSA,A,3,27,08,10,29,28,26,21,,,,,,2.3,1.3,1.9*33
$GPGSV,3,1,10,29,66,300,21,28,53,121,31,26,52,297,22,08,51,061,26*7D
$GPGSV,3,2,10,10,48,199,26,27,26,066,19,24,14,270,25,21,12,308,18*7B
$GPGSV,3,3,10,19,08,035,21,03,00,011,*7E
$GPRMC,170212.000,A,5044.0778,N,00706.4578,E,1.06,268.65,070507,,*0B
$GPGGA,170213.000,5044.0781,N,00706.4566,E,1,07,1.3,46.6,M,47.7,M,,0000*64
$GPGSA,A,3,27,08,10,29,28,26,21,,,,,,2.3,1.3,1.9*33
$GPRMC,170213.000,A,5044.0781,N,00706.4566,E,2.34,271.08,070507,,*02
$GPGGA,170214.000,5044.0787,N,00706.4553,E,1,07,1.3,47.7,M,47.7,M,,0000*63
$GPGSA,A,3,27,08,10,29,28,26,21,,,,,,2.3,1.3,1.9*33
$GPRMC,170214.000,A,5044.0787,N,00706.4553,E,3.27,306.61,070507,,*08
$GPGGA,170215.000,5044.0789,N,00706.4538,E,1,07,1.3,49.2,M,47.7,M,,0000*6A
$GPGSA,A,3,27,08,10,29,28,26,21,,,,,,2.3,1.3,1.9*33
$GPRMC,170215.000,A,5044.0789,N,00706.4538,E,2.52,285.21,070507,,*07
$GPGGA,170216.000,5044.0785,N,00706.4519,E,1,07,1.3,51.1,M,47.7,M,,0000*6C
$GPGSA,A,3,27,08,10,29,28,26,21,,,,,,2.3,1.3,1.9*33
$GPRMC,170216.000,A,5044.0785,N,00706.4519,E,2.81,256.12,070507,,*0B
$GPGGA,170217.000,5044.0781,N,00706.4501,E,1,07,1.3,52.8,M,47.7,M,,0000*6A
$GPGSA,A,3,27,08,10,29,28,26,21,,,,,,2.3,1.3,1.9*33
$GPGSV,3,1,10,29,66,300,23,28,53,121,30,26,52,297,24,08,51,061,31*7E
$GPGSV,3,2,10,10,48,199,26,27,26,066,19,24,14,270,24,21,12,308,17*75
$GPGSV,3,3,10,19,08,035,25,03,00,011,*7A
$GPRMC,170217.000,A,5044.0781,N,00706.4501,E,2.13,261.82,070507,,*01
$GPGGA,170218.000,5044.0778,N,00706.4487,E,1,07,1.3,53.7,M,47.7,M,,0000*62
$GPGSA,A,3,27,08,10,29,28,26,21,,,,,,2.3,1.3,1.9*33
$GPRMC,170218.000,A,5044.0778,N,00706.4487,E,2.24,244.98,070507,,*0F
$GPGGA,170219.000,5044.0768,N,00706.4478,E,1,07,1.3,54.4,M,47.7,M,,0000*66
$GPGSA,A,3,27,08,10,29,28,26,21,,,,,,2.3,1.3,1.9*33
$GPRMC,170219.000,A,5044.0768,N,00706.4478,E,2.67,195.22,070507,,*06
$GPGGA,170220.000,5044.0760,N,00706.4469,E,1,07,1.3,56.7,M,47.7,M,,0000*65
$GPGSA,A,3,27,08,10,29,28,26,21,,,,,,2.3,1.3,1.9*33
$GPRMC,170220.000,A,5044.0760,N,00706.4469,E,2.55,199.23,070507,,*08
$GPGGA,170221.000,5044.0752,N,00706.4459,E,1,07,1.3,57.7,M,47.7,M,,0000*67
$GPGSA,A,3,27,08,10,29,28,26,21,,,,,,2.3,1.3,1.9*33
$GPRMC,170221.000,A,5044.0752,N,00706.4459,E,3.00,211.09,070507,,*01
$GPGGA,170222.000,5044.0748,N,00706.4446,E,1,07,1.3,59.6,M,47.7,M,,0000*6E
$GPGSA,A,3,27,08,10,29,28,26,21,,,,,,2.3,1.3,1.9*33
$GPGSV,3,1,10,29,66,300,23,28,53,121,31,26,52,297,24,08,51,061,32*7C
$GPGSV,3,2,10,10,48,199,27,27,26,066,19,24,14,270,24,21,12,308,16*75
$GPGSV,3,3,10,19,08,035,21,03,00,011,*7E
$GPRMC,170222.000,A,5044.0748,N,00706.4446,E,3.01,222.12,070507,,*0C
$GPGGA,170223.000,5044.0746,N,00706.4433,E,1,07,1.3,60.9,M,47.7,M,,0000*66
$GPGSA,A,3,27,08,10,29,28,26,21,,,,,,2.3,1.3,1.9*33
$GPRMC,170223.000,A,5044.0746,N,00706.4433,E,2.35,235.66,070507,,*02
$GPGGA,170224.000,5044.0741,N,00706.4419,E,1,07,1.3,60.7,M,47.7,M,,0000*60
$GPGSA,A,3,27,08,10,29,28,26,21,,,,,,2.3,1.3,1.9*33
$GPRMC,170224.000,A,5044.0741,N,00706.4419,E,3.55,228.43,070507,,*06
$GPGGA,170225.000,5044.0738,N,00706.4405,E,1,07,1.3,61.7,M,47.7,M,,0000*63
$GPGSA,A,3,27,08,10,29,28,26,21,,,,,,2.3,1.3,1.9*33
$GPRMC,170225.000,A,5044.0738,N,00706.4405,E,3.44,232.86,070507,,*06
$GPGGA,170226.000,5044.0734,N,00706.4395,E,1,07,1.3,62.5,M,47.7,M,,0000*63
$GPGSA,A,3,27,08,10,29,28,26,21,,,,,,2.3,1.3,1.9*33
$GPRMC,170226.000,A,5044.0734,N,00706.4395,E,1.98,227.96,070507,,*01
$GPGGA,170227.000,5044.0731,N,00706.4384,E,1,07,1.3,64.4,M,47.7,M,,0000*60
$GPGSA,A,3,27,08,10,29,28,26,21,,,,,,2.3,1.3,1.9*33
$GPGSV,3,1,10,29,66,300,23,28,53,121,32,26,52,297,24,08,51,061,32*7F
$GPGSV,3,2,10,10,48,199,26,27,26,066,36,24,14,270,17,21,12,308,17*78
$GPGSV,3,3,10,19,08,035,22,03,00,011,10*7C
$GPRMC,170227.000,A,5044.0731,N,00706.4384,E,2.01,228.17,070507,,*00
$GPGGA,170228.000,5044.0727,N,00706.4374,E,1,07,1.3,66.1,M,47.7,M,,0000*60
$GPGSA,A,3,27,08,10,29,28,26,21,,,,,,2.3,1.3,1.9*33
$GPRMC,170228.000,A,5044.0727,N,00706.4374,E,2.67,214.31,070507,,*0C
$GPGGA,170229.000,5044.0725,N,00706.4364,E,1,07,1.3,67.4,M,47.7,M,,0000*66
$GPGSA,A,3,27,08,10,29,28,26,21,,,,,,2.3,1.3,1.9*33
$GPRMC,170229.000,A,5044.0725,N,00706.4364,E,2.23,238.86,070507,,*0C
$GPGGA,170230.000,5044.0728,N,00706.4353,E,1,07,1.3,67.9,M,47.7,M,,0000*6A
$GPGSA,A,3,27,08,10,29,28,26,21,,,,,,2.3,1.3,1.9*33
$GPRMC,170230.000,A,5044.0728,N,00706.4353,E,2.72,265.83,070507,,*04
$GPGGA,170231.000,5044.0728,N,00706.4338,E,1,07,1.3,68.8,M,47.7,M,,0000*68
$GPGSA,A,3,27,08,10,29,28,26,21,,,,,,2.3,1.3,1.9*33
$GPRMC,170231.000,A,5044.0728,N,00706.4338,E,2.38,233.52,070507,,*09
$GPGGA,170232.000,5044.0725,N,00706.4324,E,1,07,1.3,70.1,M,47.7,M,,0000*6B
$GPGSA,A,3,27,08,10,29,28,26,21,,,,,,2.3,1.3,1.9*33
$GPGSV,3,1,10,29,66,300,23,28,53,121,32,26,52,297,24,08,51,061,32*7F
$GPGSV,3,2,10,10,48,199,26,27,26,066,31,24,14,270,17,21,12,308,17*7F
$GPGSV,3,3,10,19,08,035,21,03,00,011,*7E
$GPRMC,170232.000,A,5044.0725,N,00706.4324,E,3.50,227.32,070507,,*06
$GPGGA,170233.000,5044.0724,N,00706.4310,E,1,07,1.3,71.7,M,47.7,M,,0000*6B
$GPGSA,A,3,27,08,10,29,28,26,21,,,,,,2.3,1.3,1.9*33
$GPRMC,170233.000,A,5044.0724,N,00706.4310,E,2.32,237.35,070507,,*02
$GPGGA,170234.000,5044.0726,N,00706.4296,E,1,07,1.3,73.2,M,47.7,M,,0000*66
$GPGSA,A,3,27,08,10,29,28,26,21,,,,,,2.3,1.3,1.9*33
$GPRMC,170234.000,A,5044.0726,N,00706.4296,E,1.78,258.31,070507,,*08
$GPGGA,170235.000,5044.0727,N,00706.4278,E,1,07,1.3,74.9,M,47.7,M,,0000*6A
$GPGSA,A,3,27,08,10,29,28,26,21,,,,,,2.3,1.3,1.9*33
$GPRMC,170235.000,A,5044.0727,N,00706.4278,E,3.56,246.67,070507,,*0A
$GPGGA,170236.000,5044.0725,N,00706.4263,E,1,07,1.3,75.7,M,47.7,M,,0000*6E
$GPGSA,A,3,27,08,10,29,28,26,21,,,,,,2.3,1.3,1.9*33
$GPRMC,170236.000,A,5044.0725,N,00706.4263,E,2.14,246.80,070507,,*0F
$GPGGA,170237.000,5044.0724,N,00706.4252,E,1,07,1.3,77.3,M,47.7,M,,0000*6A
$GPGSA,A,3,27,08,10,29,28,26,21,,,,,,2.3,1.3,1.9*33
$GPGSV,3,1,10,29,66,300,24,28,53,121,28,26,52,297,24,08,51,061,32*73
$GPGSV,3,2,10,10,48,199,25,27,26,066,30,24,14,270,18,21,12,308,16*73
$GPGSV,3,3,10,19,08,035,21,03,00,011,*7E
$GPRMC,170237.000,A,5044.0724,N,00706.4252,E,1.85,254.93,070507,,*07
$GPGGA,170238.000,5044.0721,N,00706.4242,E,1,07,1.3,79.2,M,47.7,M,,0000*6E
$GPGSA,A,3,27,08,10,29,28,26,21,,,,,,2.3,1.3,1.9*33
$GPRMC,170238.000,A,5044.0721,N,00706.4242,E,1.97,209.36,070507,,*08
$GPGGA,170239.000,5044.0717,N,00706.4231,E,1,07,1.3,81.9,M,47.7,M,,0000*62
$GPGSA,A,3,27,08,10,29,28,26,21,,,,,,2.3,1.3,1.9*33
$GPRMC,170239.000,A,5044.0717,N,00706.4231,E,1.06,236.98,070507,,*08
$GPGGA,170240.000,5044.0711,N,00706.4222,E,1,07,1.3,83.5,M,47.7,M,,0000*66
$GPGSA,A,3,27,08,10,29,28,26,21,,,,,,2.3,1.3,1.9*33
$GPRMC,170240.000,A,5044.0711,N,00706.4222,E,2.11,188.71,070507,,*06
$GPGGA,170241.000,5044.0703,N,00706.4214,E,1,07,1.3,86.0,M,47.7,M,,0000*61
$GPGSA,A,3,27,08,10,29,28,26,21,,,,,,2.3,1.3,1.9*33
$GPRMC,170241.000,A,5044.0703,N,00706.4214,E,2.64,197.25,070507,,*0C
$GPGGA,170242.000,5044.0691,N,00706.4204,E,1,07,1.3,87.8,M,47.7,M,,0000*60
$GPGSA,A,3,27,08,10,29,28,26,21,,,,,,2.3,1.3,1.9*33
$GPGSV,3,1,10,29,66,300,25,28,53,121,27,26,52,297,31,08,51,061,30*7B
$GPGSV,3,2,10,10,48,199,25,27,26,066,36,24,14,270,27,21,12,308,15*7A
$GPGSV,3,3,10,19,08,035,21,03,00,011,07*79
$GPRMC,170242.000,A,5044.0691,N,00706.4204,E,3.29,195.45,070507,,*08
$GPGGA,170243.000,5044.0682,N,00706.4198,E,1,07,1.3,89.1,M,47.7,M,,0000*62
$GPGSA,A,3,27,08,10,29,28,26,21,,,,,,2.3,1.3,1.9*33
$GPRMC,170243.000,A,5044.0682,N,00706.4198,E,2.57,191.54,070507,,*01
$GPGGA,170244.000,5044.0674,N,00706.4191,E,1,07,1.3,89.5,M,47.7,M,,0000*61
$GPGSA,A,3,27,08,10,29,28,26,21,,,,,,2.3,1.3,1.9*33
$GPRMC,170244.000,A,5044.0674,N,00706.4191,E,1.96,208.55,070507,,*0A
$GPGGA,170245.000,5044.0665,N,00706.4186,E,1,07,1.3,90.4,M,47.7,M,,0000*6F
$GPGSA,A,3,27,08,10,29,28,26,21,,,,,,2.3,1.3,1.9*33
$GPRMC,170245.000,A,5044.0665,N,00706.4186,E,3.67,186.24,070507,,*02
$GPGGA,170246.000,5044.0655,N,00706.4181,E,1,07,1.3,91.2,M,47.7,M,,0000*6F
$GPGSA,A,3,27,08,10,29,28,26,21,,,,,,2.3,1.3,1.9*33
$GPRMC,170246.000,A,5044.0655,N,00706.4181,E,3.01,197.54,070507,,*02
$GPGGA,170247.000,5044.0644,N,00706.4168,E,1,07,1.3,91.0,M,47.7,M,,0000*6B
$GPGSA,A,3,27,08,10,29,28,26,21,,,,,,2.3,1.3,1.9*33
$GPGSV,3,1,10,29,66,300,26,28,53,121,33,26,52,297,26,08,51,061,36*7D
$GPGSV,3,2,10,10,48,199,25,27,26,066,34,24,14,270,18,21,12,308,16*77
$GPGSV,3,3,10,19,08,035,25,03,00,011,09*73
$GPRMC,170247.000,A,5044.0644,N,00706.4168,E,4.08,219.17,070507,,*08
$GPGGA,170248.000,5044.0638,N,00706.4152,E,1,07,1.3,91.4,M,47.7,M,,0000*62
$GPGSA,A,3,27,08,10,29,28,26,21,,,,,,2.3,1.3,1.9*33
$GPRMC,170248.000,A,5044.0638,N,00706.4152,E,3.46,232.18,070507,,*0E
$GPGGA,170249.000,5044.0628,N,00706.4140,E,1,07,1.3,92.6,M,47.7,M,,0000*60
$GPGSA,A,3,27,08,10,29,28,26,21,,,,,,2.3,1.3,1.9*33
$GPRMC,170249.000,A,5044.0628,N,00706.4140,E,2.90,220.46,070507,,*0F
$GPGGA,170250.000,5044.0620,N,00706.4130,E,1,07,1.3,93.8,M,47.7,M,,0000*68
$GPGSA,A,3,27,08,10,29,28,26,21,,,,,,2.3,1.3,1.9*33
$GPRMC,170250.000,A,5044.0620,N,00706.4130,E,3.23,215.93,070507,,*0F
$GPGGA,170251.000,5044.0610,N,00706.4122,E,1,07,1.3,94.8,M,47.7,M,,0000*6E
$GPGSA,A,3,27,08,10,29,28,26,21,,,,,,2.3,1.3,1.9*33
$GPRMC,170251.000,A,5044.0610,N,00706.4122,E,3.50,209.85,070507,,*00
$GPGGA,170252.000,5044.0595,N,00706.4113,E,1,07,1.3,93.4,M,47.7,M,,0000*6A
$GPGSA,A,3,27,08,10,29,28,26,21,,,,,,2.3,1.3,1.9*33
$GPGSV,3,1,10,29,66,300,25,28,53,121,34,26,52,297,21,08,51,061,35*7D
$GPGSV,3,2,10,10,48,199,26,27,26,066,35,24,14,270,17,21,12,308,16*7A
$GPGSV,3,3,10,19,08,035,24,03,00,011,*7B
$GPRMC,170252.000,A,5044.0595,N,00706.4113,E,3.51,203.07,070507,,*0E
$GPGGA,170253.000,5044.0580,N,00706.4106,E,1,07,1.3,92.5,M,47.7,M,,0000*6B
$GPGSA,A,3,27,08,10,29,28,26,21,,,,,,2.3,1.3,1.9*33
$GPRMC,170253.000,A,5044.0580,N,00706.4106,E,3.85,204.27,070507,,*03
$GPGGA,170254.000,5044.0567,N,00706.4098,E,1,07,1.3,92.3,M,47.7,M,,0000*65
$GPGSA,A,3,27,08,10,29,28,26,21,,,,,,2.3,1.3,1.9*33
$GPRMC,170254.000,A,5044.0567,N,00706.4098,E,3.95,209.46,070507,,*00
$GPGGA,170255.000,5044.0554,N,00706.4090,E,1,07,1.3,91.3,M,47.7,M,,0000*6F
$GPGSA,A,3,27,08,10,29,28,26,21,,,,,,2.3,1.3,1.9*33
$GPRMC,170255.000,A,5044.0554,N,00706.4090,E,2.74,220.93,070507,,*04
$GPGGA,170256.000,5044.0541,N,00706.4083,E,1,07,1.3,90.5,M,47.7,M,,0000*6D
$GPGSA,A,3,27,08,10,29,28,26,21,,,,,,2.3,1.3,1.9*33
$GPRMC,170256.000,A,5044.0541,N,00706.4083,E,3.30,207.93,070507,,*05
$GPGGA,170257.000,5044.0530,N,00706.4072,E,1,07,1.3,89.7,M,47.7,M,,0000*6E
$GPGSA,A,3,27,08,10,29,28,26,21,,,,,,2.3,1.3,1.9*33
$GPGSV,3,1,10,29,66,300,24,28,53,121,35,26,52,297,22,08,51,061,32*79
$GPGSV,3,2,10,10,48,199,27,27,26,066,35,24,14,270,17,21,12,308,16*7B
$GPGSV,3,3,10,19,08,035,23,03,00,011,*7C
$GPRMC,170257.000,A,5044.0530,N,00706.4072,E,3.77,215.25,070507,,*01
$GPGGA,170258.000,5044.0517,N,00706.4060,E,1,07,1.3,88.3,M,47.7,M,,0000*62
$GPGSA,A,3,27,08,10,29,28,26,21,,,,,,2.3,1.3,1.9*33
$GPRMC,170258.000,A,5044.0517,N,00706.4060,E,3.95,210.64,070507,,*04
$GPGGA,170259.000,5044.0506,N,00706.4047,E,1,07,1.3,87.5,M,47.7,M,,0000*6F
$GPGSA,A,3,27,08,10,29,28,26,21,,,,,,2.3,1.3,1.9*33
$GPRMC,170259.000,A,5044.0506,N,00706.4047,E,3.99,237.36,070507,,*0E
$GPGGA,170300.000,5044.0501,N,00706.4025,E,1,06,1.5,86.9,M,47.7,M,,0000*6B
$GPGSA,A,3,27,08,10,29,28,26,,,,,,,3.9,1.5,3.6*30
$GPRMC,170300.000,A,5044.0501,N,00706.4025,E,4.08,235.99,070507,,*08
$GPGGA,170301.000,5044.0494,N,00706.4007,E,1,06,1.5,86.1,M,47.7,M,,0000*6F
$GPGSA,A,3,27,08,10,29,28,26,,,,,,,3.9,1.5,3.6*30
$GPRMC,170301.000,A,5044.0494,N,00706.4007,E,3.55,222.45,070507,,*0C
$GPGGA,170302.000,5044.0488,N,00706.3992,E,1,06,1.5,85.5,M,47.7,M,,0000*64
$GPGSA,A,3,27,08,10,29,28,26,,,,,,,3.9,1.5,3.6*30
$GPGSV,3,1,10,29,66,300,23,28,53,121,35,26,52,297,23,08,51,061,32*7F
$GPGSV,3,2,10,10,48,199,27,27,26,066,35,24,14,270,17,21,12,308,16*7B
$GPGSV,3,3,10,19,08,035,23,03,00,011,*7C
$GPRMC,170302.000,A,5044.0488,N,00706.3992,E,3.54,225.27,070507,,*02
$GPGGA,170303.000,5044.0479,N,00706.3971,E,1,06,1.5,84.1,M,47.7,M,,0000*63
$GPGSA,A,3,27,08,10,29,28,26,,,,,,,3.9,1.5,3.6*30
$GPRMC,170303.000,A,5044.0479,N,00706.3971,E,4.28,241.55,070507,,*0B
$GPGGA,170304.000,5044.0474,N,00706.3950,E,1,06,1.5,83.0,M,47.7,M,,0000*6C
$GPGSA,A,3,27,08,10,29,28,26,,,,,,,3.9,1.5,3.6*30
$GPRMC,170304.000,A,5044.0474,N,00706.3950,E,3.06,236.80,070507,,*01
$GPGGA,170305.000,5044.0469,N,00706.3936,E,1,06,1.5,82.1,M,47.7,M,,0000*61
$GPGSA,A,3,27,08,10,29,28,26,,,,,,,3.9,1.5,3.6*30
$GPRMC,170305.000,A,5044.0469,N,00706.3936,E,3.74,228.09,070507,,*07
$GPGGA,170306.000,5044.0463,N,00706.3928,E,1,06,1.5,81.8,M,47.7,M,,0000*6D
$GPGSA,A,3,27,08,10,29,28,26,,,,,,,3.9,1.5,3.6*30
$GPRMC,170306.000,A,5044.0463,N,00706.3928,E,2.68,221.11,070507,,*0D
$GPGGA,170307.000,5044.0458,N,00706.3918,E,1,06,1.5,80.8,M,47.7,M,,0000*66
$GPGSA,A,3,27,08,10,29,28,26,,,,,,,3.9,1.5,3.6*30
$GPGSV,3,1,10,29,66,300,23,28,53,121,35,26,52,297,22,08,51,061,32*7E
$GPGSV,3,2,10,10,48,199,26,27,26,066,35,24,14,270,17,21,12,308,16*7A
$GPGSV,3,3,10,19,08,035,23,03,00,011,07*7B
$GPRMC,170307.000,A,5044.0458,N,00706.3918,E,4.03,242.57,070507,,*0B
$GPGGA,170308.000,5044.0454,N,00706.3908,E,1,06,1.5,80.3,M,47.7,M,,0000*6F
$GPGSA,A,3,27,08,10,29,28,26,,,,,,,3.9,1.5,3.6*30
$GPRMC,170308.000,A,5044.0454,N,00706.3908,E,3.08,248.36,070507,,*08
$GPGGA,170309.000,5044.0451,N,00706.3902,E,1,06,1.5,80.5,M,47.7,M,,0000*67
$GPGSA,A,3,27,08,10,29,28,26,,,,,,,3.9,1.5,3.6*30
$GPRMC,170309.000,A,5044.0451,N,00706.3902,E,2.68,218.71,070507,,*07
$GPGGA,170310.000,5044.0449,N,00706.3890,E,1,06,1.5,80.2,M,47.7,M,,0000*6B
$GPGSA,A,3,27,08,10,29,28,26,,,,,,,3.9,1.5,3.6*30
$GPRMC,170310.000,A,5044.0449,N,00706.3890,E,2.33,253.64,070507,,*09
$GPGGA,170311.000,5044.0446,N,00706.3873,E,1,06,1.5,79.3,M,47.7,M,,0000*6F
$GPGSA,A,3,27,08,10,29,28,26,,,,,,,3.9,1.5,3.6*30
$GPRMC,170311.000,A,5044.0446,N,00706.3873,E,2.35,259.01,070507,,*05
$GPGGA,170312.000,5044.0445,N,00706.3856,E,1,06,1.5,78.4,M,47.7,M,,0000*6E
$GPGSA,A,3,27,08,10,29,28,26,,,,,,,3.9,1.5,3.6*30
$GPGSV,3,1,11,29,67,300,22,28,54,120,28,26,53,297,23,08,50,062,32*77
$GPGSV,3,2,11,10,46,198,27,27,25,066,34,24,14,269,16,21,12,307,16*71
$GPGSV,3,3,11,19,08,034,21,18,00,327,07,09,00,247,*4D
$GPRMC,170312.000,A,5044.0445,N,00706.3856,E,2.48,252.65,070507,,*01
$GPGGA,170313.000,5044.0441,N,00706.3839,E,1,06,1.5,77.8,M,47.7,M,,0000*61
$GPGSA,A,3,27,08,10,29,28,26,,,,,,,3.9,1.5,3.6*30
$GPRMC,170313.000,A,5044.0441,N,00706.3839,E,2.84,243.66,070507,,*0E
$GPGGA,170314.000,5044.0440,N,00706.3819,E,1,06,1.5,77.1,M,47.7,M,,0000*6C
$GPGSA,A,3,27,08,10,29,28,26,,,,,,,3.9,1.5,3.6*30
$GPRMC,170314.000,A,5044.0440,N,00706.3819,E,2.27,278.27,070507,,*0E
$GPGGA,170315.000,5044.0440,N,00706.3809,E,1,06,1.5,77.2,M,47.7,M,,0000*6F
$GPGSA,A,3,27,08,10,29,28,26,,,,,,,3.9,1.5,3.6*30
$GPRMC,170315.000,A,5044.0440,N,00706.3809,E,0.53,256.60,070507,,*00
$GPGGA,170316.000,5044.0446,N,00706.3802,E,1,07,1.3,78.8,M,47.7,M,,0000*63
$GPGSA,A,3,27,08,10,29,28,26,21,,,,,,2.3,1.3,1.9*33
$GPRMC,170316.000,A,5044.0446,N,00706.3802,E,0.96,329.74,070507,,*0B
$GPGGA,170317.000,5044.0449,N,00706.3793,E,1,07,1.3,77.3,M,47.7,M,,0000*6E
$GPGSA,A,3,27,08,10,29,28,26,21,,,,,,2.3,1.3,1.9*33
$GPGSV,3,1,11,29,67,300,22,28,54,120,35,26,53,297,23,08,50,062,25*7D
$GPGSV,3,2,11,10,46,198,31,27,25,066,34,24,14,269,16,21,12,307,16*76
$GPGSV,3,3,11,19,08,034,17,18,00,327,,09,00,247,09*46
$GPRMC,170317.000,A,5044.0449,N,00706.3793,E,0.36,128.35,070507,,*0E
$GPGGA,170318.000,5044.0452,N,00706.3779,E,1,07,1.3,75.8,M,47.7,M,,0000*66
$GPGSA,A,3,27,08,10,29,28,26,21,,,,,,2.3,1.3,1.9*33
$GPRMC,170318.000,A,5044.0452,N,00706.3779,E,1.10,291.96,070507,,*02
$GPGGA,170319.000,5044.0453,N,00706.3773,E,1,07,1.3,73.8,M,47.7,M,,0000*6A
$GPGSA,A,3,27,08,10,29,28,26,21,,,,,,2.3,1.3,1.9*33
$GPRMC,170319.000,A,5044.0453,N,00706.3773,E,0.55,311.99,070507,,*0E
$GPGGA,170320.000,5044.0453,N,00706.3769,E,1,07,1.3,73.3,M,47.7,M,,0000*60
$GPGSA,A,3,27,08,10,29,28,26,21,,,,,,2.3,1.3,1.9*33
$GPRMC,170320.000,A,5044.0453,N,00706.3769,E,0.90,183.21,070507,,*0C
$GPGGA,170321.000,5044.0446,N,00706.3761,E,1,07,1.3,71.9,M,47.7,M,,0000*65
$GPGSA,A,3,27,08,10,29,28,26,21,,,,,,2.3,1.3,1.9*33
$GPRMC,170321.000,A,5044.0446,N,00706.3761,E,2.60,215.25,070507,,*04
$GPGGA,170322.000,5044.0441,N,00706.3752,E,1,07,1.3,71.6,M,47.7,M,,0000*6E
$GPGSA,A,3,27,08,10,29,28,26,21,,,,,,2.3,1.3,1.9*33
$GPGSV,3,1,11,29,67,300,22,28,54,120,36,26,53,297,27,08,50,062,33*7D
$GPGSV,3,2,11,10,46,198,28,27,25,066,34,24,14,269,16,21,12,307,17*7F
$GPGSV,3,3,11,19,08,034,23,18,00,327,,09,00,247,12*4B
$GPRMC,170322.000,A,5044.0441,N,00706.3752,E,2.50,218.00,070507,,*09
$GPGGA,170323.000,5044.0436,N,00706.3741,E,1,07,1.3,71.6,M,47.7,M,,0000*6D
$GPGSA,A,3,27,08,10,29,28,26,21,,,,,,2.3,1.3,1.9*33
$GPRMC,170323.000,A,5044.0436,N,00706.3741,E,2.42,225.76,070507,,*06
$GPGGA,170324.000,5044.0435,N,00706.3729,E,1,07,1.3,72.0,M,47.7,M,,0000*62
$GPGSA,A,3,27,08,10,29,28,26,21,,,,,,2.3,1.3,1.9*33
$GPRMC,170324.000,A,5044.0435,N,00706.3729,E,2.46,234.76,070507,,*08
$GPGGA,170325.000,5044.0437,N,00706.3714,E,1,07,1.3,72.7,M,47.7,M,,0000*68
$GPGSA,A,3,27,08,10,29,28,26,21,,,,,,2.3,1.3,1.9*33
$GPRMC,170325.000,A,5044.0437,N,00706.3714,E,1.45,252.27,070507,,*01
$GPGGA,170326.000,5044.0436,N,00706.3699,E,1,07,1.3,73.3,M,47.7,M,,0000*6B
$GPGSA,A,3,27,08,10,29,28,26,21,,,,,,2.3,1.3,1.9*33
$GPRMC,170326.000,A,5044.0436,N,00706.3699,E,3.03,219.85,070507,,*00
$GPGGA,170327.000,5044.0433,N,00706.3680,E,1,07,1.3,73.7,M,47.7,M,,0000*63
$GPGSA,A,3,27,08,10,29,28,26,21,,,,,,2.3,1.3,1.9*33
$GPGSV,3,1,11,29,67,300,22,28,54,120,36,26,53,297,26,08,50,062,33*7C
$GPGSV,3,2,11,10,46,198,24,27,25,066,35,24,14,269,16,21,12,307,17*72
$GPGSV,3,3,11,19,08,034,17,18,00,327,,09,00,247,14*4A
$GPRMC,170327.000,A,5044.0433,N,00706.3680,E,3.01,253.65,070507,,*0E
$GPGGA,170328.000,5044.0428,N,00706.3665,E,1,07,1.3,73.6,M,47.7,M,,0000*6C
$GPGSA,A,3,27,08,10,29,28,26,21,,,,,,2.3,1.3,1.9*33
$GPRMC,170328.000,A,5044.0428,N,00706.3665,E,2.53,246.61,070507,,*06
$GPGGA,170329.000,5044.0425,N,00706.3647,E,1,07,1.3,73.2,M,47.7,M,,0000*64
$GPGSA,A,3,27,08,10,29,28,26,21,,,,,,2.3,1.3,1.9*33
$GPRMC,170329.000,A,5044.0425,N,00706.3647,E,3.32,264.19,070507,,*03
$GPGGA,170330.000,5044.0423,N,00706.3631,E,1,07,1.3,73.4,M,47.7,M,,0000*6D
$GPGSA,A,3,27,08,10,29,28,26,21,,,,,,2.3,1.3,1.9*33
$GPRMC,170330.000,A,5044.0423,N,00706.3631,E,2.86,244.95,070507,,*04
$GPGGA,170331.000,5044.0417,N,00706.3617,E,1,07,1.3,72.8,M,47.7,M,,0000*62
$GPGSA,A,3,27,08,10,29,28,26,21,,,,,,2.3,1.3,1.9*33
$GPRMC,170331.000,A,5044.0417,N,00706.3617,E,2.78,253.97,070507,,*03
$GPGGA,170332.000,5044.0411,N,00706.3603,E,1,07,1.3,73.5,M,47.7,M,,0000*6E
$GPGSA,A,3,27,08,10,29,28,26,21,,,,,,2.3,1.3,1.9*33
$GPGSV,3,1,11,29,67,300,22,28,54,120,30,26,53,297,25,08,50,062,33*79
$GPGSV,3,2,11,10,46,198,25,27,25,066,35,24,14,269,15,21,12,307,17*70
$GPGSV,3,3,11,19,08,034,19,18,00,327,,09,00,247,*41
$GPRMC,170332.000,A,5044.0411,N,00706.3603,E,3.37,230.97,070507,,*0C
$GPGGA,170333.000,5044.0405,N,00706.3590,E,1,07,1.3,73.6,M,47.7,M,,0000*60
$GPGSA,A,3,27,08,10,29,28,26,21,,,,,,2.3,1.3,1.9*33
$GPRMC,170333.000,A,5044.0405,N,00706.3590,E,2.49,227.22,070507,,*01
$GPGGA,170334.000,5044.0395,N,00706.3577,E,1,07,1.3,73.8,M,47.7,M,,0000*6E
$GPGSA,A,3,27,08,10,29,28,26,21,,,,,,2.3,1.3,1.9*33
$GPRMC,170334.000,A,5044.0395,N,00706.3577,E,2.98,211.79,070507,,*06
$GPGGA,170335.000,5044.0385,N,00706.3561,E,1,07,1.3,73.7,M,47.7,M,,0000*66
$GPGSA,A,3,27,08,10,29,28,26,21,,,,,,2.3,1.3,1.9*33
$GPRMC,170335.000,A,5044.0385,N,00706.3561,E,3.46,223.38,070507,,*07
$GPGGA,170336.000,5044.0377,N,00706.3540,E,1,07,1.3,73.1,M,47.7,M,,0000*6D
$GPGSA,A,3,27,08,10,29,28,26,21,,,,,,2.3,1.3,1.9*33
$GPRMC,170336.000,A,5044.0377,N,00706.3540,E,4.41,250.66,070507,,*05
$GPGGA,170337.000,5044.0365,N,00706.3523,E,1,07,1.3,71.0,M,47.7,M,,0000*69
$GPGSA,A,3,27,08,10,29,28,26,21,,,,,,2.3,1.3,1.9*33
$GPGSV,3,1,11,29,67,300,22,28,54,120,29,26,53,297,25,08,50,062,28*7B
$GPGSV,3,2,11,10,46,198,28,27,25,066,29,24,14,269,16,21,12,307,18*7C
$GPGSV,3,3,11,19,08,034,18,18,00,327,,09,00,247,*40
$GPRMC,170337.000,A,5044.0365,N,00706.3523,E,3.63,225.46,070507,,*05
$GPGGA,170338.000,5044.0356,N,00706.3509,E,1,07,1.3,70.2,M,47.7,M,,0000*6D
$GPGSA,A,3,27,08,10,29,28,26,21,,,,,,2.3,1.3,1.9*33
$GPRMC,170338.000,A,5044.0356,N,00706.3509,E,3.82,219.73,070507,,*04
$GPGGA,170339.000,5044.0346,N,00706.3497,E,1,07,1.3,68.8,M,47.7,M,,0000*68
$GPGSA,A,3,27,08,10,29,28,26,21,,,,,,2.3,1.3,1.9*33
$GPRMC,170339.000,A,5044.0346,N,00706.3497,E,4.46,215.16,070507,,*02
$GPGGA,170340.000,5044.0336,N,00706.3487,E,1,07,1.3,67.5,M,47.7,M,,0000*62
$GPGSA,A,3,27,08,10,29,28,26,21,,,,,,2.3,1.3,1.9*33
$GPRMC,170340.000,A,5044.0336,N,00706.3487,E,3.27,205.21,070507,,*0F
$GPGGA,170341.000,5044.0329,N,00706.3481,E,1,07,1.3,65.9,M,47.7,M,,0000*65
$GPGSA,A,3,27,08,10,29,28,26,21,,,,,,2.3,1.3,1.9*33
$GPRMC,170341.000,A,5044.0329,N,00706.3481,E,1.79,224.92,070507,,*04
$GPGGA,170342.000,5044.0327,N,00706.3471,E,1,07,1.3,64.8,M,47.7,M,,0000*67
$GPGSA,A,3,27,08,10,29,28,26,21,,,,,,2.3,1.3,1.9*33
$GPGSV,3,1,11,29,67,300,23,28,54,120,35,26,53,297,25,08,50,062,27*78
$GPGSV,3,2,11,10,46,198,26,27,25,066,21,24,14,269,16,21,12,307,19*7B
$GPGSV,3,3,11,19,08,034,19,18,00,327,,09,00,247,*41
$GPRMC,170342.000,A,5044.0327,N,00706.3471,E,2.01,279.98,070507,,*08
$GPGGA,170343.000,5044.0330,N,00706.3461,E,1,07,1.3,64.8,M,47.7,M,,0000*61
$GPGSA,A,3,27,08,10,29,28,26,21,,,,,,2.3,1.3,1.9*33
$GPRMC,170343.000,A,5044.0330,N,00706.3461,E,1.94,237.76,070507,,*0B
$GPGGA,170344.000,5044.0331,N,00706.3448,E,1,07,1.3,64.9,M,47.7,M,,0000*6D
$GPGSA,A,3,27,08,10,29,28,26,21,,,,,,2.3,1.3,1.9*33
$GPRMC,170344.000,A,5044.0331,N,00706.3448,E,2.59,233.08,070507,,*09
$GPGGA,170345.000,5044.0330,N,00706.3433,E,1,07,1.3,64.8,M,47.7,M,,0000*60
$GPGSA,A,3,27,08,10,29,28,26,21,,,,,,2.3,1.3,1.9*33
$GPRMC,170345.000,A,5044.0330,N,00706.3433,E,2.69,232.41,070507,,*0A
$GPGGA,170346.000,5044.0328,N,00706.3418,E,1,07,1.3,64.4,M,47.7,M,,0000*6F
$GPGSA,A,3,27,08,10,29,28,26,21,,,,,,2.3,1.3,1.9*33
$GPRMC,170346.000,A,5044.0328,N,00706.3418,E,3.26,227.91,070507,,*0A
$GPGGA,170347.000,5044.0324,N,00706.3402,E,1,07,1.3,64.1,M,47.7,M,,0000*6C
$GPGSA,A,3,27,08,10,29,28,26,21,,,,,,2.3,1.3,1.9*33
$GPGSV,3,1,11,29,67,300,23,28,54,120,28,26,53,297,24,08,50,062,28*7A
$GPGSV,3,2,11,10,46,198,23,27,25,066,26,24,14,269,16,21,12,307,18*78
$GPGSV,3,3,11,19,08,034,23,18,00,327,,09,00,247,*48
$GPRMC,170347.000,A,5044.0324,N,00706.3402,E,3.00,222.09,070507,,*0C
$GPGGA,170348.000,5044.0325,N,00706.3393,E,1,07,1.3,64.6,M,47.7,M,,0000*6A
$GPGSA,A,3,27,08,10,29,28,26,21,,,,,,2.3,1.3,1.9*33
$GPRMC,170348.000,A,5044.0325,N,00706.3393,E,2.33,217.29,070507,,*08
$GPGGA,170349.000,5044.0325,N,00706.3383,E,1,06,1.5,65.5,M,47.7,M,,0000*6F
$GPGSA,A,3,27,08,10,29,28,26,,,,,,,3.8,1.5,3.5*32
$GPRMC,170349.000,A,5044.0325,N,00706.3383,E,2.62,237.87,070507,,*0A
$GPGGA,170350.000,5044.0323,N,00706.3366,E,1,07,1.3,64.7,M,47.7,M,,0000*6E
$GPGSA,A,3,27,08,10,29,28,26,21,,,,,,2.3,1.3,1.9*33
$GPRMC,170350.000,A,5044.0323,N,00706.3366,E,3.36,244.90,070507,,*0D
$GPGGA,170351.000,5044.0318,N,00706.3351,E,1,07,1.3,63.7,M,47.7,M,,0000*64
$GPGSA,A,3,27,08,10,29,28,26,21,,,,,,2.3,1.3,1.9*33
$GPRMC,170351.000,A,5044.0318,N,00706.3351,E,2.10,260.83,070507,,*01
$GPGGA,170352.000,5044.0318,N,00706.3333,E,1,07,1.3,63.7,M,47.7,M,,0000*63
$GPGSA,A,3,27,08,10,29,28,26,21,,,,,,2.3,1.3,1.9*33
$GPGSV,3,1,11,29,67,300,23,28,54,120,29,26,53,297,24,08,50,062,27*74
$GPGSV,3,2,11,10,46,198,23,27,25,066,26,24,14,269,17,21,12,307,18*79
$GPGSV,3,3,11,19,08,034,23,18,00,327,11,09,00,247,*48
$GPRMC,170352.000,A,5044.0318,N,00706.3333,E,2.31,265.78,070507,,*04
$GPGGA,170353.000,5044.0315,N,00706.3310,E,1,07,1.3,63.7,M,47.7,M,,0000*6E
$GPGSA,A,3,27,08,10,29,28,26,21,,,,,,2.3,1.3,1.9*33
$GPRMC,170353.000,A,5044.0315,N,00706.3310,E,3.36,255.63,070507,,*06
$GPGGA,170354.000,5044.0310,N,00706.3287,E,1,07,1.3,62.5,M,47.7,M,,0000*60
$GPGSA,A,3,27,08,10,29,28,26,21,,,,,,2.3,1.3,1.9*33
$GPRMC,170354.000,A,5044.0310,N,00706.3287,E,4.11,235.95,070507,,*06
$GPGGA,170355.000,5044.0304,N,00706.3266,E,1,07,1.3,62.0,M,47.7,M,,0000*6E
$GPGSA,A,3,27,08,10,29,28,26,21,,,,,,2.3,1.3,1.9*33
$GPRMC,170355.000,A,5044.0304,N,00706.3266,E,3.78,235.28,070507,,*03
$GPGGA,170356.000,5044.0297,N,00706.3248,E,1,07,1.3,61.5,M,47.7,M,,0000*6C
$GPGSA,A,3,27,08,10,29,28,26,21,,,,,,2.3,1.3,1.9*33
$GPRMC,170356.000,A,5044.0297,N,00706.3248,E,2.53,230.36,070507,,*05
$GPGGA,170357.000,5044.0290,N,00706.3235,E,1,07,1.3,60.1,M,47.7,M,,0000*65
$GPGSA,A,3,27,08,10,29,28,26,21,,,,,,2.3,1.3,1.9*33
$GPGSV,3,1,11,29,67,300,23,28,54,120,29,26,53,297,24,08,50,062,26*75
$GPGSV,3,2,11,10,46,198,24,27,25,066,25,24,14,269,18,21,12,307,22*7B
$GPGSV,3,3,11,19,08,034,22,18,00,327,,09,00,247,07*4E
$GPRMC,170357.000,A,5044.0290,N,00706.3235,E,2.57,208.68,070507,,*0D
$GPGGA,170358.000,5044.0285,N,00706.3219,E,1,07,1.3,60.1,M,47.7,M,,0000*60
$GPGSA,A,3,27,08,10,29,28,26,21,,,,,,2.3,1.3,1.9*33
$GPRMC,170358.000,A,5044.0285,N,00706.3219,E,3.36,214.85,070507,,*00
$GPGGA,170359.000,5044.0271,N,00706.3201,E,1,07,1.3,58.6,M,47.7,M,,0000*6F
$GPGSA,A,3,27,08,10,29,28,26,21,,,,,,2.3,1.3,1.9*33
$GPRMC,170359.000,A,5044.0271,N,00706.3201,E,3.29,220.96,070507,,*08
$GPGGA,170400.000,5044.0257,N,00706.3180,E,1,07,1.3,56.7,M,47.7,M,,0000*65
$GPGSA,A,3,27,08,10,29,28,26,21,,,,,,2.3,1.3,1.9*33
$GPRMC,170400.000,A,5044.0257,N,00706.3180,E,3.55,237.15,070507,,*0B
$GPGGA,170401.000,5044.0244,N,00706.3159,E,1,07,1.3,55.3,M,47.7,M,,0000*65
$GPGSA,A,3,27,08,10,29,28,26,21,,,,,,2.3,1.3,1.9*33
$GPRMC,170401.000,A,5044.0244,N,00706.3159,E,1.62,256.71,070507,,*0F
$GPGGA,170402.000,5044.0236,N,00706.3141,E,1,07,1.3,55.7,M,47.7,M,,0000*6E
$GPGSA,A,3,27,08,10,29,28,26,21,,,,,,2.3,1.3,1.9*33
$GPGSV,3,1,11,29,67,300,23,28,54,120,29,26,53,297,24,08,50,062,26*75
$GPGSV,3,2,11,10,46,198,31,27,25,066,21,24,14,269,21,21,12,307,19*79
$GPGSV,3,3,11,19,08,034,14,18,00,327,,09,00,247,*4C
$GPRMC,170402.000,A,5044.0236,N,00706.3141,E,2.92,243.14,070507,,*0B
$GPGGA,170403.000,5044.0235,N,00706.3129,E,1,07,1.3,57.5,M,47.7,M,,0000*62
$GPGSA,A,3,27,08,10,29,28,26,21,,,,,,2.3,1.3,1.9*33
$GPRMC,170403.000,A,5044.0235,N,00706.3129,E,0.54,248.01,070507,,*00
$GPGGA,170404.000,5044.0229,N,00706.3120,E,1,07,1.3,57.8,M,47.7,M,,0000*6C
$GPGSA,A,3,27,08,10,29,28,26,21,,,,,,2.3,1.3,1.9*33
$GPRMC,170404.000,A,5044.0229,N,00706.3120,E,2.17,243.66,070507,,*0C
$GPGGA,170405.000,5044.0223,N,00706.3108,E,1,07,1.3,57.5,M,47.7,M,,0000*60
$GPGSA,A,3,27,08,10,29,28,26,21,,,,,,2.3,1.3,1.9*33
$GPRMC,170405.000,A,5044.0223,N,00706.3108,E,2.35,230.14,070507,,*0C
$GPGGA,170406.000,5044.0212,N,00706.3088,E,1,07,1.3,55.9,M,47.7,M,,0000*66
$GPGSA,A,3,27,08,10,29,28,26,21,,,,,,2.3,1.3,1.9*33
$GPRMC,170406.000,A,5044.0212,N,00706.3088,E,2.68,257.80,070507,,*00
$GPGGA,170407.000,5044.0205,N,00706.3071,E,1,07,1.3,55.3,M,47.7,M,,0000*6D
$GPGSA,A,3,27,08,10,29,28,26,21,,,,,,2.3,1.3,1.9*33
$GPGSV,3,1,11,29,67,300,23,28,54,120,32,26,53,297,23,08,50,062,26*78
$GPGSV,3,2,11,10,46,198,33,27,25,066,22,24,14,269,22,21,12,307,18*7A
$GPGSV,3,3,11,19,08,034,13,18,00,327,,09,00,247,07*4C
$GPRMC,170407.000,A,5044.0205,N,00706.3071,E,2.25,243.31,070507,,*07
$GPGGA,170408.000,5044.0197,N,00706.3059,E,1,07,1.3,55.0,M,47.7,M,,0000*63
$GPGSA,A,3,27,08,10,29,28,26,21,,,,,,2.3,1.3,1.9*33
$GPRMC,170408.000,A,5044.0197,N,00706.3059,E,1.73,232.89,070507,,*0F
$GPGGA,170409.000,5044.0191,N,00706.3047,E,1,07,1.3,54.8,M,47.7,M,,0000*62
$GPGSA,A,3,27,08,10,29,28,26,21,,,,,,2.3,1.3,1.9*33
$GPRMC,170409.000,A,5044.0191,N,00706.3047,E,2.19,279.64,070507,,*04
$GPGGA,170410.000,5044.0191,N,00706.3033,E,1,07,1.3,54.7,M,47.7,M,,0000*66
$GPGSA,A,3,27,08,10,29,28,26,21,,,,,,2.3,1.3,1.9*33
$GPRMC,170410.000,A,5044.0191,N,00706.3033,E,2.64,305.17,070507,,*0B
$GPGGA,170411.000,5044.0190,N,00706.3021,E,1,07,1.3,56.2,M,47.7,M,,0000*62
$GPGSA,A,3,27,08,10,29,28,26,21,,,,,,2.3,1.3,1.9*33
$GPRMC,170411.000,A,5044.0190,N,00706.3021,E,2.21,302.72,070507,,*0D
$GPGGA,170412.000,5044.0190,N,00706.3012,E,1,07,1.3,57.2,M,47.7,M,,0000*60
$GPGSA,A,3,27,08,10,29,28,26,21,,,,,,2.3,1.3,1.9*33
$GPGSV,3,1,11,29,67,300,23,28,54,120,32,26,53,297,23,08,50,062,27*79
$GPGSV,3,2,11,10,46,198,35,27,25,066,23,24,14,269,28,21,12,307,17*78
$GPGSV,3,3,11,19,08,034,12,18,00,327,,09,00,247,*4A
$GPRMC,170412.000,A,5044.0190,N,00706.3012,E,1.39,309.69,070507,,*05
$GPGGA,170413.000,5044.0191,N,00706.3006,E,1,07,1.3,57.7,M,47.7,M,,0000*60
$GPGSA,A,3,27,08,10,29,28,26,21,,,,,,2.3,1.3,1.9*33
$GPRMC,170413.000,A,5044.0191,N,00706.3006,E,1.18,274.51,070507,,*03
$GPGGA,170414.000,5044.0189,N,00706.2999,E,1,06,1.5,57.4,M,47.7,M,,0000*64
$GPGSA,A,3,27,08,10,29,28,26,,,,,,,3.8,1.5,3.5*32
$GPRMC,170414.000,A,5044.0189,N,00706.2999,E,1.36,240.27,070507,,*09
$GPGGA,170415.000,5044.0185,N,00706.2994,E,1,07,1.3,57.6,M,47.7,M,,0000*61
$GPGSA,A,3,27,08,10,29,28,26,21,,,,,,2.3,1.3,1.9*33
$GPRMC,170415.000,A,5044.0185,N,00706.2994,E,1.95,244.38,070507,,*0A
$GPGGA,170416.000,5044.0181,N,00706.2989,E,1,07,1.3,57.1,M,47.7,M,,0000*6D
$GPGSA,A,3,27,08,10,29,28,26,21,,,,,,2.3,1.3,1.9*33
$GPRMC,170416.000,A,5044.0181,N,00706.2989,E,1.54,247.76,070507,,*05
$GPGGA,170417.000,5044.0180,N,00706.2982,E,1,07,1.3,57.2,M,47.7,M,,0000*65
$GPGSA,A,3,27,08,10,29,28,26,21,,,,,,2.3,1.3,1.9*33
$GPGSV,3,1,11,29,67,301,22,28,54,119,31,26,54,298,23,08,49,062,28*7F
$GPGSV,3,2,11,10,46,198,35,27,25,067,22,24,13,269,21,21,12,307,16*77
$GPGSV,3,3,11,19,08,034,10,18,00,327,,09,00,247,*48
$GPRMC,170417.000,A,5044.0180,N,00706.2982,E,1.61,267.56,070507,,*08
$GPGGA,170418.000,5044.0181,N,00706.2974,E,1,07,1.3,58.3,M,47.7,M,,0000*6C
$GPGSA,A,3,27,08,10,29,28,26,21,,,,,,2.3,1.3,1.9*33
$GPRMC,170418.000,A,5044.0181,N,00706.2974,E,0.70,251.24,070507,,*0E
$GPGGA,170419.000,5044.0181,N,00706.2961,E,1,07,1.3,59.4,M,47.7,M,,0000*6F
$GPGSA,A,3,27,08,10,29,28,26,21,,,,,,2.3,1.3,1.9*33
$GPRMC,170419.000,A,5044.0181,N,00706.2961,E,1.85,291.22,070507,,*0A
$GPGGA,170420.000,5044.0184,N,00706.2943,E,1,07,1.3,61.5,M,47.7,M,,0000*6A
$GPGSA,A,3,27,08,10,29,28,26,21,,,,,,2.3,1.3,1.9*33
$GPRMC,170420.000,A,5044.0184,N,00706.2943,E,2.42,299.72,070507,,*00
$GPGGA,170421.000,5044.0187,N,00706.2929,E,1,07,1.3,63.1,M,47.7,M,,0000*62
$GPGSA,A,3,27,08,10,29,28,26,21,,,,,,2.3,1.3,1.9*33
$GPRMC,170421.000,A,5044.0187,N,00706.2929,E,1.84,266.66,070507,,*02
$GPGGA,170422.000,5044.0193,N,00706.2920,E,1,07,1.3,66.2,M,47.7,M,,0000*6B
$GPGSA,A,3,27,08,10,29,28,26,21,,,,,,2.3,1.3,1.9*33
$GPGSV,3,1,11,29,67,301,22,28,54,119,26,26,54,298,23,08,49,062,25*74
$GPGSV,3,2,11,10,46,198,29,27,25,067,17,24,13,269,21,21,12,307,15*7F
$GPGSV,3,3,11,19,08,034,,18,00,327,,09,00,247,*49
$GPRMC,170422.000,A,5044.0193,N,00706.2920,E,0.80,298.75,070507,,*0B
$GPGGA,170423.000,5044.0198,N,00706.2908,E,1,07,1.3,68.8,M,47.7,M,,0000*6F
$GPGSA,A,3,27,08,10,29,28,26,21,,,,,,2.3,1.3,1.9*33
$GPRMC,170423.000,A,5044.0198,N,00706.2908,E,2.13,288.06,070507,,*06
$GPGGA,170424.000,5044.0202,N,00706.2896,E,1,07,1.3,70.5,M,47.7,M,,0000*6A
$GPGSA,A,3,27,08,10,29,28,26,21,,,,,,2.3,1.3,1.9*33
$GPRMC,170424.000,A,5044.0202,N,00706.2896,E,1.54,309.36,070507,,*0C
$GPGGA,170425.000,5044.0207,N,00706.2886,E,1,07,1.3,72.7,M,47.7,M,,0000*6F
$GPGSA,A,3,27,08,10,29,28,26,21,,,,,,2.3,1.3,1.9*33
$GPRMC,170425.000,A,5044.0207,N,00706.2886,E,0.83,325.32,070507,,*08
$GPGGA,170426.000,5044.0209,N,00706.2875,E,1,07,1.3,74.6,M,47.7,M,,0000*69
$GPGSA,A,3,27,08,10,29,28,26,21,,,,,,2.3,1.3,1.9*33
$GPRMC,170426.000,A,5044.0209,N,00706.2875,E,1.81,278.13,070507,,*00
$GPGGA,170427.000,5044.0207,N,00706.2866,E,1,07,1.3,76.6,M,47.7,M,,0000*66
$GPGSA,A,3,27,08,10,29,28,26,21,,,,,,2.3,1.3,1.9*33
$GPGSV,3,1,11,29,67,301,22,28,54,119,26,26,54,298,22,08,49,062,27*77
$GPGSV,3,2,11,10,46,198,31,27,25,067,18,24,13,269,20,21,12,307,15*78
$GPGSV,3,3,11,19,08,034,,18,00,327,07,09,00,247,*4E
$GPRMC,170427.000,A,5044.0207,N,00706.2866,E,1.24,252.67,070507,,*09
$GPGGA,170428.000,5044.0210,N,00706.2855,E,1,06,2.4,77.8,M,47.7,M,,0000*65
$GPGSA,A,3,27,08,29,28,26,21,,,,,,,3.3,2.4,2.2*3F
$GPRMC,170428.000,A,5044.0210,N,00706.2855,E,1.45,257.95,070507,,*0F
$GPGGA,170429.000,5044.0216,N,00706.2845,E,1,07,1.3,79.8,M,47.7,M,,0000*68
$GPGSA,A,3,27,08,10,29,28,26,21,,,,,,2.3,1.3,1.9*33
$GPRMC,170429.000,A,5044.0216,N,00706.2845,E,0.45,288.91,070507,,*0E
$GPGGA,170430.000,5044.0225,N,00706.2837,E,1,07,1.3,83.4,M,47.7,M,,0000*6C
$GPGSA,A,3,27,08,10,29,28,26,21,,,,,,2.3,1.3,1.9*33
$GPRMC,170430.000,A,5044.0225,N,00706.2837,E,0.84,123.13,070507,,*06
$GPGGA,170431.000,5044.0231,N,00706.2835,E,1,07,1.3,85.0,M,47.7,M,,0000*68
$GPGSA,A,3,27,08,10,29,28,26,21,,,,,,2.3,1.3,1.9*33
$GPRMC,170431.000,A,5044.0231,N,00706.2835,E,0.43,50.70,070507,,*3B
$GPGGA,170432.000,5044.0240,N,00706.2828,E,1,07,1.3,86.5,M,47.7,M,,0000*67
$GPGSA,A,3,27,08,10,29,28,26,21,,,,,,2.3,1.3,1.9*33
$GPGSV,3,1,11,29,67,301,23,28,54,119,26,26,54,298,25,08,49,062,26*70
$GPGSV,3,2,11,10,46,198,23,27,25,067,23,24,13,269,19,21,12,307,15*79
$GPGSV,3,3,11,19,08,034,07,18,00,327,,09,00,247,08*46
$GPRMC,170432.000,A,5044.0240,N,00706.2828,E,0.82,75.92,070507,,*34
$GPGGA,170433.000,5044.0250,N,00706.2821,E,1,07,1.3,87.6,M,47.7,M,,0000*6C
$GPGSA,A,3,27,08,10,29,28,26,21,,,,,,2.3,1.3,1.9*33
$GPRMC,170433.000,A,5044.0250,N,00706.2821,E,0.72,320.91,070507,,*02
$GPGGA,170434.000,5044.0262,N,00706.2812,E,1,07,1.3,88.7,M,47.7,M,,0000*64
$GPGSA,A,3,27,08,10,29,28,26,21,,,,,,2.3,1.3,1.9*33
$GPRMC,170434.000,A,5044.0262,N,00706.2812,E,1.04,293.53,070507,,*03
$GPGGA,170435.000,5044.0269,N,00706.2801,E,1,07,1.3,89.5,M,47.7,M,,0000*6F
$GPGSA,A,3,27,08,10,29,28,26,21,,,,,,2.3,1.3,1.9*33
$GPRMC,170435.000,A,5044.0269,N,00706.2801,E,0.99,121.96,070507,,*0D
$GPGGA,170436.000,5044.0270,N,00706.2798,E,1,07,1.3,90.3,M,47.7,M,,0000*65
$GPGSA,A,3,27,08,10,29,28,26,21,,,,,,2.3,1.3,1.9*33
$GPRMC,170436.000,A,5044.0270,N,00706.2798,E,2.20,121.10,070507,,*07
$GPGGA,170437.000,5044.0270,N,00706.2798,E,1,07,1.3,89.4,M,47.7,M,,0000*6B
$GPGSA,A,3,27,08,10,29,28,26,21,,,,,,2.3,1.3,1.9*33
$GPGSV,3,1,11,29,67,301,23,28,54,119,22,26,54,298,31,08,49,062,29*7E
$GPGSV,3,2,11,10,46,198,24,27,25,067,22,24,13,269,29,21,12,307,16*7F
$GPGSV,3,3,11,19,08,034,08,18,00,327,09,09,00,247,*48
$GPRMC,170437.000,A,5044.0270,N,00706.2798,E,2.13,149.04,070507,,*0D
$GPGGA,170438.000,5044.0266,N,00706.2797,E,1,07,1.3,87.4,M,47.7,M,,0000*62
$GPGSA,A,3,27,08,10,29,28,26,21,,,,,,2.3,1.3,1.9*33
$GPRMC,170438.000,A,5044.0266,N,00706.2797,E,3.13,136.21,070507,,*04
$GPGGA,170439.000,5044.0262,N,00706.2797,E,1,06,1.5,88.0,M,47.7,M,,0000*6B
$GPGSA,A,3,27,08,10,29,28,26,,,,,,,3.8,1.5,3.5*32
$GPRMC,170439.000,A,5044.0262,N,00706.2797,E,2.73,108.28,070507,,*02
$GPGGA,170440.000,5044.0257,N,00706.2796,E,1,06,1.5,87.8,M,47.7,M,,0000*65
$GPGSA,A,3,27,08,10,29,28,26,,,,,,,3.8,1.5,3.5*32
