$GPRMC,084840.00,A,5045.07690,N,00705.83799,E,0.000,,280508,,,A*75
$GPVTG,,T,,M,0.000,N,0.000,K,A*23
$GPGGA,084840.00,5045.07690,N,00705.83799,E,1,04,2.40,54.7,M,47.7,M,,*6E
$GPGSA,A,3,11,31,13,23,,,,,,,,,3.66,2.40,2.76*05
$GPGSV,3,1,11,20,62,083,,17,31,247,,11,26,159,36,04,34,304,*7B
$GPGSV,3,2,11,31,23,046,33,32,18,085,,25,10,167,26,30,01,005,*79
$GPGSV,3,3,11,13,39,211,38,02,02,314,,23,74,173,30*4A
$GPGLL,5045.07690,N,00705.83799,E,084840.00,A,A*6B
$GPZDA,084840.00,28,05,2008,00,00*63
$GPRMC,084841.00,A,5045.07690,N,00705.83799,E,0.000,,280508,,,A*74
$GPVTG,,T,,M,0.000,N,0.000,K,A*23
$GPGGA,084841.00,5045.07690,N,00705.83799,E,1,04,2.40,54.7,M,47.7,M,,*6F
$GPGSA,A,3,11,31,13,23,,,,,,,,,3.66,2.40,2.76*05
$GPGSV,3,1,11,20,62,083,,17,31,247,,11,26,159,35,04,34,304,*78
$GPGSV,3,2,11,31,23,046,34,32,18,085,,25,10,167,26,30,01,005,*7E
$GPGSV,3,3,11,13,39,211,38,02,02,314,,23,74,173,35*4F
$GPGLL,5045.07690,N,00705.83799,E,084841.00,A,A*6A
$GPZDA,084841.00,28,05,2008,00,00*62
$GPRMC,084842.00,A,5045.07690,N,00705.83799,E,0.000,,280508,,,A*77
$GPVTG,,T,,M,0.000,N,0.000,K,A*23
$GPGGA,084842.00,5045.07690,N,00705.83799,E,1,04,2.40,54.7,M,47.7,M,,*6C
$GPGSA,A,3,11,31,13,23,,,,,,,,,3.66,2.40,2.76*05
$GPGSV,3,1,11,20,62,083,,17,31,247,20,11,26,159,37,04,34,304,*78
$GPGSV,3,2,11,31,23,046,31,32,18,085,,25,10,167,28,30,01,005,*75
$GPGSV,3,3,11,13,39,211,35,02,02,314,,23,74,173,30*47
$GPGLL,5045.07690,N,00705.83799,E,084842.00,A,A*69
$GPZDA,084842.00,28,05,2008,00,00*61
$GPRMC,084843.00,A,5045.07690,N,00705.83799,E,0.000,,280508,,,A*76
$GPVTG,,T,,M,0.000,N,0.000,K,A*23
$GPGGA,084843.00,5045.07690,N,00705.83799,E,1,04,2.40,54.7,M,47.7,M,,*6D
$GPGSA,A,3,11,31,13,23,,,,,,,,,3.66,2.40,2.76*05
$GPGSV,3,1,11,20,62,083,23,17,31,247,20,11,26,159,35,04,34,304,*7B
$GPGSV,3,2,11,31,23,046,27,32,18,085,,25,10,167,24,30,01,005,*7E
$GPGSV,3,3,11,13,39,211,38,02,02,314,,23,74,173,30*4A
$GPGLL,5045.07690,N,00705.83799,E,084843.00,A,A*68
$GPZDA,084843.00,28,05,2008,00,00*60
$GPRMC,084844.00,A,5045.07681,N,00705.83793,E,2.589,26.21,280508,,,A*54
$GPVTG,26.21,T,,M,2.589,N,4.798,K,A*0E
$GPGGA,084844.00,5045.07681,N,00705.83793,E,1,05,1.07,54.7,M,47.7,M,,*61
$GPGSA,A,3,20,11,31,13,23,,,,,,,,1.39,1.07,0.89*0D
$GPGSV,3,1,11,20,62,083,25,17,31,247,18,11,26,159,33,04,34,304,*70
$GPGSV,3,2,11,31,23,046,27,32,18,085,21,25,10,167,29,30,01,005,*70
$GPGSV,3,3,11,13,39,211,40,02,02,314,,23,74,173,27*43
$GPGLL,5045.07681,N,00705.83793,E,084844.00,A,A*65
$GPZDA,084844.00,28,05,2008,00,00*67
$GPRMC,084845.00,A,5045.07744,N,00705.83838,E,2.447,24.38,280508,,,A*5A
$GPVTG,24.38,T,,M,2.447,N,4.534,K,A*03
$GPGGA,084845.00,5045.07744,N,00705.83838,E,1,05,2.14,54.7,M,47.7,M,,*67
$GPGSA,A,3,20,11,31,13,23,,,,,,,,2.98,2.14,2.08*0F
$GPGSV,3,1,11,20,62,083,23,17,31,247,21,11,26,159,29,04,34,304,*77
$GPGSV,3,2,11,31,23,046,27,32,18,085,22,25,10,167,28,30,01,005,*72
$GPGSV,3,3,11,13,39,211,36,02,02,314,,23,74,173,32*46
$GPGLL,5045.07744,N,00705.83838,E,084845.00,A,A*62
$GPZDA,084845.00,28,05,2008,00,00*66
$GPRMC,084846.00,A,5045.07804,N,00705.83883,E,2.446,25.25,280508,,,A*5E
$GPVTG,25.25,T,,M,2.446,N,4.532,K,A*09
$GPGGA,084846.00,5045.07804,N,00705.83883,E,1,06,1.91,54.7,M,47.7,M,,*62
$GPGSA,A,3,20,11,31,32,13,23,,,,,,,2.79,1.91,2.03*04
$GPGSV,3,1,11,20,62,083,26,17,31,247,21,11,26,159,27,04,34,304,19*74
$GPGSV,3,2,11,31,23,046,23,32,18,085,22,25,10,167,20,30,01,005,*7E
$GPGSV,3,3,11,13,39,211,33,02,02,314,,23,74,173,31*40
$GPGLL,5045.07804,N,00705.83883,E,084846.00,A,A*6A
$GPZDA,084846.00,28,05,2008,00,00*65
$GPRMC,084847.00,A,5045.07859,N,00705.83934,E,2.359,28.29,280508,,,A*52
$GPVTG,28.29,T,,M,2.359,N,4.372,K,A*03
$GPGGA,084847.00,5045.07859,N,00705.83934,E,1,06,1.91,54.7,M,47.7,M,,*66
$GPGSA,A,3,20,11,31,32,13,23,,,,,,,2.79,1.91,2.03*04
$GPGSV,3,1,11,20,62,083,22,17,31,247,22,11,26,159,25,04,34,304,18*70
$GPGSV,3,2,11,31,23,046,24,32,18,085,23,25,10,167,20,30,01,005,*78
$GPGSV,3,3,11,13,39,211,34,02,02,314,12,23,74,173,23*47
$GPGLL,5045.07859,N,00705.83934,E,084847.00,A,A*6E
$GPZDA,084847.00,28,05,2008,00,00*64
$GPRMC,084848.00,A,5045.07920,N,00705.83944,E,2.263,20.65,280508,,,A*5D
$GPVTG,20.65,T,,M,2.263,N,4.193,K,A*06
$GPGGA,084848.00,5045.07920,N,00705.83944,E,1,06,1.91,54.7,M,47.7,M,,*61
$GPGSA,A,3,20,11,31,32,13,23,,,,,,,2.79,1.91,2.03*04
$GPGSV,3,1,11,20,62,083,24,17,31,247,23,11,26,159,25,04,34,304,19*76
$GPGSV,3,2,11,31,23,046,21,32,18,085,23,25,10,167,22,30,01,005,*7F
$GPGSV,3,3,11,13,39,211,35,02,02,314,11,23,74,173,31*46
$GPGLL,5045.07920,N,00705.83944,E,084848.00,A,A*69
$GPZDA,084848.00,28,05,2008,00,00*6B
$GPRMC,084849.00,A,5045.07964,N,00705.83922,E,2.025,10.32,280508,,,A*5D
$GPVTG,10.32,T,,M,2.025,N,3.751,K,A*08
$GPGGA,084849.00,5045.07964,N,00705.83922,E,1,06,1.91,54.7,M,47.7,M,,*60
$GPGSA,A,3,20,11,31,32,13,23,,,,,,,2.79,1.91,2.03*04
$GPGSV,3,1,11,20,62,083,24,17,31,247,23,11,26,159,28,04,34,304,20*71
$GPGSV,3,2,11,31,23,046,25,32,18,085,22,25,10,167,19,30,01,005,*72
$GPGSV,3,3,11,13,39,211,33,02,02,314,,23,74,173,30*41
$GPGLL,5045.07964,N,00705.83922,E,084849.00,A,A*68
$GPZDA,084849.00,28,05,2008,00,00*6A
$GPRMC,084850.00,A,5045.08006,N,00705.83902,E,1.811,9.94,280508,,,A*6D
$GPVTG,9.94,T,,M,1.811,N,3.355,K,A*30
$GPGGA,084850.00,5045.08006,N,00705.83902,E,1,06,1.91,54.7,M,47.7,M,,*68
$GPGSA,A,3,20,11,31,32,13,23,,,,,,,2.78,1.91,2.03*05
$GPGSV,3,1,11,02,02,314,,20,62,083,24,17,31,247,22,11,26,159,28*70
$GPGSV,3,2,11,04,34,304,25,31,23,046,23,32,18,085,22,25,10,167,22*78
$GPGSV,3,3,11,30,01,005,,13,39,211,37,23,74,173,28*4D
$GPGLL,5045.08006,N,00705.83902,E,084850.00,A,A*60
$GPZDA,084850.00,28,05,2008,00,00*62
$GPRMC,084851.00,A,5045.08060,N,00705.83898,E,2.206,10.43,280508,,,A*53
$GPVTG,10.43,T,,M,2.206,N,4.088,K,A*09
$GPGGA,084851.00,5045.08060,N,00705.83898,E,1,06,1.91,54.7,M,47.7,M,,*6B
$GPGSA,A,3,20,11,31,32,13,23,,,,,,,2.78,1.91,2.03*05
$GPGSV,3,1,11,02,02,314,,20,62,083,25,17,31,247,23,11,26,159,25*7D
$GPGSV,3,2,11,04,34,304,31,31,23,046,26,32,18,085,21,25,10,167,22*7B
$GPGSV,3,3,11,30,01,005,,13,39,211,36,23,74,173,26*42
$GPGLL,5045.08060,N,00705.83898,E,084851.00,A,A*63
$GPZDA,084851.00,28,05,2008,00,00*63
$GPRMC,084852.00,A,5045.08123,N,00705.83872,E,2.253,5.78,280508,,,A*6E
$GPVTG,5.78,T,,M,2.253,N,4.174,K,A*37
$GPGGA,084852.00,5045.08123,N,00705.83872,E,1,06,1.91,54.7,M,47.7,M,,*6A
$GPGSA,A,3,20,11,31,32,13,23,,,,,,,2.78,1.91,2.03*05
$GPGSV,3,1,11,02,02,314,,20,62,083,25,17,31,247,21,11,26,159,28*72
$GPGSV,3,2,11,04,34,304,31,31,23,046,20,32,18,085,21,25,10,167,23*7C
$GPGSV,3,3,11,30,01,005,,13,39,211,33,23,74,173,25*44
$GPGLL,5045.08123,N,00705.83872,E,084852.00,A,A*62
$GPZDA,084852.00,28,05,2008,00,00*60
$GPRMC,084853.00,A,5045.08148,N,00705.83817,E,1.778,5.20,280508,,,A*63
$GPVTG,5.20,T,,M,1.778,N,3.294,K,A*3F
$GPGGA,084853.00,5045.08148,N,00705.83817,E,1,06,1.91,54.7,M,47.7,M,,*65
$GPGSA,A,3,20,11,31,32,13,23,,,,,,,2.78,1.91,2.03*05
$GPGSV,3,1,11,02,02,314,,20,62,083,28,17,31,247,19,11,26,159,36*7B
$GPGSV,3,2,11,04,34,304,27,31,23,046,25,32,18,085,20,25,10,167,23*7F
$GPGSV,3,3,11,30,01,005,,13,39,211,27,23,74,173,26*42
$GPGLL,5045.08148,N,00705.83817,E,084853.00,A,A*6D
$GPZDA,084853.00,28,05,2008,00,00*61
$GPRMC,084854.00,A,5045.08160,N,00705.83799,E,1.566,4.57,280508,,,A*6B
$GPVTG,4.57,T,,M,1.566,N,2.903,K,A*37
$GPGGA,084854.00,5045.08160,N,00705.83799,E,1,06,1.91,54.7,M,47.7,M,,*61
$GPGSA,A,3,20,11,31,32,13,23,,,,,,,2.78,1.91,2.03*05
$GPGSV,3,1,11,02,02,314,,20,62,083,28,17,31,247,21,11,26,159,32*74
$GPGSV,3,2,11,04,34,304,25,31,23,046,26,32,18,085,21,25,10,167,24*78
$GPGSV,3,3,11,30,01,005,,13,39,211,31,23,74,173,28*4B
$GPGLL,5045.08160,N,00705.83799,E,084854.00,A,A*69
$GPZDA,084854.00,28,05,2008,00,00*66
$GPRMC,084855.00,A,5045.08082,N,00705.83839,E,0.715,3.48,280508,,,A*6C
$GPVTG,3.48,T,,M,0.715,N,1.324,K,A*35
$GPGGA,084855.00,5045.08082,N,00705.83839,E,1,06,1.91,54.7,M,47.7,M,,*68
$GPGSA,A,3,20,11,31,32,13,23,,,,,,,2.78,1.91,2.03*05
$GPGSV,3,1,11,02,02,314,,20,62,083,30,17,31,247,23,11,26,159,34*79
$GPGSV,3,2,11,04,34,304,30,31,23,046,28,32,18,085,21,25,10,167,28*7E
$GPGSV,3,3,11,30,01,005,,13,39,211,31,23,74,173,33*41
$GPGLL,5045.08082,N,00705.83839,E,084855.00,A,A*60
$GPZDA,084855.00,28,05,2008,00,00*67
$GPRMC,084856.00,A,5045.08058,N,00705.83860,E,0.674,2.51,280508,,,A*6B
$GPVTG,2.51,T,,M,0.674,N,1.249,K,A*30
$GPGGA,084856.00,5045.08058,N,00705.83860,E,1,06,1.91,54.7,M,47.7,M,,*60
$GPGSA,A,3,20,11,31,32,13,23,,,,,,,2.78,1.91,2.03*05
$GPGSV,3,1,11,02,02,314,,20,62,083,32,17,31,247,22,11,26,159,33*7D
$GPGSV,3,2,11,04,34,304,28,31,23,046,27,32,18,085,22,25,10,167,28*7B
$GPGSV,3,3,11,30,01,005,,13,39,211,29,23,74,173,31*4A
$GPGLL,5045.08058,N,00705.83860,E,084856.00,A,A*68
$GPZDA,084856.00,28,05,2008,00,00*64
$GPRMC,084857.00,A,5045.08037,N,00705.83911,E,0.567,3.58,280508,,,A*6D
$GPVTG,3.58,T,,M,0.567,N,1.051,K,A*32
$GPGGA,084857.00,5045.08037,N,00705.83911,E,1,06,1.91,54.7,M,47.7,M,,*6F
$GPGSA,A,3,20,11,31,32,13,23,,,,,,,2.78,1.91,2.03*05
$GPGSV,3,1,11,02,03,314,,20,62,083,30,17,31,247,21,11,26,159,38*76
$GPGSV,3,2,11,04,34,304,22,31,23,046,23,32,18,085,25,25,10,167,29*73
$GPGSV,3,3,11,30,01,005,,13,39,211,27,23,74,173,35*40
$GPGLL,5045.08037,N,00705.83911,E,084857.00,A,A*67
$GPZDA,084857.00,28,05,2008,00,00*65
$GPRMC,084858.00,A,5045.08034,N,00705.84382,E,1.588,7.31,280508,,,A*6D
$GPVTG,7.31,T,,M,1.588,N,2.942,K,A*31
$GPGGA,084858.00,5045.08034,N,00705.84382,E,1,06,1.91,54.7,M,47.7,M,,*64
$GPGSA,A,3,20,11,31,32,13,23,,,,,,,2.78,1.91,2.03*05
$GPGSV,3,1,11,02,03,314,,20,62,083,28,17,31,247,21,11,26,159,39*7E
$GPGSV,3,2,11,04,34,304,23,31,23,046,25,32,18,085,32,25,10,167,35*7F
$GPGSV,3,3,11,30,01,005,,13,39,211,29,23,74,173,36*4D
$GPGLL,5045.08034,N,00705.84382,E,084858.00,A,A*6C
$GPZDA,084858.00,28,05,2008,00,00*6A
$GPRMC,084859.00,A,5045.08072,N,00705.84515,E,1.908,10.47,280508,,,A*55
$GPVTG,10.47,T,,M,1.908,N,3.536,K,A*0C
$GPGGA,084859.00,5045.08072,N,00705.84515,E,1,06,1.91,54.7,M,47.7,M,,*6F
$GPGSA,A,3,20,11,31,32,13,23,,,,,,,2.78,1.91,2.03*05
$GPGSV,3,1,11,02,03,314,,20,62,083,30,17,31,247,21,11,26,159,31*7F
$GPGSV,3,2,11,04,35,304,23,31,23,046,25,32,18,085,31,25,10,167,29*70
$GPGSV,3,3,11,30,01,005,,13,39,211,26,23,74,173,34*40
$GPGLL,5045.08072,N,00705.84515,E,084859.00,A,A*67
$GPZDA,084859.00,28,05,2008,00,00*6B
$GPRMC,084900.00,A,5045.08082,N,00705.84621,E,1.930,13.49,280508,,,A*55
$GPVTG,13.49,T,,M,1.930,N,3.576,K,A*0E
$GPGGA,084900.00,5045.08082,N,00705.84621,E,1,06,1.91,54.7,M,47.7,M,,*69
$GPGSA,A,3,20,11,31,32,13,23,,,,,,,2.78,1.91,2.03*05
$GPGSV,3,1,11,02,03,314,,20,62,083,30,17,31,247,20,11,26,159,29*77
$GPGSV,3,2,11,04,35,304,21,31,23,046,23,32,18,085,21,25,10,167,28*74
$GPGSV,3,3,11,30,01,005,,13,39,211,26,23,74,173,29*4C
$GPGLL,5045.08082,N,00705.84621,E,084900.00,A,A*61
$GPZDA,084900.00,28,05,2008,00,00*66
$GPRMC,084901.00,A,5045.08095,N,00705.84720,E,1.976,56.23,280508,,,A*5D
$GPVTG,56.23,T,,M,1.976,N,3.662,K,A*07
$GPGGA,084901.00,5045.08095,N,00705.84720,E,1,06,1.91,54.7,M,47.7,M,,*6E
$GPGSA,A,3,20,11,31,32,13,23,,,,,,,2.78,1.91,2.03*05
$GPGSV,3,1,11,02,03,314,,20,62,083,32,17,31,247,22,11,26,159,30*7F
$GPGSV,3,2,11,04,35,304,21,31,23,046,27,32,18,085,27,25,10,167,32*7D
$GPGSV,3,3,11,30,01,005,,13,39,211,28,23,74,173,35*4F
$GPGLL,5045.08095,N,00705.84720,E,084901.00,A,A*66
$GPZDA,084901.00,28,05,2008,00,00*67
$GPRMC,084902.00,A,5045.08114,N,00705.84801,E,1.822,55.85,280508,,,A*55
$GPVTG,55.85,T,,M,1.822,N,3.377,K,A*09
$GPGGA,084902.00,5045.08114,N,00705.84801,E,1,06,1.91,54.7,M,47.7,M,,*69
$GPGSA,A,3,20,11,31,32,13,23,,,,,,,2.78,1.91,2.03*05
$GPGSV,3,1,11,02,03,314,,20,62,083,33,17,31,247,21,11,26,159,36*7B
$GPGSV,3,2,11,04,35,304,21,31,23,046,28,32,18,085,28,25,10,167,30*7F
$GPGSV,3,3,11,30,01,005,,13,39,211,33,23,74,173,33*43
$GPGLL,5045.08114,N,00705.84801,E,084902.00,A,A*61
$GPZDA,084902.00,28,05,2008,00,00*64
$GPRMC,084903.00,A,5045.08244,N,00705.84753,E,2.363,21.31,280508,,,A*5B
$GPVTG,21.31,T,,M,2.363,N,4.379,K,A*01
$GPGGA,084903.00,5045.08244,N,00705.84753,E,1,06,1.91,54.7,M,47.7,M,,*66
$GPGSA,A,3,20,11,31,32,13,23,,,,,,,2.78,1.91,2.03*05
$GPGSV,3,1,11,02,03,314,,20,62,083,35,17,31,247,21,11,26,159,37*7C
$GPGSV,3,2,11,04,35,304,22,31,23,046,31,32,18,085,27,25,10,167,29*73
$GPGSV,3,3,11,30,01,005,,13,39,211,33,23,74,173,35*45
$GPGLL,5045.08244,N,00705.84753,E,084903.00,A,A*6E
$GPZDA,084903.00,28,05,2008,00,00*65
$GPRMC,084904.00,A,5045.08377,N,00705.84577,E,2.112,358.01,280508,,,A*63
$GPVTG,358.01,T,,M,2.112,N,3.914,K,A*3D
$GPGGA,084904.00,5045.08377,N,00705.84577,E,1,06,1.91,54.7,M,47.7,M,,*64
$GPGSA,A,3,20,11,31,32,13,23,,,,,,,2.78,1.91,2.03*05
$GPGSV,3,1,11,02,03,314,,20,62,083,33,17,31,247,21,11,26,159,30*7D
$GPGSV,3,2,11,04,35,304,22,31,23,046,36,32,18,085,24,25,10,167,23*7D
$GPGSV,3,3,11,30,01,005,,13,39,211,28,23,74,173,35*4F
$GPGLL,5045.08377,N,00705.84577,E,084904.00,A,A*6C
$GPZDA,084904.00,28,05,2008,00,00*62
$GPRMC,084905.00,A,5045.08471,N,00705.84553,E,2.195,354.22,280508,,,A*67
$GPVTG,354.22,T,,M,2.195,N,4.067,K,A*35
$GPGGA,084905.00,5045.08471,N,00705.84553,E,1,06,1.91,54.7,M,47.7,M,,*62
$GPGSA,A,3,20,11,31,32,13,23,,,,,,,2.78,1.91,2.03*05
$GPGSV,3,1,11,02,03,314,,20,62,083,34,17,31,247,21,11,26,159,39*73
$GPGSV,3,2,11,04,35,304,22,31,23,046,35,32,18,085,28,25,10,167,31*71
$GPGSV,3,3,11,30,01,005,,13,39,211,32,23,74,173,33*42
$GPGLL,5045.08471,N,00705.84553,E,084905.00,A,A*6A
$GPZDA,084905.00,28,05,2008,00,00*63
$GPRMC,084906.00,A,5045.08561,N,00705.84527,E,2.342,355.71,280508,,,A*68
$GPVTG,355.71,T,,M,2.342,N,4.340,K,A*3C
$GPGGA,084906.00,5045.08561,N,00705.84527,E,1,06,1.91,54.7,M,47.7,M,,*62
$GPGSA,A,3,20,11,31,32,13,23,,,,,,,2.78,1.91,2.03*05
$GPGSV,3,1,11,02,03,314,,20,62,083,31,17,31,247,22,11,26,159,35*79
$GPGSV,3,2,11,04,35,304,23,31,23,046,36,32,18,085,28,25,10,167,32*70
$GPGSV,3,3,11,30,01,005,,13,39,211,27,23,74,173,30*45
$GPGLL,5045.08561,N,00705.84527,E,084906.00,A,A*6A
$GPZDA,084906.00,28,05,2008,00,00*60
$GPRMC,084907.00,A,5045.08640,N,00705.84558,E,2.297,356.57,280508,,,A*6F
$GPVTG,356.57,T,,M,2.297,N,4.257,K,A*35
$GPGGA,084907.00,5045.08640,N,00705.84558,E,1,06,1.91,54.7,M,47.7,M,,*6B
$GPGSA,A,3,20,11,31,32,13,23,,,,,,,2.78,1.91,2.02*04
$GPGSV,3,1,11,02,03,314,,20,62,083,30,17,31,247,22,11,26,159,34*79
$GPGSV,3,2,11,04,35,304,24,31,23,046,37,32,18,085,25,25,10,167,31*78
$GPGSV,3,3,11,30,01,005,,13,39,211,32,23,74,173,30*41
$GPGLL,5045.08640,N,00705.84558,E,084907.00,A,A*63
$GPZDA,084907.00,28,05,2008,00,00*61
$GPRMC,084908.00,A,5045.08743,N,00705.84482,E,2.615,349.47,280508,,,A*65
$GPVTG,349.47,T,,M,2.615,N,4.846,K,A*3E
$GPGGA,084908.00,5045.08743,N,00705.84482,E,1,06,1.91,54.7,M,47.7,M,,*60
$GPGSA,A,3,20,11,31,32,13,23,,,,,,,2.78,1.91,2.02*04
$GPGSV,3,1,11,02,03,314,,20,62,083,30,17,31,247,22,11,26,159,36*7B
$GPGSV,3,2,11,04,35,304,24,31,23,046,34,32,18,085,26,25,10,167,23*7B
$GPGSV,3,3,11,30,01,005,,13,40,211,29,23,74,173,32*47
$GPGLL,5045.08743,N,00705.84482,E,084908.00,A,A*68
$GPZDA,084908.00,28,05,2008,00,00*6E
$GPRMC,084909.00,A,5045.08842,N,00705.84452,E,2.745,353.55,280508,,,A*6B
$GPVTG,353.55,T,,M,2.745,N,5.087,K,A*36
$GPGGA,084909.00,5045.08842,N,00705.84452,E,1,06,1.90,54.7,M,47.7,M,,*63
$GPGSA,A,3,20,11,31,32,13,23,,,,,,,2.78,1.90,2.03*04
$GPGSV,3,1,11,02,03,314,,20,62,083,32,17,31,247,20,11,26,159,36*7B
$GPGSV,3,2,11,04,35,304,24,31,23,046,29,32,18,085,28,25,10,167,31*7A
$GPGSV,3,3,11,30,01,005,,13,40,211,34,23,74,173,33*4A
$GPGLL,5045.08842,N,00705.84452,E,084909.00,A,A*6A
$GPZDA,084909.00,28,05,2008,00,00*6F
$GPRMC,084910.00,A,5045.08930,N,00705.84381,E,2.635,349.12,280508,,,A*60
$GPVTG,349.12,T,,M,2.635,N,4.883,K,A*35
$GPGGA,084910.00,5045.08930,N,00705.84381,E,1,06,1.90,54.7,M,47.7,M,,*66
$GPGSA,A,3,20,11,31,32,13,23,,,,,,,2.78,1.90,2.02*05
$GPGSV,3,1,11,02,03,314,,20,62,083,33,17,31,247,22,11,26,159,34*7A
$GPGSV,3,2,11,04,35,304,23,31,23,046,30,32,18,085,25,25,10,167,24*7C
$GPGSV,3,3,11,30,01,005,,13,40,211,30,23,74,173,33*4E
$GPGLL,5045.08930,N,00705.84381,E,084910.00,A,A*6F
$GPZDA,084910.00,28,05,2008,00,00*67
$GPRMC,084911.00,A,5045.09011,N,00705.84362,E,2.624,352.73,280508,,,A*6A
$GPVTG,352.73,T,,M,2.624,N,4.862,K,A*37
$GPGGA,084911.00,5045.09011,N,00705.84362,E,1,06,1.90,54.7,M,47.7,M,,*61
$GPGSA,A,3,20,11,31,32,13,23,,,,,,,2.78,1.90,2.02*05
$GPGSV,3,1,11,02,03,314,,20,62,083,34,17,31,247,24,11,26,159,38*77
$GPGSV,3,2,11,04,35,304,23,31,23,046,30,32,18,085,28,25,10,167,17*71
$GPGSV,3,3,11,30,01,005,,13,40,211,24,23,74,173,30*48
$GPGLL,5045.09011,N,00705.84362,E,084911.00,A,A*68
$GPZDA,084911.00,28,05,2008,00,00*66
$GPRMC,084912.00,A,5045.09073,N,00705.84326,E,2.293,344.55,280508,,,A*66
$GPVTG,344.55,T,,M,2.293,N,4.249,K,A*3F
$GPGGA,084912.00,5045.09073,N,00705.84326,E,1,06,1.90,54.7,M,47.7,M,,*66
$GPGSA,A,3,20,11,31,32,13,23,,,,,,,2.78,1.90,2.03*04
$GPGSV,3,1,11,02,03,314,,20,62,083,32,17,31,247,19,11,26,159,38*7F
$GPGSV,3,2,11,04,35,304,24,31,23,046,29,32,18,085,30,25,10,167,22*71
$GPGSV,3,3,11,30,01,005,,13,40,211,31,23,74,173,31*4D
$GPGLL,5045.09073,N,00705.84326,E,084912.00,A,A*6F
$GPZDA,084912.00,28,05,2008,00,00*65
$GPRMC,084913.00,A,5045.09125,N,00705.84256,E,2.412,340.27,280508,,,A*6D
$GPVTG,340.27,T,,M,2.412,N,4.469,K,A*35
$GPGGA,084913.00,5045.09125,N,00705.84256,E,1,06,1.90,54.7,M,47.7,M,,*63
$GPGSA,A,3,20,11,31,32,13,23,,,,,,,2.78,1.90,2.03*04
$GPGSV,3,1,11,02,03,314,,20,62,083,35,17,31,247,19,11,26,159,38*78
$GPGSV,3,2,11,04,35,304,23,31,23,046,22,32,18,085,35,25,10,167,24*7E
$GPGSV,3,3,11,30,01,005,,13,40,211,24,23,74,173,32*4A
$GPGLL,5045.09125,N,00705.84256,E,084913.00,A,A*6A
$GPZDA,084913.00,28,05,2008,00,00*64
$GPRMC,084914.00,A,5045.09161,N,00705.84345,E,2.345,336.90,280508,,,A*61
$GPVTG,336.90,T,,M,2.345,N,4.345,K,A*34
$GPGGA,084914.00,5045.09161,N,00705.84345,E,1,06,1.90,54.7,M,47.7,M,,*67
$GPGSA,A,3,20,11,31,32,13,23,,,,,,,2.78,1.90,2.02*05
$GPGSV,3,1,11,02,03,314,,20,62,083,33,17,31,247,19,11,26,159,38*7E
$GPGSV,3,2,11,04,35,304,23,31,23,046,25,32,18,085,38,25,10,167,29*79
$GPGSV,3,3,11,30,01,005,,13,40,211,29,23,74,173,32*47
$GPGLL,5045.09161,N,00705.84345,E,084914.00,A,A*6E
$GPZDA,084914.00,28,05,2008,00,00*63
$GPRMC,084915.00,A,5045.09206,N,00705.84430,E,2.200,338.89,280508,,,A*61
$GPVTG,338.89,T,,M,2.200,N,4.076,K,A*31
$GPGGA,084915.00,5045.09206,N,00705.84430,E,1,06,1.90,54.7,M,47.7,M,,*61
$GPGSA,A,3,20,11,31,32,13,23,,,,,,,2.78,1.90,2.02*05
$GPGSV,3,1,11,02,03,314,,20,62,083,32,17,31,247,19,11,26,159,38*7F
$GPGSV,3,2,11,04,35,304,23,31,23,046,25,32,18,085,37,25,10,167,24*7B
$GPGSV,3,3,11,30,01,005,,13,40,211,29,23,74,173,33*46
$GPGLL,5045.09206,N,00705.84430,E,084915.00,A,A*68
$GPZDA,084915.00,28,05,2008,00,00*62
$GPRMC,084916.00,A,5045.09241,N,00705.84584,E,2.286,347.11,280508,,,A*68
$GPVTG,347.11,T,,M,2.286,N,4.235,K,A*33
$GPGGA,084916.00,5045.09241,N,00705.84584,E,1,06,1.90,54.7,M,47.7,M,,*6F
$GPGSA,A,3,20,11,31,32,13,23,,,,,,,2.78,1.90,2.02*05
$GPGSV,3,1,11,02,03,314,,20,62,083,34,17,31,247,20,11,26,159,39*72
$GPGSV,3,2,11,04,35,304,23,31,23,046,25,32,18,085,35,25,10,167,30*7C
$GPGSV,3,3,11,30,01,005,,13,40,211,34,23,74,173,34*4D
$GPGLL,5045.09241,N,00705.84584,E,084916.00,A,A*66
$GPZDA,084916.00,28,05,2008,00,00*61
$GPRMC,084917.00,A,5045.09275,N,00705.84665,E,2.178,348.13,280508,,,A*6D
$GPVTG,348.13,T,,M,2.178,N,4.036,K,A*3D
$GPGGA,084917.00,5045.09275,N,00705.84665,E,1,06,1.90,54.7,M,47.7,M,,*65
$GPGSA,A,3,20,11,31,32,13,23,,,,,,,2.78,1.90,2.02*05
$GPGSV,3,1,11,02,03,314,,20,62,083,33,17,31,247,20,11,26,159,36*7A
$GPGSV,3,2,11,04,35,304,23,31,23,046,28,32,18,085,39,25,10,167,31*7C
$GPGSV,3,3,11,30,01,005,,13,40,211,31,23,74,173,34*48
$GPGLL,5045.09275,N,00705.84665,E,084917.00,A,A*6C
$GPZDA,084917.00,28,05,2008,00,00*60
$GPRMC,084918.00,A,5045.09338,N,00705.84602,E,1.923,347.42,280508,,,A*65
$GPVTG,347.42,T,,M,1.923,N,3.563,K,A*31
$GPGGA,084918.00,5045.09338,N,00705.84602,E,1,06,1.90,54.7,M,47.7,M,,*63
$GPGSA,A,3,20,11,31,32,13,23,,,,,,,2.78,1.90,2.02*05
$GPGSV,3,1,11,02,03,314,,20,62,083,32,17,31,247,19,11,26,159,38*7F
$GPGSV,3,2,11,04,35,304,22,31,23,046,23,32,18,085,37,25,10,167,32*7B
$GPGSV,3,3,11,30,01,005,,13,40,211,26,23,75,173,33*48
$GPGLL,5045.09338,N,00705.84602,E,084918.00,A,A*6A
$GPZDA,084918.00,28,05,2008,00,00*6F
$GPRMC,084919.00,A,5045.09377,N,00705.84611,E,1.919,347.01,280508,,,A*63
$GPVTG,347.01,T,,M,1.919,N,3.555,K,A*3A
$GPGGA,084919.00,5045.09377,N,00705.84611,E,1,06,1.90,54.7,M,47.7,M,,*6B
$GPGSA,A,3,20,11,31,32,13,23,,,,,,,2.78,1.90,2.02*05
$GPGSV,3,1,11,02,03,314,,20,62,083,35,17,31,247,18,11,26,159,36*77
$GPGSV,3,2,11,04,35,304,22,31,23,046,26,32,18,085,34,25,10,167,33*7C
$GPGSV,3,3,11,30,01,005,,13,40,211,28,23,75,173,30*45
$GPGLL,5045.09377,N,00705.84611,E,084919.00,A,A*62
$GPZDA,084919.00,28,05,2008,00,00*6E
$GPRMC,084920.00,A,5045.09414,N,00705.84618,E,2.036,340.39,280508,,,A*69
$GPVTG,340.39,T,,M,2.036,N,3.773,K,A*37
$GPGGA,084920.00,5045.09414,N,00705.84618,E,1,06,1.90,54.7,M,47.7,M,,*6A
$GPGSA,A,3,20,11,31,32,13,23,,,,,,,2.78,1.90,2.02*05
$GPGSV,3,1,11,02,03,314,,20,62,083,32,17,31,247,19,11,26,159,37*70
$GPGSV,3,2,11,04,35,304,23,31,23,046,29,32,18,085,31,25,11,167,33*76
$GPGSV,3,3,11,30,01,005,,13,40,211,33,23,75,173,34*4B
$GPGLL,5045.09414,N,00705.84618,E,084920.00,A,A*63
$GPZDA,084920.00,28,05,2008,00,00*64
$GPRMC,084921.00,A,5045.09455,N,00705.84596,E,2.063,338.44,280508,,,A*6D
$GPVTG,338.44,T,,M,2.063,N,3.822,K,A*39
$GPGGA,084921.00,5045.09455,N,00705.84596,E,1,06,1.90,54.7,M,47.7,M,,*6B
$GPGSA,A,3,20,11,31,32,13,23,,,,,,,2.78,1.90,2.02*05
$GPGSV,3,1,11,02,03,314,,20,62,083,30,17,31,247,20,11,26,159,39*76
$GPGSV,3,2,11,04,35,304,22,31,23,046,29,32,18,085,30,25,11,167,36*73
$GPGSV,3,3,11,30,01,005,,13,40,211,37,23,75,173,33*48
$GPGLL,5045.09455,N,00705.84596,E,084921.00,A,A*62
$GPZDA,084921.00,28,05,2008,00,00*65
$GPRMC,084922.00,A,5045.09498,N,00705.84583,E,1.852,339.31,280508,,,A*61
$GPVTG,339.31,T,,M,1.852,N,3.431,K,A*3D
$GPGGA,084922.00,5045.09498,N,00705.84583,E,1,06,1.90,54.8,M,47.7,M,,*62
$GPGSA,A,3,20,11,31,32,13,23,,,,,,,2.78,1.90,2.02*05
$GPGSV,3,1,11,02,03,314,,20,62,083,33,17,31,247,23,11,26,159,38*77
$GPGSV,3,2,11,04,35,304,23,31,23,046,25,32,18,085,28,25,11,167,36*77
$GPGSV,3,3,11,30,01,005,,13,40,211,38,23,75,173,35*41
$GPGLL,5045.09498,N,00705.84583,E,084922.00,A,A*64
$GPZDA,084922.00,28,05,2008,00,00*66
$GPRMC,084923.00,A,5045.09551,N,00705.84563,E,2.074,4.00,280508,,,A*6A
$GPVTG,4.00,T,,M,2.074,N,3.844,K,A*33
$GPGGA,084923.00,5045.09551,N,00705.84563,E,1,06,1.90,54.8,M,47.7,M,,*69
$GPGSA,A,3,20,11,31,32,13,23,,,,,,,2.78,1.90,2.02*05
$GPGSV,3,1,11,02,03,314,,20,62,083,29,17,31,247,23,11,26,159,39*7D
$GPGSV,3,2,11,04,35,304,23,31,23,046,30,32,18,085,28,25,11,167,38*7D
$GPGSV,3,3,11,30,01,005,,13,40,211,36,23,75,173,35*4F
$GPGLL,5045.09551,N,00705.84563,E,084923.00,A,A*6F
$GPZDA,084923.00,28,05,2008,00,00*67
$GPRMC,084924.00,A,5045.09603,N,00705.84569,E,2.366,8.25,280508,,,A*68
$GPVTG,8.25,T,,M,2.366,N,4.384,K,A*38
$GPGGA,084924.00,5045.09603,N,00705.84569,E,1,06,1.90,54.8,M,47.7,M,,*60
$GPGSA,A,3,20,11,31,32,13,23,,,,,,,2.78,1.90,2.02*05
$GPGSV,3,1,11,02,03,314,,20,62,083,26,17,31,247,23,11,26,159,41*7D
$GPGSV,3,2,11,04,35,304,22,31,23,046,28,32,18,085,26,25,11,167,37*74
$GPGSV,3,3,11,30,01,005,,13,40,211,38,23,75,173,31*45
$GPGLL,5045.09603,N,00705.84569,E,084924.00,A,A*66
$GPZDA,084924.00,28,05,2008,00,00*60
$GPRMC,084925.00,A,5045.09636,N,00705.84613,E,2.205,30.60,280508,,,A*5F
$GPVTG,30.60,T,,M,2.205,N,4.086,K,A*07
$GPGGA,084925.00,5045.09636,N,00705.84613,E,1,06,1.90,54.8,M,47.7,M,,*69
$GPGSA,A,3,20,11,31,32,13,23,,,,,,,2.78,1.90,2.02*05
$GPGSV,3,1,11,02,03,314,,20,62,083,29,17,31,247,27,11,26,159,40*77
$GPGSV,3,2,11,04,35,304,26,31,23,046,27,32,18,085,25,25,11,167,35*7E
$GPGSV,3,3,11,30,01,005,,13,40,211,41,23,75,173,31*4B
$GPGLL,5045.09636,N,00705.84613,E,084925.00,A,A*6F
$GPZDA,084925.00,28,05,2008,00,00*61
$GPRMC,084926.00,A,5045.09655,N,00705.84643,E,2.059,39.15,280508,,,A*5C
$GPVTG,39.15,T,,M,2.059,N,3.816,K,A*01
$GPGGA,084926.00,5045.09655,N,00705.84643,E,1,06,1.90,54.9,M,47.7,M,,*6B
$GPGSA,A,3,20,11,31,32,13,23,,,,,,,2.78,1.90,2.02*05
$GPGSV,3,1,11,02,03,314,,20,62,083,28,17,31,247,29,11,26,159,42*7A
$GPGSV,3,2,11,04,35,304,29,31,23,046,28,32,18,085,29,25,11,167,37*70
$GPGSV,3,3,11,30,01,005,,13,40,211,40,23,75,173,34*4F
$GPGLL,5045.09655,N,00705.84643,E,084926.00,A,A*6C
$GPZDA,084926.00,28,05,2008,00,00*62
$GPRMC,084927.00,A,5045.09679,N,00705.84682,E,1.845,39.49,280508,,,A*51
$GPVTG,39.49,T,,M,1.845,N,3.418,K,A*0C
$GPGGA,084927.00,5045.09679,N,00705.84682,E,1,06,1.90,54.9,M,47.7,M,,*69
$GPGSA,A,3,20,11,31,32,13,23,,,,,,,2.78,1.90,2.02*05
$GPGSV,3,1,11,02,03,314,,20,62,083,29,17,31,247,30,11,26,159,42*73
$GPGSV,3,2,11,04,35,304,30,31,23,046,27,32,18,085,26,25,11,167,35*7A
$GPGSV,3,3,11,30,01,005,,13,40,211,40,23,75,173,34*4F
$GPGLL,5045.09679,N,00705.84682,E,084927.00,A,A*6E
$GPZDA,084927.00,28,05,2008,00,00*63
$GPRMC,084928.00,A,5045.09682,N,00705.84712,E,1.613,39.80,280508,,,A*5A
$GPVTG,39.80,T,,M,1.613,N,2.989,K,A*00
$GPGGA,084928.00,5045.09682,N,00705.84712,E,1,06,1.90,54.9,M,47.7,M,,*6A
$GPGSA,A,3,20,11,31,32,13,23,,,,,,,2.78,1.90,2.02*05
$GPGSV,3,1,11,02,03,314,,20,62,083,31,17,31,247,35,11,26,159,39*73
$GPGSV,3,2,11,04,35,304,29,31,23,046,28,32,18,085,26,25,11,167,35*7D
$GPGSV,3,3,11,30,01,005,,13,40,211,39,23,75,173,35*40
$GPGLL,5045.09682,N,00705.84712,E,084928.00,A,A*6D
$GPZDA,084928.00,28,05,2008,00,00*6C
$GPRMC,084929.00,A,5045.09682,N,00705.84733,E,1.717,40.60,280508,,,A*5D
$GPVTG,40.60,T,,M,1.717,N,3.181,K,A*04
$GPGGA,084929.00,5045.09682,N,00705.84733,E,1,06,1.90,55.0,M,47.7,M,,*60
$GPGSA,A,3,20,11,31,32,13,23,,,,,,,2.78,1.90,2.02*05
$GPGSV,3,1,11,02,03,314,,20,62,083,25,17,31,247,36,11,26,159,35*79
$GPGSV,3,2,11,04,35,304,29,31,23,046,22,32,18,085,29,25,11,167,29*75
$GPGSV,3,3,11,30,01,005,,13,40,211,37,23,75,173,34*4F
$GPGLL,5045.09682,N,00705.84733,E,084929.00,A,A*6F
$GPZDA,084929.00,28,05,2008,00,00*6D
$GPRMC,084930.00,A,5045.09617,N,00705.84680,E,1.237,41.99,280508,,,A*50
$GPVTG,41.99,T,,M,1.237,N,2.291,K,A*07
$GPGGA,084930.00,5045.09617,N,00705.84680,E,1,06,1.90,55.1,M,47.7,M,,*6C
$GPGSA,A,3,20,11,31,32,13,23,,,,,,,2.77,1.90,2.02*0A
$GPGSV,3,1,11,02,03,314,,20,62,083,32,17,31,247,39,11,26,159,30*75
$GPGSV,3,2,11,04,35,304,32,31,23,046,28,32,18,085,33,25,11,167,25*72
$GPGSV,3,3,11,30,01,005,,13,40,211,40,23,75,173,31*4A
$GPGLL,5045.09617,N,00705.84680,E,084930.00,A,A*62
$GPZDA,084930.00,28,05,2008,00,00*65
$GPRMC,084931.00,A,5045.09402,N,00705.84539,E,0.831,46.34,280508,,,A*5B
$GPVTG,46.34,T,,M,0.831,N,1.540,K,A*02
$GPGGA,084931.00,5045.09402,N,00705.84539,E,1,06,1.90,55.5,M,47.7,M,,*6E
$GPGSA,A,3,20,11,31,32,13,23,,,,,,,2.77,1.90,2.02*0A
$GPGSV,3,1,11,02,03,314,,20,62,083,29,17,31,247,40,11,26,159,24*74
$GPGSV,3,2,11,04,35,304,30,31,23,046,35,32,18,085,35,25,11,167,26*79
$GPGSV,3,3,11,30,01,005,,13,40,211,40,23,75,173,32*49
$GPGLL,5045.09402,N,00705.84539,E,084931.00,A,A*64
$GPZDA,084931.00,28,05,2008,00,00*64
$GPRMC,084932.00,A,5045.09343,N,00705.84459,E,0.715,52.74,280508,,,A*55
$GPVTG,52.74,T,,M,0.715,N,1.325,K,A*0F
$GPGGA,084932.00,5045.09343,N,00705.84459,E,1,06,1.90,55.3,M,47.7,M,,*6E
$GPGSA,A,3,20,11,31,32,13,23,,,,,,,2.78,1.90,2.02*05
$GPGSV,3,1,11,02,03,314,,20,62,083,28,17,31,247,41,11,26,159,18*7B
$GPGSV,3,2,11,04,35,304,33,31,23,046,30,32,18,085,32,25,11,167,21*7F
$GPGSV,3,3,11,30,01,005,,13,40,211,40,23,75,173,33*48
$GPGLL,5045.09343,N,00705.84459,E,084932.00,A,A*62
$GPZDA,084932.00,28,05,2008,00,00*67
$GPRMC,084933.00,A,5045.09328,N,00705.84413,E,0.684,59.19,280508,,,A*5E
$GPVTG,59.19,T,,M,0.684,N,1.267,K,A*01
$GPGGA,084933.00,5045.09328,N,00705.84413,E,1,06,1.90,55.3,M,47.7,M,,*6C
$GPGSA,A,3,20,11,31,32,13,23,,,,,,,2.78,1.90,2.02*05
$GPGSV,3,1,11,02,03,314,,20,62,083,28,17,31,247,41,11,26,159,25*75
$GPGSV,3,2,11,04,35,304,35,31,23,046,20,32,18,085,30,25,11,167,25*7E
$GPGSV,3,3,11,30,01,005,,13,40,211,41,23,75,173,34*4E
$GPGLL,5045.09328,N,00705.84413,E,084933.00,A,A*60
$GPZDA,084933.00,28,05,2008,00,00*66
$GPRMC,084934.00,A,5045.09309,N,00705.84400,E,0.758,64.08,280508,,,A*56
$GPVTG,64.08,T,,M,0.758,N,1.405,K,A*0D
$GPGGA,084934.00,5045.09309,N,00705.84400,E,1,06,1.90,55.3,M,47.7,M,,*6A
$GPGSA,A,3,20,11,31,32,13,23,,,,,,,2.77,1.90,2.02*0A
$GPGSV,3,1,11,02,03,314,,20,62,083,28,17,31,247,40,11,26,159,28*79
$GPGSV,3,2,11,04,35,304,30,31,23,046,24,32,18,085,28,25,11,167,24*77
$GPGSV,3,3,11,30,01,005,,13,40,211,38,23,75,173,34*40
$GPGLL,5045.09309,N,00705.84400,E,084934.00,A,A*66
$GPZDA,084934.00,28,05,2008,00,00*61
$GPRMC,084935.00,A,5045.09290,N,00705.84422,E,0.977,66.42,280508,,,A*59
$GPVTG,66.42,T,,M,0.977,N,1.811,K,A*0B
$GPGGA,084935.00,5045.09290,N,00705.84422,E,1,06,1.90,55.4,M,47.7,M,,*6D
$GPGSA,A,3,20,11,31,32,13,23,,,,,,,2.77,1.90,2.02*0A
$GPGSV,3,1,11,02,03,314,,20,62,083,30,17,31,247,40,11,26,159,37*7E
$GPGSV,3,2,11,04,35,304,27,31,23,046,28,32,18,085,27,25,11,167,23*75
$GPGSV,3,3,11,30,01,005,,13,40,211,40,23,75,173,33*48
$GPGLL,5045.09290,N,00705.84422,E,084935.00,A,A*66
$GPZDA,084935.00,28,05,2008,00,00*60
$GPRMC,084936.00,A,5045.09251,N,00705.84452,E,1.016,69.96,280508,,,A*59
$GPVTG,69.96,T,,M,1.016,N,1.882,K,A*08
$GPGGA,084936.00,5045.09251,N,00705.84452,E,1,06,1.90,55.4,M,47.7,M,,*64
$GPGSA,A,3,20,11,31,32,13,23,,,,,,,2.77,1.90,2.02*0A
$GPGSV,3,1,11,02,03,314,,20,62,083,26,17,31,247,42,11,26,159,36*7A
$GPGSV,3,2,11,04,35,304,31,31,23,046,25,32,18,085,27,25,11,167,19*76
$GPGSV,3,3,11,30,01,005,,13,40,211,39,23,75,173,30*45
$GPGLL,5045.09251,N,00705.84452,E,084936.00,A,A*6F
$GPZDA,084936.00,28,05,2008,00,00*63
$GPRMC,084937.00,A,5045.09177,N,00705.84455,E,1.541,73.61,280508,,,A*5C
$GPVTG,73.61,T,,M,1.541,N,2.856,K,A*06
$GPGGA,084937.00,5045.09177,N,00705.84455,E,1,06,1.90,55.4,M,47.7,M,,*65
$GPGSA,A,3,20,11,31,32,13,23,,,,,,,2.77,1.90,2.02*0A
$GPGSV,3,1,11,02,03,314,,20,62,083,23,17,31,247,41,11,26,159,35*7F
$GPGSV,3,2,11,04,35,304,32,31,23,046,29,32,18,085,29,25,11,167,20*7D
$GPGSV,3,3,11,30,01,005,,13,40,211,38,23,75,173,30*44
$GPGLL,5045.09177,N,00705.84455,E,084937.00,A,A*6E
$GPZDA,084937.00,28,05,2008,00,00*62
$GPRMC,084938.00,A,5045.09108,N,00705.84478,E,1.867,77.54,280508,,,A*5F
$GPVTG,77.54,T,,M,1.867,N,3.460,K,A*05
$GPGGA,084938.00,5045.09108,N,00705.84478,E,1,06,1.90,55.5,M,47.7,M,,*6C
$GPGSA,A,3,20,11,31,32,13,23,,,,,,,2.77,1.90,2.02*0A
$GPGSV,3,1,11,02,03,314,,20,62,083,25,17,31,247,42,11,26,159,35*7A
$GPGSV,3,2,11,04,35,304,30,31,23,046,20,32,18,085,28,25,11,167,20*77
$GPGSV,3,3,11,30,01,005,,13,40,211,39,23,75,173,34*41
$GPGLL,5045.09108,N,00705.84478,E,084938.00,A,A*66
$GPZDA,084938.00,28,05,2008,00,00*6D
$GPRMC,084939.00,A,5045.09023,N,00705.84437,E,2.156,150.99,280508,,,A*60
$GPVTG,150.99,T,,M,2.156,N,3.995,K,A*3F
$GPGGA,084939.00,5045.09023,N,00705.84437,E,1,06,1.90,55.5,M,47.7,M,,*6E
$GPGSA,A,3,20,11,31,32,13,23,,,,,,,2.77,1.90,2.02*0A
$GPGSV,3,1,11,02,03,314,,20,62,083,27,17,31,247,41,11,26,159,26*79
$GPGSV,3,2,11,04,35,304,35,31,23,046,20,32,18,085,29,25,11,167,19*79
$GPGSV,3,3,11,30,01,005,,13,40,211,37,23,75,173,31*4A
$GPGLL,5045.09023,N,00705.84437,E,084939.00,A,A*64
$GPZDA,084939.00,28,05,2008,00,00*6C
$GPRMC,084940.00,A,5045.08963,N,00705.84431,E,2.029,142.96,280508,,,A*61
$GPVTG,142.96,T,,M,2.029,N,3.760,K,A*3E
$GPGGA,084940.00,5045.08963,N,00705.84431,E,1,06,1.90,55.5,M,47.7,M,,*6A
$GPGSA,A,3,20,11,31,32,13,23,,,,,,,2.77,1.90,2.02*0A
$GPGSV,3,1,11,02,03,314,,20,62,083,26,17,31,247,41,11,26,159,37*78
$GPGSV,3,2,11,04,35,304,33,31,23,046,26,32,18,085,29,25,11,167,20*73
$GPGSV,3,3,11,30,01,005,,13,40,211,39,23,75,173,27*43
$GPGLL,5045.08963,N,00705.84431,E,084940.00,A,A*60
$GPZDA,084940.00,28,05,2008,00,00*62
$GPRMC,084941.00,A,5045.08836,N,00705.84327,E,1.705,143.87,280508,,,A*6A
$GPVTG,143.87,T,,M,1.705,N,3.160,K,A*33
$GPGGA,084941.00,5045.08836,N,00705.84327,E,1,06,1.90,55.6,M,47.7,M,,*69
$GPGSA,A,3,20,11,31,32,13,23,,,,,,,2.77,1.90,2.02*0A
$GPGSV,3,1,11,02,03,314,,20,62,083,22,17,31,247,39,11,26,159,34*70
$GPGSV,3,2,11,04,35,304,31,31,23,046,20,32,18,085,33,25,11,167,19*76
$GPGSV,3,3,11,30,01,005,,13,40,211,38,23,75,173,27*42
$GPGLL,5045.08836,N,00705.84327,E,084941.00,A,A*60
$GPZDA,084941.00,28,05,2008,00,00*63
$GPRMC,084942.00,A,5045.08684,N,00705.84166,E,1.840,144.84,280508,,,A*63
$GPVTG,144.84,T,,M,1.840,N,3.409,K,A*33
$GPGGA,084942.00,5045.08684,N,00705.84166,E,1,06,1.90,55.6,M,47.7,M,,*6A
$GPGSA,A,3,20,11,31,32,13,23,,,,,,,2.77,1.90,2.02*0A
$GPGSV,3,1,11,02,03,314,,20,62,083,26,17,31,247,40,11,26,159,32*7C
$GPGSV,3,2,11,04,35,304,30,31,23,046,22,32,18,085,36,25,11,167,24*7E
$GPGSV,3,3,11,30,01,005,,13,40,211,32,23,75,173,29*46
$GPGLL,5045.08684,N,00705.84166,E,084942.00,A,A*63
$GPZDA,084942.00,28,05,2008,00,00*60
$GPRMC,084943.00,A,5045.08588,N,00705.84081,E,1.878,145.65,280508,,,A*60
$GPVTG,145.65,T,,M,1.878,N,3.481,K,A*36
$GPGGA,084943.00,5045.08588,N,00705.84081,E,1,06,1.90,55.7,M,47.7,M,,*6D
$GPGSA,A,3,20,11,31,32,13,23,,,,,,,2.77,1.90,2.02*0A
$GPGSV,3,1,11,02,03,314,,20,62,083,27,17,31,247,41,11,26,159,30*7E
$GPGSV,3,2,11,04,35,304,27,31,23,046,21,32,18,085,34,25,11,167,23*7E
$GPGSV,3,3,11,30,01,005,,13,40,211,37,23,75,173,32*49
$GPGLL,5045.08588,N,00705.84081,E,084943.00,A,A*65
$GPZDA,084943.00,28,05,2008,00,00*61
$GPRMC,084944.00,A,5045.08509,N,00705.84013,E,1.874,146.44,280508,,,A*69
$GPVTG,146.44,T,,M,1.874,N,3.473,K,A*37
$GPGGA,084944.00,5045.08509,N,00705.84013,E,1,06,1.90,55.8,M,47.7,M,,*67
$GPGSA,A,3,20,11,31,32,13,23,,,,,,,2.77,1.90,2.02*0A
$GPGSV,3,1,11,02,03,314,,20,62,083,27,17,31,247,41,11,26,159,29*76
$GPGSV,3,2,11,04,35,304,31,31,23,046,21,32,18,085,32,25,11,167,19*76
$GPGSV,3,3,11,30,01,005,,13,40,211,32,23,75,173,26*49
$GPGLL,5045.08509,N,00705.84013,E,084944.00,A,A*60
$GPZDA,084944.00,28,05,2008,00,00*66
$GPRMC,084945.00,A,5045.08449,N,00705.83933,E,1.889,147.45,280508,,,A*63
$GPVTG,147.45,T,,M,1.889,N,3.500,K,A*30
$GPGGA,084945.00,5045.08449,N,00705.83933,E,1,06,1.90,55.8,M,47.7,M,,*6F
$GPGSA,A,3,20,11,31,32,13,23,,,,,,,2.77,1.90,2.02*0A
$GPGSV,3,1,11,02,03,314,,20,62,083,26,17,31,247,41,11,26,159,30*7F
$GPGSV,3,2,11,04,35,304,29,31,23,046,21,32,18,085,32,25,11,167,18*7E
$GPGSV,3,3,11,30,01,005,,13,40,211,29,23,75,173,31*45
$GPGLL,5045.08449,N,00705.83933,E,084945.00,A,A*68
$GPZDA,084945.00,28,05,2008,00,00*67
$GPRMC,084946.00,A,5045.08418,N,00705.83929,E,1.825,148.12,280508,,,A*64
$GPVTG,148.12,T,,M,1.825,N,3.383,K,A*36
$GPGGA,084946.00,5045.08418,N,00705.83929,E,1,06,1.90,55.8,M,47.7,M,,*63
$GPGSA,A,3,20,11,31,32,13,23,,,,,,,2.77,1.90,2.02*0A
$GPGSV,3,1,11,02,03,314,,20,62,083,23,17,31,247,41,11,26,159,24*7F
$GPGSV,3,2,11,04,35,304,24,31,23,046,24,32,18,085,28,25,11,167,20*76
$GPGSV,3,3,11,30,01,005,,13,40,211,32,23,75,173,26*49
$GPGLL,5045.08418,N,00705.83929,E,084946.00,A,A*64
$GPZDA,084946.00,28,05,2008,00,00*64
$GPRMC,084947.00,A,5045.08417,N,00705.83990,E,1.724,147.97,280508,,,A*64
$GPVTG,147.97,T,,M,1.724,N,3.194,K,A*3E
$GPGGA,084947.00,5045.08417,N,00705.83990,E,1,06,1.90,55.9,M,47.7,M,,*6E
$GPGSA,A,3,20,11,31,32,13,23,,,,,,,2.77,1.90,2.02*0A
$GPGSV,3,1,11,02,03,314,,20,62,083,22,17,31,247,40,11,26,159,31*7B
$GPGSV,3,2,11,04,35,304,29,31,23,046,24,32,18,085,21,25,11,167,21*73
$GPGSV,3,3,11,30,01,005,,13,40,211,34,23,75,173,30*48
$GPGLL,5045.08417,N,00705.83990,E,084947.00,A,A*68
$GPZDA,084947.00,28,05,2008,00,00*65
$GPRMC,084948.00,A,5045.08419,N,00705.83993,E,1.773,148.04,280508,,,A*61
$GPVTG,148.04,T,,M,1.773,N,3.285,K,A*3A
$GPGGA,084948.00,5045.08419,N,00705.83993,E,1,06,1.90,55.9,M,47.7,M,,*6C
$GPGSA,A,3,20,11,31,32,13,23,,,,,,,2.77,1.90,2.02*0A
$GPGSV,3,1,11,02,03,314,,20,62,083,25,17,31,247,40,11,26,159,32*7F
$GPGSV,3,2,11,04,35,304,25,31,23,046,21,32,18,085,23,25,11,167,27*7E
$GPGSV,3,3,11,30,01,005,,13,40,211,32,23,75,173,31*4F
$GPGLL,5045.08419,N,00705.83993,E,084948.00,A,A*6A
$GPZDA,084948.00,28,05,2008,00,00*6A
$GPRMC,084949.00,A,5045.08428,N,00705.84014,E,1.799,147.84,280508,,,A*60
$GPVTG,147.84,T,,M,1.799,N,3.334,K,A*32
$GPGGA,084949.00,5045.08428,N,00705.84014,E,1,06,1.90,56.0,M,47.7,M,,*64
$GPGSA,A,3,20,11,31,32,13,23,,,,,,,2.77,1.90,2.02*0A
$GPGSV,3,1,11,02,03,314,,20,62,083,30,17,31,247,40,11,26,159,31*78
$GPGSV,3,2,11,04,35,304,26,31,23,046,23,32,18,085,27,25,11,167,23*7F
$GPGSV,3,3,11,30,01,005,,13,40,211,31,23,75,173,30*4D
$GPGLL,5045.08428,N,00705.84014,E,084949.00,A,A*68
$GPZDA,084949.00,28,05,2008,00,00*6B
$GPRMC,084950.00,A,5045.08477,N,00705.83914,E,1.157,148.16,280508,,,A*6C
$GPVTG,148.16,T,,M,1.157,N,2.144,K,A*36
$GPGGA,084950.00,5045.08477,N,00705.83914,E,1,06,1.90,56.0,M,47.7,M,,*68
$GPGSA,A,3,20,11,31,32,13,23,,,,,,,2.77,1.90,2.02*0A
$GPGSV,3,1,11,02,03,314,,20,62,083,26,17,31,247,38,11,26,159,32*73
$GPGSV,3,2,11,04,35,304,28,31,23,046,21,32,18,085,29,25,11,167,22*7C
$GPGSV,3,3,11,30,01,005,,13,40,211,26,23,75,173,30*4B
$GPGLL,5045.08477,N,00705.83914,E,084950.00,A,A*64
$GPZDA,084950.00,28,05,2008,00,00*63
$GPRMC,084951.00,A,5045.08524,N,00705.83789,E,0.844,149.81,280508,,,A*65
$GPVTG,149.81,T,,M,0.844,N,1.564,K,A*36
$GPGGA,084951.00,5045.08524,N,00705.83789,E,1,06,1.90,56.1,M,47.7,M,,*65
$GPGSA,A,3,20,11,31,32,13,23,,,,,,,2.77,1.90,2.02*0A
$GPGSV,3,1,11,02,03,314,,20,62,083,28,17,31,247,36,11,26,159,36*77
$GPGSV,3,2,11,04,35,304,34,31,23,046,25,32,18,085,29,25,11,167,23*74
$GPGSV,3,3,11,30,01,005,,13,40,211,25,23,75,173,32*4A
$GPGLL,5045.08524,N,00705.83789,E,084951.00,A,A*68
$GPZDA,084951.00,28,05,2008,00,00*62
$GPRMC,084952.00,A,5045.08539,N,00705.83855,E,0.695,150.61,280508,,,A*60
$GPVTG,150.61,T,,M,0.695,N,1.289,K,A*36
$GPGGA,084952.00,5045.08539,N,00705.83855,E,1,06,1.90,56.2,M,47.7,M,,*67
$GPGSA,A,3,20,11,31,32,13,23,,,,,,,2.77,1.90,2.02*0A
$GPGSV,3,1,11,02,03,314,,20,62,083,26,17,31,247,36,11,26,159,37*78
$GPGSV,3,2,11,04,35,304,22,31,23,046,22,32,18,085,29,25,11,167,19*7D
$GPGSV,3,3,11,30,01,005,,13,40,211,33,23,75,173,31*4E
$GPGLL,5045.08539,N,00705.83855,E,084952.00,A,A*69
$GPZDA,084952.00,28,05,2008,00,00*61
$GPRMC,084953.00,A,5045.08624,N,00705.83794,E,0.056,,280508,,,A*78
$GPVTG,,T,,M,0.056,N,0.103,K,A*22
$GPGGA,084953.00,5045.08624,N,00705.83794,E,1,06,1.90,56.3,M,47.7,M,,*6A
$GPGSA,A,3,20,11,31,32,13,23,,,,,,,2.77,1.90,2.02*0A
$GPGSV,3,1,11,02,03,314,,20,62,083,26,17,31,247,39,11,26,159,40*77
$GPGSV,3,2,11,04,35,304,28,31,23,046,23,32,18,085,24,25,11,167,20*71
$GPGSV,3,3,11,30,01,005,,13,40,211,31,23,75,173,32*4F
$GPGLL,5045.08624,N,00705.83794,E,084953.00,A,A*65
$GPZDA,084953.00,28,05,2008,00,00*60
$GPRMC,084954.00,A,5045.08724,N,00705.83684,E,0.520,140.02,280508,,,A*63
$GPVTG,140.02,T,,M,0.520,N,0.964,K,A*36
$GPGGA,084954.00,5045.08724,N,00705.83684,E,1,06,1.90,56.4,M,47.7,M,,*6B
$GPGSA,A,3,20,11,31,32,13,23,,,,,,,2.77,1.90,2.02*0A
$GPGSV,3,1,11,02,03,314,,20,62,083,26,17,31,247,34,11,26,159,36*7B
$GPGSV,3,2,11,04,35,304,31,31,23,046,25,32,18,085,23,25,11,167,19*72
$GPGSV,3,3,11,30,01,005,,13,40,211,27,23,75,173,32*48
$GPGLL,5045.08724,N,00705.83684,E,084954.00,A,A*63
$GPZDA,084954.00,28,05,2008,00,00*67
$GPRMC,084955.00,A,5045.08745,N,00705.83644,E,0.603,150.56,280508,,,A*6B
$GPVTG,150.56,T,,M,0.603,N,1.117,K,A*39
$GPGGA,084955.00,5045.08745,N,00705.83644,E,1,06,1.90,56.5,M,47.7,M,,*60
$GPGSA,A,3,20,11,31,32,13,23,,,,,,,2.77,1.90,2.02*0A
$GPGSV,3,1,11,02,03,314,,20,62,083,24,17,31,247,39,11,26,159,38*7A
$GPGSV,3,2,11,04,35,304,31,31,23,046,31,32,18,085,25,25,11,167,20*7B
$GPGSV,3,3,11,30,01,005,,13,40,211,29,23,75,173,34*40
$GPGLL,5045.08745,N,00705.83644,E,084955.00,A,A*69
$GPZDA,084955.00,28,05,2008,00,00*66
$GPRMC,084956.00,A,5045.08810,N,00705.83921,E,0.777,143.29,280508,,,A*63
$GPVTG,143.29,T,,M,0.777,N,1.440,K,A*36
$GPGGA,084956.00,5045.08810,N,00705.83921,E,1,06,1.90,56.6,M,47.7,M,,*63
$GPGSA,A,3,20,11,31,32,13,23,,,,,,,2.77,1.90,2.02*0A
$GPGSV,3,1,11,02,03,314,,20,62,083,26,17,31,247,36,11,26,159,37*78
$GPGSV,3,2,11,04,35,304,33,31,23,046,26,32,18,085,23,25,11,167,20*79
$GPGSV,3,3,11,30,01,005,,13,40,211,37,23,75,173,33*48
$GPGLL,5045.08810,N,00705.83921,E,084956.00,A,A*69
$GPZDA,084956.00,28,05,2008,00,00*65
$GPRMC,084957.00,A,5045.08836,N,00705.84212,E,1.264,138.28,280508,,,A*61
$GPVTG,138.28,T,,M,1.264,N,2.342,K,A*3B
$GPGGA,084957.00,5045.08836,N,00705.84212,E,1,06,1.90,56.7,M,47.7,M,,*6B
$GPGSA,A,3,20,11,31,32,13,23,,,,,,,2.77,1.90,2.02*0A
$GPGSV,3,1,11,02,03,314,,20,62,083,25,17,31,247,29,11,25,159,39*78
$GPGSV,3,2,11,04,35,304,29,31,23,046,26,32,18,085,24,25,11,167,19*7F
$GPGSV,3,3,11,30,01,005,,13,40,211,37,23,75,173,29*43
$GPGLL,5045.08836,N,00705.84212,E,084957.00,A,A*60
$GPZDA,084957.00,28,05,2008,00,00*64
$GPRMC,084958.00,A,5045.08894,N,00705.84421,E,1.601,133.61,280508,,,A*61
$GPVTG,133.61,T,,M,1.601,N,2.968,K,A*38
$GPGGA,084958.00,5045.08894,N,00705.84421,E,1,06,1.90,56.7,M,47.7,M,,*6A
$GPGSA,A,3,20,11,31,32,13,23,,,,,,,2.77,1.90,2.02*0A
$GPGSV,3,1,11,02,03,314,,20,62,083,26,17,31,247,25,11,25,159,36*78
$GPGSV,3,2,11,04,35,304,30,31,23,046,21,32,18,085,23,25,11,167,18*76
$GPGSV,3,3,11,30,01,005,,13,40,211,36,23,75,173,30*4A
$GPGLL,5045.08894,N,00705.84421,E,084958.00,A,A*61
$GPZDA,084958.00,28,05,2008,00,00*6B
$GPRMC,084959.00,A,5045.08938,N,00705.84604,E,1.564,129.27,280508,,,A*6B
$GPVTG,129.27,T,,M,1.564,N,2.899,K,A*3E
$GPGGA,084959.00,5045.08938,N,00705.84604,E,1,06,1.90,56.8,M,47.7,M,,*66
$GPGSA,A,3,20,11,31,32,13,23,,,,,,,2.77,1.90,2.02*0A
$GPGSV,3,1,11,02,03,314,,20,62,083,27,17,31,247,34,11,25,159,29*77
$GPGSV,3,2,11,04,35,304,30,31,23,046,26,32,18,085,25,25,11,167,20*7C
$GPGSV,3,3,11,30,01,005,,13,40,211,39,23,75,173,30*45
$GPGLL,5045.08938,N,00705.84604,E,084959.00,A,A*62
$GPZDA,084959.00,28,05,2008,00,00*6A
$GPRMC,085000.00,A,5045.08996,N,00705.84755,E,1.461,125.09,280508,,,A*6A
$GPVTG,125.09,T,,M,1.461,N,2.708,K,A*3D
$GPGGA,085000.00,5045.08996,N,00705.84755,E,1,06,1.90,56.8,M,47.7,M,,*63
$GPGSA,A,3,20,11,31,32,13,23,,,,,,,2.77,1.90,2.02*0A
$GPGSV,3,1,11,02,03,314,,20,62,083,27,17,31,247,38,11,25,159,32*71
$GPGSV,3,2,11,04,35,304,31,31,23,046,23,32,18,085,21,25,11,167,19*76
$GPGSV,3,3,11,30,01,005,,13,40,211,39,23,75,173,31*44
$GPGLL,5045.08996,N,00705.84755,E,085000.00,A,A*67
$GPZDA,085000.00,28,05,2008,00,00*6E
$GPRMC,085001.00,A,5045.09037,N,00705.84923,E,1.612,121.21,280508,,,A*6F
$GPVTG,121.21,T,,M,1.612,N,2.987,K,A*3C
$GPGGA,085001.00,5045.09037,N,00705.84923,E,1,06,1.90,56.9,M,47.7,M,,*6F
$GPGSA,A,3,20,11,31,32,13,23,,,,,,,2.77,1.90,2.02*0A
$GPGSV,3,1,11,02,03,314,,20,62,083,27,17,31,247,30,11,25,159,38*73
$GPGSV,3,2,11,04,35,304,24,31,23,046,24,32,18,085,23,25,11,167,19*77
$GPGSV,3,3,11,30,01,005,,13,40,211,39,23,75,173,28*4C
$GPGLL,5045.09037,N,00705.84923,E,085001.00,A,A*6A
$GPZDA,085001.00,28,05,2008,00,00*6F
$GPRMC,085002.00,A,5045.09075,N,00705.85060,E,1.652,117.59,280508,,,A*6B
$GPVTG,117.59,T,,M,1.652,N,3.062,K,A*31
$GPGGA,085002.00,5045.09075,N,00705.85060,E,1,06,1.89,56.9,M,47.7,M,,*6D
$GPGSA,A,3,20,11,31,32,13,23,,,,,,,2.77,1.89,2.02*02
$GPGSV,3,1,11,02,03,314,,20,62,083,26,17,31,247,31,11,25,159,35*7E
$GPGSV,3,2,11,04,35,304,25,31,23,046,21,32,18,085,23,25,11,167,20*79
$GPGSV,3,3,11,30,01,005,,13,40,211,38,23,75,173,26*43
$GPGLL,5045.09075,N,00705.85060,E,085002.00,A,A*60
$GPZDA,085002.00,28,05,2008,00,00*6C
$GPRMC,085003.00,A,5045.09136,N,00705.85210,E,1.932,113.78,280508,,,A*67
$GPVTG,113.78,T,,M,1.932,N,3.581,K,A*37
$GPGGA,085003.00,5045.09136,N,00705.85210,E,1,06,1.90,56.9,M,47.7,M,,*67
$GPGSA,A,3,20,11,31,32,13,23,,,,,,,2.77,1.90,2.02*0A
$GPGSV,3,1,11,02,03,314,,20,62,083,27,17,30,247,27,11,25,159,37*7B
$GPGSV,3,2,11,04,35,304,21,31,23,046,21,32,18,085,24,25,11,167,19*70
$GPGSV,3,3,11,30,01,005,,13,40,211,37,23,75,173,31*4A
$GPGLL,5045.09136,N,00705.85210,E,085003.00,A,A*62
$GPZDA,085003.00,28,05,2008,00,00*6D
$GPRMC,085004.00,A,5045.09221,N,00705.85366,E,1.576,109.31,280508,,,A*6F
$GPVTG,109.31,T,,M,1.576,N,2.921,K,A*3A
$GPGGA,085004.00,5045.09221,N,00705.85366,E,1,06,1.90,57.0,M,47.7,M,,*6D
$GPGSA,A,3,20,11,31,32,13,23,,,,,,,2.77,1.90,2.02*0A
$GPGSV,3,1,11,02,03,314,,20,62,083,29,17,30,247,33,11,25,159,37*70
$GPGSV,3,2,11,04,35,304,20,31,23,046,21,32,18,085,26,25,11,167,19*73
$GPGSV,3,3,11,30,01,005,,13,40,211,35,23,75,173,32*4B
$GPGLL,5045.09221,N,00705.85366,E,085004.00,A,A*60
$GPZDA,085004.00,28,05,2008,00,00*6A
$GPRMC,085005.00,A,5045.09377,N,00705.85512,E,1.812,104.70,280508,,,A*6E
$GPVTG,104.70,T,,M,1.812,N,3.357,K,A*37
$GPGGA,085005.00,5045.09377,N,00705.85512,E,1,06,1.89,57.0,M,47.7,M,,*63
$GPGSA,A,3,20,11,31,32,13,23,,,,,,,2.77,1.89,2.02*02
$GPGSV,3,1,11,02,03,314,,20,62,083,32,17,30,247,24,11,25,159,36*7D
$GPGSV,3,2,11,04,35,304,23,31,23,046,27,32,18,085,28,25,11,167,19*78
$GPGSV,3,3,11,30,01,005,,13,40,211,35,23,75,173,33*4A
$GPGLL,5045.09377,N,00705.85512,E,085005.00,A,A*66
$GPZDA,085005.00,28,05,2008,00,00*6B
$GPRMC,085006.00,A,5045.09568,N,00705.85581,E,2.998,12.87,280508,,,A*51
$GPVTG,12.87,T,,M,2.998,N,5.555,K,A*0B
$GPGGA,085006.00,5045.09568,N,00705.85581,E,1,06,1.90,57.1,M,47.7,M,,*6B
$GPGSA,A,3,20,11,31,32,13,23,,,,,,,2.77,1.90,2.02*0A
$GPGSV,3,1,11,02,03,314,,20,62,084,31,17,30,247,34,11,25,159,35*7B
$GPGSV,3,2,11,04,35,304,23,31,23,046,28,32,18,085,24,25,11,167,15*77
$GPGSV,3,3,11,30,01,005,,13,40,211,29,23,75,173,29*4C
$GPGLL,5045.09568,N,00705.85581,E,085006.00,A,A*67
$GPZDA,085006.00,28,05,2008,00,00*68
$GPRMC,085007.00,A,5045.09727,N,00705.85690,E,3.136,13.29,280508,,,A*52
$GPVTG,13.29,T,,M,3.136,N,5.811,K,A*0E
$GPGGA,085007.00,5045.09727,N,00705.85690,E,1,06,1.90,57.1,M,47.7,M,,*60
$GPGSA,A,3,20,11,31,32,13,23,,,,,,,2.77,1.90,2.02*0A
$GPGSV,3,1,11,02,03,314,,20,62,084,29,17,30,247,30,11,25,159,34*77
$GPGSV,3,2,11,04,35,304,24,31,23,046,27,32,18,085,24,25,11,167,21*78
$GPGSV,3,3,11,30,01,005,,13,40,211,38,23,75,173,29*4C
$GPGLL,5045.09727,N,00705.85690,E,085007.00,A,A*6C
$GPZDA,085007.00,28,05,2008,00,00*69
$GPRMC,085008.00,A,5045.09904,N,00705.85745,E,3.172,11.43,280508,,,A*55
$GPVTG,11.43,T,,M,3.172,N,5.878,K,A*0F
$GPGGA,085008.00,5045.09904,N,00705.85745,E,1,06,1.89,57.1,M,47.7,M,,*61
$GPGSA,A,3,20,11,31,32,13,23,,,,,,,2.77,1.89,2.02*02
$GPGSV,3,1,11,02,03,314,,20,62,084,33,17,30,247,24,11,25,159,34*79
$GPGSV,3,2,11,04,35,304,24,31,23,046,28,32,18,085,26,25,11,167,23*77
$GPGSV,3,3,11,30,01,005,,13,40,211,30,23,75,173,35*49
$GPGLL,5045.09904,N,00705.85745,E,085008.00,A,A*65
$GPZDA,085008.00,28,05,2008,00,00*66
$GPRMC,085009.00,A,5045.10148,N,00705.85833,E,3.086,4.99,280508,,,A*6B
$GPVTG,4.99,T,,M,3.086,N,5.718,K,A*3F
$GPGGA,085009.00,5045.10148,N,00705.85833,E,1,06,1.89,57.2,M,47.7,M,,*65
$GPGSA,A,3,20,11,31,32,13,23,,,,,,,2.77,1.89,2.02*02
$GPGSV,3,1,11,02,03,314,,20,62,084,33,17,30,247,31,11,25,159,33*7A
$GPGSV,3,2,11,04,35,304,24,31,23,046,30,32,18,085,28,25,11,167,21*72
$GPGSV,3,3,11,30,01,005,,13,40,211,33,23,75,172,31*4F
$GPGLL,5045.10148,N,00705.85833,E,085009.00,A,A*62
$GPZDA,085009.00,28,05,2008,00,00*67
$GPRMC,085010.00,A,5045.10354,N,00705.85985,E,3.158,6.20,280508,,,A*62
$GPVTG,6.20,T,,M,3.158,N,5.852,K,A*3C
$GPGGA,085010.00,5045.10354,N,00705.85985,E,1,06,1.89,57.3,M,47.7,M,,*6F
$GPGSA,A,3,20,11,31,32,13,23,,,,,,,2.77,1.89,2.02*02
$GPGSV,3,1,11,02,03,314,,20,62,084,33,17,30,247,30,11,25,159,35*7D
$GPGSV,3,2,11,04,35,304,24,31,23,046,29,32,18,085,28,25,11,167,18*70
$GPGSV,3,3,11,30,01,005,,13,40,211,34,23,75,172,30*49
$GPGLL,5045.10354,N,00705.85985,E,085010.00,A,A*69
$GPZDA,085010.00,28,05,2008,00,00*6F
$GPRMC,085011.00,A,5045.10481,N,00705.86025,E,3.129,3.95,280508,,,A*61
$GPVTG,3.95,T,,M,3.129,N,5.799,K,A*39
$GPGGA,085011.00,5045.10481,N,00705.86025,E,1,06,1.89,57.3,M,47.7,M,,*61
$GPGSA,A,3,20,11,31,32,13,23,,,,,,,2.77,1.89,2.01*01
$GPGSV,3,1,11,02,03,314,,20,62,084,31,17,30,247,31,11,25,159,30*7B
$GPGSV,3,2,11,04,35,304,24,31,23,046,24,32,18,085,25,25,11,167,15*7D
$GPGSV,3,3,11,30,01,005,,13,40,211,30,23,75,172,31*4C
$GPGLL,5045.10481,N,00705.86025,E,085011.00,A,A*67
$GPZDA,085011.00,28,05,2008,00,00*6E
$GPRMC,085012.00,A,5045.10625,N,00705.86032,E,3.046,1.09,280508,,,A*67
$GPVTG,1.09,T,,M,3.046,N,5.645,K,A*36
$GPGGA,085012.00,5045.10625,N,00705.86032,E,1,06,1.89,57.3,M,47.7,M,,*68
$GPGSA,A,3,20,11,31,32,13,23,,,,,,,2.76,1.89,2.01*00
$GPGSV,3,1,11,02,03,314,,20,62,084,27,17,30,247,32,11,25,159,34*7B
$GPGSV,3,2,11,04,35,304,27,31,23,046,28,32,18,085,24,25,11,167,15*73
$GPGSV,3,3,11,30,01,005,,13,40,211,30,23,75,172,35*48
$GPGLL,5045.10625,N,00705.86032,E,085012.00,A,A*6E
$GPZDA,085012.00,28,05,2008,00,00*6D
$GPRMC,085013.00,A,5045.10735,N,00705.86071,E,3.005,357.22,280508,,,A*6F
$GPVTG,357.22,T,,M,3.005,N,5.568,K,A*34
$GPGGA,085013.00,5045.10735,N,00705.86071,E,1,06,1.89,57.3,M,47.7,M,,*6E
$GPGSA,A,3,20,11,31,32,13,23,,,,,,,2.76,1.89,2.01*00
$GPGSV,3,1,11,02,03,314,,20,62,084,27,17,30,247,33,11,25,159,31*7F
$GPGSV,3,2,11,04,35,304,30,31,23,046,24,32,18,085,21,25,11,167,18*71
$GPGSV,3,3,11,30,01,005,,13,40,211,33,23,75,172,33*4D
$GPGLL,5045.10735,N,00705.86071,E,085013.00,A,A*68
$GPZDA,085013.00,28,05,2008,00,00*6C
$GPRMC,085014.00,A,5045.10859,N,00705.86083,E,2.939,357.90,280508,,,A*6E
$GPVTG,357.90,T,,M,2.939,N,5.446,K,A*37
$GPGGA,085014.00,5045.10859,N,00705.86083,E,1,06,1.89,57.3,M,47.7,M,,*61
$GPGSA,A,3,20,11,31,32,13,23,,,,,,,2.77,1.89,2.02*02
$GPGSV,3,1,11,02,03,314,,20,62,084,22,17,30,247,32,11,25,159,29*72
$GPGSV,3,2,11,04,35,304,30,31,23,046,28,32,18,085,23,25,11,167,19*7E
$GPGSV,3,3,11,30,01,005,,13,40,211,26,23,75,172,33*49
$GPGLL,5045.10859,N,00705.86083,E,085014.00,A,A*67
$GPZDA,085014.00,28,05,2008,00,00*6B
$GPRMC,085015.00,A,5045.10987,N,00705.86201,E,3.109,2.52,280508,,,A*62
$GPVTG,2.52,T,,M,3.109,N,5.762,K,A*35
$GPGGA,085015.00,5045.10987,N,00705.86201,E,1,06,1.89,57.3,M,47.7,M,,*6A
$GPGSA,A,3,20,11,31,32,13,23,,,,,,,2.76,1.89,2.01*00
$GPGSV,3,1,11,02,03,314,,20,62,084,27,17,30,247,33,11,25,159,26*79
$GPGSV,3,2,11,04,35,304,31,31,23,046,21,32,18,085,21,25,11,167,18*75
$GPGSV,3,3,11,30,01,005,,13,40,211,32,23,75,172,31*4E
$GPGLL,5045.10987,N,00705.86201,E,085015.00,A,A*6C
$GPZDA,085015.00,28,05,2008,00,00*6A
$GPRMC,085016.00,A,5045.11096,N,00705.86254,E,3.034,3.52,280508,,,A*67
$GPVTG,3.52,T,,M,3.034,N,5.621,K,A*3D
$GPGGA,085016.00,5045.11096,N,00705.86254,E,1,06,1.89,57.4,M,47.7,M,,*66
$GPGSA,A,3,20,11,31,32,13,23,,,,,,,2.76,1.89,2.01*00
$GPGSV,3,1,11,02,03,314,,20,62,084,20,17,30,247,37,11,25,159,24*78
$GPGSV,3,2,11,04,35,304,32,31,23,046,24,32,18,085,22,25,11,167,17*7F
$GPGSV,3,3,11,30,01,005,,13,40,211,31,23,75,172,30*4C
$GPGLL,5045.11096,N,00705.86254,E,085016.00,A,A*67
$GPZDA,085016.00,28,05,2008,00,00*69
$GPRMC,085017.00,A,5045.11221,N,00705.86380,E,3.044,5.90,280508,,,A*6F
$GPVTG,5.90,T,,M,3.044,N,5.640,K,A*35
$GPGGA,085017.00,5045.11221,N,00705.86380,E,1,06,1.89,57.4,M,47.7,M,,*61
$GPGSA,A,3,20,11,31,32,13,23,,,,,,,2.76,1.89,2.01*00
$GPGSV,3,1,11,02,03,314,,20,62,084,27,17,30,247,35,11,25,159,24*7D
$GPGSV,3,2,11,04,35,304,33,31,22,046,23,32,18,085,25,25,11,167,17*7F
$GPGSV,3,3,11,30,01,005,,13,40,211,34,23,75,172,34*4D
$GPGLL,5045.11221,N,00705.86380,E,085017.00,A,A*60
$GPZDA,085017.00,28,05,2008,00,00*68
$GPRMC,085018.00,A,5045.11371,N,00705.86434,E,3.269,2.68,280508,,,A*61
$GPVTG,2.68,T,,M,3.269,N,6.057,K,A*3B
$GPGGA,085018.00,5045.11371,N,00705.86434,E,1,06,1.89,57.5,M,47.7,M,,*63
$GPGSA,A,3,20,11,31,32,13,23,,,,,,,2.76,1.89,2.01*00
$GPGSV,3,1,11,02,03,314,,20,62,084,30,17,30,247,33,11,25,159,24*7D
$GPGSV,3,2,11,04,35,304,34,31,22,046,23,32,18,085,25,25,11,167,17*78
$GPGSV,3,3,11,30,01,005,,13,40,211,36,23,75,172,35*4E
$GPGLL,5045.11371,N,00705.86434,E,085018.00,A,A*63
$GPZDA,085018.00,28,05,2008,00,00*67
$GPRMC,085019.00,A,5045.11479,N,00705.86520,E,3.194,4.87,280508,,,A*6D
$GPVTG,4.87,T,,M,3.194,N,5.919,K,A*3D
$GPGGA,085019.00,5045.11479,N,00705.86520,E,1,06,1.89,57.5,M,47.7,M,,*69
$GPGSA,A,3,20,11,31,32,13,23,,,,,,,2.76,1.89,2.01*00
$GPGSV,3,1,11,02,03,314,,20,62,084,27,17,30,247,38,11,25,159,23*77
$GPGSV,3,2,11,04,35,304,31,31,22,046,23,32,18,085,25,25,11,167,16*7C
$GPGSV,3,3,11,30,01,005,,13,40,211,37,23,75,172,34*4E
$GPGLL,5045.11479,N,00705.86520,E,085019.00,A,A*69
$GPZDA,085019.00,28,05,2008,00,00*66
$GPRMC,085020.00,A,5045.11594,N,00705.86525,E,3.092,357.71,280508,,,A*6B
$GPVTG,357.71,T,,M,3.092,N,5.729,K,A*3B
$GPGGA,085020.00,5045.11594,N,00705.86525,E,1,06,1.89,57.5,M,47.7,M,,*64
$GPGSA,A,3,20,11,31,32,13,23,,,,,,,2.76,1.89,2.01*00
$GPGSV,3,1,11,02,03,314,,20,62,084,24,17,30,247,39,11,25,159,24*72
$GPGSV,3,2,11,04,35,304,32,31,22,046,24,32,18,085,24,25,11,167,16*79
$GPGSV,3,3,11,30,01,005,,13,40,211,33,23,75,172,29*46
$GPGLL,5045.11594,N,00705.86525,E,085020.00,A,A*64
$GPZDA,085020.00,28,05,2008,00,00*6C
$GPRMC,085021.00,A,5045.11643,N,00705.86592,E,2.649,358.18,280508,,,A*6E
$GPVTG,358.18,T,,M,2.649,N,4.908,K,A*36
$GPGGA,085021.00,5045.11643,N,00705.86592,E,1,06,1.89,57.5,M,47.7,M,,*60
$GPGSA,A,3,20,11,31,32,13,23,,,,,,,2.76,1.89,2.01*00
$GPGSV,3,1,11,02,03,314,,20,62,084,23,17,30,247,38,11,25,159,28*78
$GPGSV,3,2,11,04,35,304,31,31,22,046,23,32,18,085,21,25,11,167,13*7D
$GPGSV,3,3,11,30,01,005,,13,40,211,36,23,75,172,29*43
$GPGLL,5045.11643,N,00705.86592,E,085021.00,A,A*60
$GPZDA,085021.00,28,05,2008,00,00*6D
$GPRMC,085022.00,A,5045.11682,N,00705.86696,E,2.331,7.29,280508,,,A*66
$GPVTG,7.29,T,,M,2.331,N,4.320,K,A*37
$GPGGA,085022.00,5045.11682,N,00705.86696,E,1,06,1.89,57.6,M,47.7,M,,*6A
$GPGSA,A,3,20,11,31,32,13,23,,,,,,,2.77,1.89,2.02*02
$GPGSV,3,1,11,02,03,314,,20,62,084,24,17,30,247,38,11,25,159,30*76
$GPGSV,3,2,11,04,35,304,22,31,22,046,22,32,18,085,21,25,11,167,13*7E
$GPGSV,3,3,11,30,01,005,,13,40,211,37,23,75,172,32*48
$GPGLL,5045.11682,N,00705.86696,E,085022.00,A,A*69
$GPZDA,085022.00,28,05,2008,00,00*6E
$GPRMC,085023.00,A,5045.11741,N,00705.86705,E,2.104,2.02,280508,,,A*6A
$GPVTG,2.02,T,,M,2.104,N,3.899,K,A*31
$GPGGA,085023.00,5045.11741,N,00705.86705,E,1,06,1.89,57.6,M,47.7,M,,*6E
$GPGSA,A,3,20,11,31,32,13,23,,,,,,,2.76,1.89,2.01*00
$GPGSV,3,1,11,02,03,314,,20,62,084,27,17,30,247,39,11,25,159,32*76
$GPGSV,3,2,11,04,35,304,26,31,22,046,21,32,18,085,26,25,11,167,15*78
$GPGSV,3,3,11,30,01,005,,13,40,211,39,23,75,172,32*46
$GPGLL,5045.11741,N,00705.86705,E,085023.00,A,A*6D
$GPZDA,085023.00,28,05,2008,00,00*6F
$GPRMC,085024.00,A,5045.11669,N,00705.86965,E,1.952,17.02,280508,,,A*52
$GPVTG,17.02,T,,M,1.952,N,3.616,K,A*04
$GPGGA,085024.00,5045.11669,N,00705.86965,E,1,06,1.89,57.6,M,47.7,M,,*6A
$GPGSA,A,3,20,11,31,32,13,23,,,,,,,2.76,1.89,2.01*00
$GPGSV,3,1,11,02,03,314,,20,62,084,31,17,30,247,39,11,25,159,34*77
$GPGSV,3,2,11,04,35,304,30,31,22,046,22,32,18,085,25,25,11,167,13*79
$GPGSV,3,3,11,30,01,005,,13,40,211,39,23,75,172,34*40
$GPGLL,5045.11669,N,00705.86965,E,085024.00,A,A*69
$GPZDA,085024.00,28,05,2008,00,00*68
$GPRMC,085025.00,A,5045.11614,N,00705.87214,E,1.870,18.14,280508,,,A*5C
$GPVTG,18.14,T,,M,1.870,N,3.465,K,A*0B
$GPGGA,085025.00,5045.11614,N,00705.87214,E,1,06,1.89,57.7,M,47.7,M,,*6C
$GPGSA,A,3,20,11,31,32,13,23,,,,,,,2.76,1.89,2.01*00
$GPGSV,3,1,11,02,03,314,,20,62,084,27,17,30,247,41,11,25,159,34*7F
$GPGSV,3,2,11,04,35,304,24,31,22,046,23,32,18,085,23,25,11,167,14*7C
$GPGSV,3,3,11,30,01,005,,13,40,211,37,23,75,172,35*4F
$GPGLL,5045.11614,N,00705.87214,E,085025.00,A,A*6E
$GPZDA,085025.00,28,05,2008,00,00*69
$GPRMC,085026.00,A,5045.11550,N,00705.87431,E,1.732,20.83,280508,,,A*51
$GPVTG,20.83,T,,M,1.732,N,3.209,K,A*0B
$GPGGA,085026.00,5045.11550,N,00705.87431,E,1,06,1.89,57.7,M,47.7,M,,*6D
$GPGSA,A,3,20,11,31,32,13,23,,,,,,,2.76,1.89,2.01*00
$GPGSV,3,1,11,02,03,314,,20,62,084,25,17,30,247,39,11,25,159,38*7E
$GPGSV,3,2,11,04,35,304,28,31,22,046,23,32,18,085,27,25,11,167,15*75
$GPGSV,3,3,11,30,01,005,,13,40,211,36,23,75,172,30*4B
$GPGLL,5045.11550,N,00705.87431,E,085026.00,A,A*6F
$GPZDA,085026.00,28,05,2008,00,00*6A
$GPRMC,085027.00,A,5045.11540,N,00705.87637,E,2.021,65.14,280508,,,A*5C
$GPVTG,65.14,T,,M,2.021,N,3.744,K,A*0E
$GPGGA,085027.00,5045.11540,N,00705.87637,E,1,06,1.89,57.7,M,47.7,M,,*69
$GPGSA,A,3,20,11,31,32,13,23,,,,,,,2.76,1.89,2.01*00
$GPGSV,3,1,11,02,03,314,,20,62,084,29,17,30,247,40,11,25,159,36*72
$GPGSV,3,2,11,04,35,304,25,31,22,046,23,32,18,085,23,25,11,167,16*7F
$GPGSV,3,3,11,30,01,005,,13,40,211,36,23,75,172,28*42
$GPGLL,5045.11540,N,00705.87637,E,085027.00,A,A*6B
$GPZDA,085027.00,28,05,2008,00,00*6B
$GPRMC,085028.00,A,5045.11549,N,00705.87807,E,2.252,57.46,280508,,,A*57
$GPVTG,57.46,T,,M,2.252,N,4.173,K,A*0B
$GPGGA,085028.00,5045.11549,N,00705.87807,E,1,06,1.89,57.7,M,47.7,M,,*62
$GPGSA,A,3,20,11,31,32,13,23,,,,,,,2.76,1.89,2.01*00
$GPGSV,3,1,11,02,03,314,,20,62,084,28,17,30,247,40,11,25,159,35*70
$GPGSV,3,2,11,04,35,304,25,31,22,046,22,32,18,085,22,25,11,167,17*7E
$GPGSV,3,3,11,30,01,005,,13,40,211,33,23,75,172,30*4E
$GPGLL,5045.11549,N,00705.87807,E,085028.00,A,A*60
$GPZDA,085028.00,28,05,2008,00,00*64
$GPRMC,085029.00,A,5045.11538,N,00705.88027,E,2.386,54.08,280508,,,A*54
$GPVTG,54.08,T,,M,2.386,N,4.422,K,A*0B
$GPGGA,085029.00,5045.11538,N,00705.88027,E,1,07,1.28,57.8,M,47.7,M,,*65
$GPGSA,A,3,20,17,11,31,32,13,23,,,,,,2.11,1.28,1.67*0F
$GPGSV,3,1,11,02,03,314,,20,62,084,25,17,30,247,41,11,25,159,35*7C
$GPGSV,3,2,11,04,35,304,27,31,22,046,23,32,18,085,21,25,11,167,17*7E
$GPGSV,3,3,11,30,01,005,,13,40,211,38,23,75,172,30*45
$GPGLL,5045.11538,N,00705.88027,E,085029.00,A,A*62
$GPZDA,085029.00,28,05,2008,00,00*65
$GPRMC,085030.00,A,5045.11588,N,00705.88191,E,2.572,54.58,280508,,,A*53
$GPVTG,54.58,T,,M,2.572,N,4.766,K,A*00
$GPGGA,085030.00,5045.11588,N,00705.88191,E,1,07,1.28,57.8,M,47.7,M,,*6A
$GPGSA,A,3,20,17,11,31,32,13,23,,,,,,2.11,1.28,1.67*0F
$GPGSV,3,1,11,02,03,314,,20,62,084,28,17,30,247,40,11,25,159,38*7D
$GPGSV,3,2,11,04,35,304,31,31,22,046,23,32,18,085,22,25,11,167,18*75
$GPGSV,3,3,11,30,01,005,,13,40,211,38,23,75,172,33*46
$GPGLL,5045.11588,N,00705.88191,E,085030.00,A,A*6D
$GPZDA,085030.00,28,05,2008,00,00*6D
$GPRMC,085031.00,A,5045.11605,N,00705.88344,E,2.692,58.38,280508,,,A*59
$GPVTG,58.38,T,,M,2.692,N,4.988,K,A*09
$GPGGA,085031.00,5045.11605,N,00705.88344,E,1,07,1.28,57.8,M,47.7,M,,*67
$GPGSA,A,3,20,17,11,31,32,13,23,,,,,,2.10,1.28,1.67*0E
$GPGSV,3,1,11,02,03,314,,20,62,084,29,17,30,247,40,11,25,159,36*72
$GPGSV,3,2,11,04,35,304,32,31,22,046,24,32,18,085,23,25,11,167,22*79
$GPGSV,3,3,11,30,01,005,,13,40,211,39,23,75,172,33*47
$GPGLL,5045.11605,N,00705.88344,E,085031.00,A,A*60
$GPZDA,085031.00,28,05,2008,00,00*6C
$GPRMC,085032.00,A,5045.11672,N,00705.88492,E,2.842,52.68,280508,,,A*5A
$GPVTG,52.68,T,,M,2.842,N,5.267,K,A*0E
$GPGGA,085032.00,5045.11672,N,00705.88492,E,1,07,1.28,57.9,M,47.7,M,,*69
$GPGSA,A,3,20,17,11,31,32,13,23,,,,,,2.11,1.28,1.67*0F
$GPGSV,3,1,11,02,03,314,28,20,62,084,28,17,30,247,41,11,25,159,37*79
$GPGSV,3,2,11,04,35,304,33,31,22,046,23,32,18,085,21,25,11,167,23*7C
$GPGSV,3,3,11,30,01,005,,13,40,211,40,23,75,172,34*4E
$GPGLL,5045.11672,N,00705.88492,E,085032.00,A,A*6F
$GPZDA,085032.00,28,05,2008,00,00*6F
$GPRMC,085033.00,A,5045.11706,N,00705.88618,E,2.626,49.17,280508,,,A*57
$GPVTG,49.17,T,,M,2.626,N,4.865,K,A*09
$GPGGA,085033.00,5045.11706,N,00705.88618,E,1,07,1.28,57.9,M,47.7,M,,*6A
$GPGSA,A,3,20,17,11,31,32,13,23,,,,,,2.11,1.28,1.67*0F
$GPGSV,3,1,11,02,03,314,,20,62,084,28,17,30,247,39,11,25,159,38*73
$GPGSV,3,2,11,04,35,304,33,31,22,046,23,32,18,085,22,25,11,167,23*7F
$GPGSV,3,3,11,30,01,005,,13,40,211,40,23,75,172,31*4B
$GPGLL,5045.11706,N,00705.88618,E,085033.00,A,A*6C
$GPZDA,085033.00,28,05,2008,00,00*6E
$GPRMC,085034.00,A,5045.11746,N,00705.88748,E,2.745,52.56,280508,,,A*5B
$GPVTG,52.56,T,,M,2.745,N,5.086,K,A*06
$GPGGA,085034.00,5045.11746,N,00705.88748,E,1,07,1.28,57.8,M,47.7,M,,*6C
$GPGSA,A,3,20,17,11,31,32,13,23,,,,,,2.11,1.28,1.67*0F
